{"meta": {"code": 200, "requestId": "5e70ddaab9a389001bc78aa1"}, "response": {"suggestedFilters": {"header": "Tap to show:", "filters": [{"name": "Open now", "key": "openNow"}]}, "headerLocation": "Ang Mo Kio", "headerFullLocation": "Ang Mo Kio, Singapore", "headerLocationGranularity": "neighborhood", "totalResults": 40, "suggestedBounds": {"ne": {"lat": 1.3745733045000046, "lng": 103.8540085869265}, "sw": {"lat": 1.3655732954999955, "lng": 103.8450228130735}}, "groups": [{"type": "Recommended Places", "name": "recommended", "items": [{"reasons": {"count": 0, "items": [{"summary": "This spot is popular", "type": "general", "reasonName": "globalInteractionReason"}]}, "venue": {"id": "4b15f661f964a52012b623e3", "name": "FairPrice Xtra", "location": {"address": "#B2-26 AMK Hub", "crossStreet": "53 Ang Mo Kio Ave 3", "lat": 1.3692792884081397, "lng": 103.84888576818767, "labeledLatLngs": [{"label": "display", "lat": 1.3692792884081397, "lng": 103.84888576818767}], "distance": 112, "postalCode": "569933", "cc": "SG", "city": "Singapore", "country": "Singapore", "formattedAddress": ["#B2-26 AMK Hub (53 Ang Mo Kio Ave 3)", "569933", "Singapore"]}, "categories": [{"id": "52f2ab2ebcbc57f1066b8b46", "name": "Supermarket", "pluralName": "Supermarkets", "shortName": "Supermarket", "icon": {"prefix": "https://ss3.4sqi.net/img/categories_v2/shops/food_grocery_", "suffix": ".png"}, "primary": true}], "photos": {"count": 0, "groups": []}}, "referralId": "e-0-4b15f661f964a52012b623e3-0"}, {"reasons": {"count": 0, "items": [{"summary": "This spot is popular", "type": "general", "reasonName": "globalInteractionReason"}]}, "venue": {"id": "4bc30123abf495215220c393", "name": "Old Chang Kee", "location": {"address": "AMK Hub", "crossStreet": "53 Ang Mo Kio Avenue 3", "lat": 1.369093882325005, "lng": 103.84838865753792, "labeledLatLngs": [{"label": "display", "lat": 1.369093882325005, "lng": 103.84838865753792}], "distance": 166, "postalCode": "569933", "cc": "SG", "city": "Ang Mo Kio", "country": "Singapore", "formattedAddress": ["AMK Hub (53 Ang Mo Kio Avenue 3)", "569933", "Singapore"]}, "categories": [{"id": "4bf58dd8d48988d1c7941735", "name": "Snack Place", "pluralName": "Snack Places", "shortName": "Snacks", "icon": {"prefix": "https://ss3.4sqi.net/img/categories_v2/food/snacks_", "suffix": ".png"}, "primary": true}], "photos": {"count": 0, "groups": []}}, "referralId": "e-0-4bc30123abf495215220c393-1"}, {"reasons": {"count": 0, "items": [{"summary": "This spot is popular", "type": "general", "reasonName": "globalInteractionReason"}]}, "venue": {"id": "4bceddaeb6c49c7410bb9791", "name": "Subway", "location": {"address": "#01-35 AMK Hub", "crossStreet": "53 Ang Mo Kio Ave 3", "lat": 1.3691362071202464, "lng": 103.8476121994989, "labeledLatLngs": [{"label": "display", "lat": 1.3691362071202464, "lng": 103.8476121994989}], "distance": 236, "postalCode": "569933", "cc": "SG", "city": "Singapore", "country": "Singapore", "formattedAddress": ["#01-35 AMK Hub (53 Ang Mo Kio Ave 3)", "569933", "Singapore"]}, "categories": [{"id": "4bf58dd8d48988d1c5941735", "name": "Sandwich Place", "pluralName": "Sandwich Places", "shortName": "Sandwiches", "icon": {"prefix": "https://ss3.4sqi.net/img/categories_v2/food/deli_", "suffix": ".png"}, "primary": true}], "photos": {"count": 0, "groups": []}}, "referralId": "e-0-4bceddaeb6c49c7410bb9791-2"}, {"reasons": {"count": 0, "items": [{"summary": "This spot is popular", "type": "general", "reasonName": "globalInteractionReason"}]}, "venue": {"id": "4b1ea04ff964a520e21c24e3", "name": "MOS Burger", "location": {"address": "#01-33, AMK Hub", "crossStreet": "53 Ang Mo Kio Ave 3", "lat": 1.369170234303566, "lng": 103.84783132985862, "labeledLatLngs": [{"label": "display", "lat": 1.369170234303566, "lng": 103.84783132985862}], "distance": 212, "postalCode": "569933", "cc": "SG", "city": "Singapore", "country": "Singapore", "formattedAddress": ["#01-33, AMK Hub (53 Ang Mo Kio Ave 3)", "569933", "Singapore"]}, "categories": [{"id": "4bf58dd8d48988d16c941735", "name": "Burger Joint", "pluralName": "Burger Joints", "shortName": "Burgers", "icon": {"prefix": "https://ss3.4sqi.net/img/categories_v2/food/burger_", "suffix": ".png"}, "primary": true}], "photos": {"count": 0, "groups": []}}, "referralId": "e-0-4b1ea04ff964a520e21c24e3-3"}, {"reasons": {"count": 0, "items": [{"summary": "This spot is popular", "type": "general", "reasonName": "globalInteractionReason"}]}, "venue": {"id": "4ece4dd693ad987b4a9fb4ef", "name": "NTUC FairPrice", "location": {"address": "Blk 712 Ang Mo Kio Ave 6 #01-4056", "lat": 1.3715067580283722, "lng": 103.84708243348618, "labeledLatLngs": [{"label": "display", "lat": 1.3715067580283722, "lng": 103.84708243348618}], "distance": 314, "postalCode": "560712", "cc": "SG", "city": "Singapore", "country": "Singapore", "formattedAddress": ["Blk 712 Ang Mo Kio Ave 6 #01-4056", "560712", "Singapore"]}, "categories": [{"id": "52f2ab2ebcbc57f1066b8b46", "name": "Supermarket", "pluralName": "Supermarkets", "shortName": "Supermarket", "icon": {"prefix": "https://ss3.4sqi.net/img/categories_v2/shops/food_grocery_", "suffix": ".png"}, "primary": true}], "photos": {"count": 0, "groups": []}}, "referralId": "e-0-4ece4dd693ad987b4a9fb4ef-4"}, {"reasons": {"count": 0, "items": [{"summary": "This spot is popular", "type": "general", "reasonName": "globalInteractionReason"}]}, "venue": {"id": "50712b67e4b0548504446dea", "name": "Face Ban Mian \u975e\u677f\u9762 (Ang Mo Kio)", "location": {"address": "722 Ang Mo Kio Ave 8", "crossStreet": "Ang Mo Kio Central", "lat": 1.3720308862082362, "lng": 103.84750442817865, "labeledLatLngs": [{"label": "display", "lat": 1.3720308862082362, "lng": 103.84750442817865}], "distance": 312, "postalCode": "560722", "cc": "SG", "neighborhood": "Ang Mo Kio", "country": "Singapore", "formattedAddress": ["722 Ang Mo Kio Ave 8 (Ang Mo Kio Central)", "560722", "Singapore"]}, "categories": [{"id": "4bf58dd8d48988d1d1941735", "name": "Noodle House", "pluralName": "Noodle Houses", "shortName": "Noodles", "icon": {"prefix": "https://ss3.4sqi.net/img/categories_v2/food/ramen_", "suffix": ".png"}, "primary": true}], "photos": {"count": 0, "groups": []}}, "referralId": "e-0-50712b67e4b0548504446dea-5"}, {"reasons": {"count": 0, "items": [{"summary": "This spot is popular", "type": "general", "reasonName": "globalInteractionReason"}]}, "venue": {"id": "4c0a3c90340720a1970b8693", "name": "Express Teppan-Yaki", "location": {"address": "AMK Hub", "lat": 1.3691372852995798, "lng": 103.84823193982062, "labeledLatLngs": [{"label": "display", "lat": 1.3691372852995798, "lng": 103.84823193982062}], "distance": 176, "cc": "SG", "country": "Singapore", "formattedAddress": ["AMK Hub", "Singapore"]}, "categories": [{"id": "4bf58dd8d48988d111941735", "name": "Japanese Restaurant", "pluralName": "Japanese Restaurants", "shortName": "Japanese", "icon": {"prefix": "https://ss3.4sqi.net/img/categories_v2/food/japanese_", "suffix": ".png"}, "primary": true}], "photos": {"count": 0, "groups": []}}, "referralId": "e-0-4c0a3c90340720a1970b8693-6"}, {"reasons": {"count": 0, "items": [{"summary": "This spot is popular", "type": "general", "reasonName": "globalInteractionReason"}]}, "venue": {"id": "5d48d8dfdae4eb0008d85e5a", "name": "A&W", "location": {"address": "#B1-51/51A AMK Hub", "crossStreet": "53 Ang Mo Kio Ave 3", "lat": 1.369541, "lng": 103.849043, "labeledLatLngs": [{"label": "display", "lat": 1.369541, "lng": 103.849043}], "distance": 79, "postalCode": "569933", "cc": "SG", "city": "Ang Mo Kio", "country": "Singapore", "formattedAddress": ["#B1-51/51A AMK Hub (53 Ang Mo Kio Ave 3)", "569933", "Singapore"]}, "categories": [{"id": "4bf58dd8d48988d16e941735", "name": "Fast Food Restaurant", "pluralName": "Fast Food Restaurants", "shortName": "Fast Food", "icon": {"prefix": "https://ss3.4sqi.net/img/categories_v2/food/fastfood_", "suffix": ".png"}, "primary": true}], "photos": {"count": 0, "groups": []}}, "referralId": "e-0-5d48d8dfdae4eb0008d85e5a-7"}, {"reasons": {"count": 0, "items": [{"summary": "This spot is popular", "type": "general", "reasonName": "globalInteractionReason"}]}, "venue": {"id": "4c5667cf6201e21ef369046d", "name": "Coffee Shop, Block 422, Ang Mo Kio Ave 3", "location": {"lat": 1.3681191753269961, "lng": 103.85109286908205, "labeledLatLngs": [{"label": "display", "lat": 1.3681191753269961, "lng": 103.85109286908205}], "distance": 279, "cc": "SG", "country": "Singapore", "formattedAddress": ["Singapore"]}, "categories": [{"id": "4bf58dd8d48988d1e0931735", "name": "Coffee Shop", "pluralName": "Coffee Shops", "shortName": "Coffee Shop", "icon": {"prefix": "https://ss3.4sqi.net/img/categories_v2/food/coffeeshop_", "suffix": ".png"}, "primary": true}], "photos": {"count": 0, "groups": []}}, "referralId": "e-0-4c5667cf6201e21ef369046d-8"}, {"reasons": {"count": 0, "items": [{"summary": "This spot is popular", "type": "general", "reasonName": "globalInteractionReason"}]}, "venue": {"id": "53300a03498ec51f067f0f70", "name": "Bun Master", "location": {"address": "Ang Mo Kio Hub", "crossStreet": "53 Ang Mo Kio Ave 3", "lat": 1.3692421789361022, "lng": 103.8490310616258, "labeledLatLngs": [{"label": "display", "lat": 1.3692421789361022, "lng": 103.8490310616258}], "distance": 107, "postalCode": "569933", "cc": "SG", "country": "Singapore", "formattedAddress": ["Ang Mo Kio Hub (53 Ang Mo Kio Ave 3)", "569933", "Singapore"]}, "categories": [{"id": "4bf58dd8d48988d16a941735", "name": "Bakery", "pluralName": "Bakeries", "shortName": "Bakery", "icon": {"prefix": "https://ss3.4sqi.net/img/categories_v2/food/bakery_", "suffix": ".png"}, "primary": true}], "photos": {"count": 0, "groups": []}}, "referralId": "e-0-53300a03498ec51f067f0f70-9"}, {"reasons": {"count": 0, "items": [{"summary": "This spot is popular", "type": "general", "reasonName": "globalInteractionReason"}]}, "venue": {"id": "4b5eef6df964a5208b9e29e3", "name": "PLAYe", "location": {"address": "#02-30/31, AMK HUB", "crossStreet": "53 Ang Mo Kio Ave 3", "lat": 1.3691085357692998, "lng": 103.84822546074516, "labeledLatLngs": [{"label": "display", "lat": 1.3691085357692998, "lng": 103.84822546074516}], "distance": 179, "postalCode": "569933", "cc": "SG", "city": "Singapore", "country": "Singapore", "formattedAddress": ["#02-30/31, AMK HUB (53 Ang Mo Kio Ave 3)", "569933", "Singapore"]}, "categories": [{"id": "4bf58dd8d48988d1fb941735", "name": "Hobby Shop", "pluralName": "Hobby Shops", "shortName": "Hobbies", "icon": {"prefix": "https://ss3.4sqi.net/img/categories_v2/shops/hobbyshop_", "suffix": ".png"}, "primary": true}], "photos": {"count": 0, "groups": []}}, "referralId": "e-0-4b5eef6df964a5208b9e29e3-10"}, {"reasons": {"count": 0, "items": [{"summary": "This spot is popular", "type": "general", "reasonName": "globalInteractionReason"}]}, "venue": {"id": "5b6bef7cb9a5a8002c117506", "name": "Starbucks", "location": {"address": "#B1-65, AMK Hub", "crossStreet": "53 Ang Mo Kio Ave 3", "lat": 1.3692298000769514, "lng": 103.84868271780437, "labeledLatLngs": [{"label": "display", "lat": 1.3692298000769514, "lng": 103.84868271780437}], "distance": 131, "postalCode": "569933", "cc": "SG", "city": "Ang Mo Kio", "country": "Singapore", "formattedAddress": ["#B1-65, AMK Hub (53 Ang Mo Kio Ave 3)", "569933", "Singapore"]}, "categories": [{"id": "4bf58dd8d48988d1e0931735", "name": "Coffee Shop", "pluralName": "Coffee Shops", "shortName": "Coffee Shop", "icon": {"prefix": "https://ss3.4sqi.net/img/categories_v2/food/coffeeshop_", "suffix": ".png"}, "primary": true}], "photos": {"count": 0, "groups": []}}, "referralId": "e-0-5b6bef7cb9a5a8002c117506-11"}, {"reasons": {"count": 0, "items": [{"summary": "This spot is popular", "type": "general", "reasonName": "globalInteractionReason"}]}, "venue": {"id": "5213643e11d236c03cd2810f", "name": "Swensen's", "location": {"address": "#B1-25/26, AMK Hub", "crossStreet": "53 Ang Mo Kio Ave. 3", "lat": 1.3691117290772925, "lng": 103.84771817813137, "labeledLatLngs": [{"label": "display", "lat": 1.3691117290772925, "lng": 103.84771817813137}], "distance": 226, "cc": "SG", "city": "Singapore", "country": "Singapore", "formattedAddress": ["#B1-25/26, AMK Hub (53 Ang Mo Kio Ave. 3)", "Singapore"]}, "categories": [{"id": "4bf58dd8d48988d1d0941735", "name": "Dessert Shop", "pluralName": "Dessert Shops", "shortName": "Desserts", "icon": {"prefix": "https://ss3.4sqi.net/img/categories_v2/food/dessert_", "suffix": ".png"}, "primary": true}], "photos": {"count": 0, "groups": []}}, "referralId": "e-0-5213643e11d236c03cd2810f-12"}, {"reasons": {"count": 0, "items": [{"summary": "This spot is popular", "type": "general", "reasonName": "globalInteractionReason"}]}, "venue": {"id": "4d4e516aa8fba143cab6421a", "name": "Phoon Huat & Co (Pte) Ltd", "location": {"address": "422 Ang Mo Kio Ave 3, #01-2526", "lat": 1.3683177603071388, "lng": 103.85163895414827, "labeledLatLngs": [{"label": "display", "lat": 1.3683177603071388, "lng": 103.85163895414827}], "distance": 306, "postalCode": "560422", "cc": "SG", "city": "Singapore", "country": "Singapore", "formattedAddress": ["422 Ang Mo Kio Ave 3, #01-2526", "560422", "Singapore"]}, "categories": [{"id": "4bf58dd8d48988d1ff941735", "name": "Miscellaneous Shop", "pluralName": "Miscellaneous Shops", "shortName": "Shop", "icon": {"prefix": "https://ss3.4sqi.net/img/categories_v2/shops/default_", "suffix": ".png"}, "primary": true}], "photos": {"count": 0, "groups": []}}, "referralId": "e-0-4d4e516aa8fba143cab6421a-13"}, {"reasons": {"count": 0, "items": [{"summary": "This spot is popular", "type": "general", "reasonName": "globalInteractionReason"}]}, "venue": {"id": "4b0a18e6f964a520c02123e3", "name": "Xi Xiang Feng Yong Tau Foo \u559c\u76f8\u9022\u917f\u8c46\u8150", "location": {"address": "Ang Mo Kio Central Market & Food Centre, #01-23", "crossStreet": "724 Ang Mo Kio Avenue 6", "lat": 1.3719750629461769, "lng": 103.8464082321786, "labeledLatLngs": [{"label": "display", "lat": 1.3719750629461769, "lng": 103.8464082321786}], "distance": 405, "postalCode": "560724", "cc": "SG", "city": "Singapore", "country": "Singapore", "formattedAddress": ["Ang Mo Kio Central Market & Food Centre, #01-23 (724 Ang Mo Kio Avenue 6)", "560724", "Singapore"]}, "categories": [{"id": "4bf58dd8d48988d145941735", "name": "Chinese Restaurant", "pluralName": "Chinese Restaurants", "shortName": "Chinese", "icon": {"prefix": "https://ss3.4sqi.net/img/categories_v2/food/asian_", "suffix": ".png"}, "primary": true}], "photos": {"count": 0, "groups": []}}, "referralId": "e-0-4b0a18e6f964a520c02123e3-14"}, {"reasons": {"count": 0, "items": [{"summary": "This spot is popular", "type": "general", "reasonName": "globalInteractionReason"}]}, "venue": {"id": "5be2d3831af8520039a38da2", "name": "Malaysia Boleh!", "location": {"address": "#B2-41/42, Ang Mo Kio Hub", "crossStreet": "53 Ang Mo Kio Ave 3", "lat": 1.3694410017744636, "lng": 103.84906566043585, "labeledLatLngs": [{"label": "display", "lat": 1.3694410017744636, "lng": 103.84906566043585}], "distance": 86, "postalCode": "569933", "cc": "SG", "city": "Singapore", "country": "Singapore", "formattedAddress": ["#B2-41/42, Ang Mo Kio Hub (53 Ang Mo Kio Ave 3)", "569933", "Singapore"]}, "categories": [{"id": "4bf58dd8d48988d120951735", "name": "Food Court", "pluralName": "Food Courts", "shortName": "Food Court", "icon": {"prefix": "https://ss3.4sqi.net/img/categories_v2/shops/food_foodcourt_", "suffix": ".png"}, "primary": true}], "photos": {"count": 0, "groups": []}}, "referralId": "e-0-5be2d3831af8520039a38da2-15"}, {"reasons": {"count": 0, "items": [{"summary": "This spot is popular", "type": "general", "reasonName": "globalInteractionReason"}]}, "venue": {"id": "51f77455498e868c8f2bbbbb", "name": "True Fitness", "location": {"address": "#04-01, Djitsun Mall, 5 Ang Mo Kio Central 2", "crossStreet": "Ang Mo Kio Ave 8", "lat": 1.372891267012976, "lng": 103.847660805816, "labeledLatLngs": [{"label": "display", "lat": 1.372891267012976, "lng": 103.847660805816}], "distance": 375, "postalCode": "569663", "cc": "SG", "city": "Singapore", "country": "Singapore", "formattedAddress": ["#04-01, Djitsun Mall, 5 Ang Mo Kio Central 2 (Ang Mo Kio Ave 8)", "569663", "Singapore"]}, "categories": [{"id": "4bf58dd8d48988d176941735", "name": "Gym", "pluralName": "Gyms", "shortName": "Gym", "icon": {"prefix": "https://ss3.4sqi.net/img/categories_v2/building/gym_", "suffix": ".png"}, "primary": true}], "photos": {"count": 0, "groups": []}}, "referralId": "e-0-51f77455498e868c8f2bbbbb-16"}, {"reasons": {"count": 0, "items": [{"summary": "This spot is popular", "type": "general", "reasonName": "globalInteractionReason"}]}, "venue": {"id": "4b06a9c8f964a52059ee22e3", "name": "Pepper Lunch", "location": {"address": "#01-34, AMK Hub", "crossStreet": "53 Ang Mo Kio Ave 3", "lat": 1.3691073953750246, "lng": 103.84779052779332, "labeledLatLngs": [{"label": "display", "lat": 1.3691073953750246, "lng": 103.84779052779332}], "distance": 220, "postalCode": "569933", "cc": "SG", "city": "Singapore", "country": "Singapore", "formattedAddress": ["#01-34, AMK Hub (53 Ang Mo Kio Ave 3)", "569933", "Singapore"]}, "categories": [{"id": "4bf58dd8d48988d111941735", "name": "Japanese Restaurant", "pluralName": "Japanese Restaurants", "shortName": "Japanese", "icon": {"prefix": "https://ss3.4sqi.net/img/categories_v2/food/japanese_", "suffix": ".png"}, "primary": true}], "photos": {"count": 0, "groups": []}}, "referralId": "e-0-4b06a9c8f964a52059ee22e3-17"}, {"reasons": {"count": 0, "items": [{"summary": "This spot is popular", "type": "general", "reasonName": "globalInteractionReason"}]}, "venue": {"id": "4e61bc951f6ef7d07a688717", "name": "ST31 Coffee Shop", "location": {"address": "347 Ang Mo Kio Avenue 3", "lat": 1.3674777858660376, "lng": 103.84833363275743, "labeledLatLngs": [{"label": "display", "lat": 1.3674777858660376, "lng": 103.84833363275743}], "distance": 317, "postalCode": "560347", "cc": "SG", "city": "Singapore", "country": "Singapore", "formattedAddress": ["347 Ang Mo Kio Avenue 3", "560347", "Singapore"]}, "categories": [{"id": "4bf58dd8d48988d1e0931735", "name": "Coffee Shop", "pluralName": "Coffee Shops", "shortName": "Coffee Shop", "icon": {"prefix": "https://ss3.4sqi.net/img/categories_v2/food/coffeeshop_", "suffix": ".png"}, "primary": true}], "photos": {"count": 0, "groups": []}}, "referralId": "e-0-4e61bc951f6ef7d07a688717-18"}, {"reasons": {"count": 0, "items": [{"summary": "This spot is popular", "type": "general", "reasonName": "globalInteractionReason"}]}, "venue": {"id": "4b08bbdbf964a5209a1123e3", "name": "Fitness First", "location": {"address": "#B1-36, AMK Hub", "crossStreet": "53 Ang Mo Kio Ave 3", "lat": 1.369249484168252, "lng": 103.84858429733478, "labeledLatLngs": [{"label": "display", "lat": 1.369249484168252, "lng": 103.84858429733478}], "distance": 138, "postalCode": "569933", "cc": "SG", "city": "Singapore", "country": "Singapore", "formattedAddress": ["#B1-36, AMK Hub (53 Ang Mo Kio Ave 3)", "569933", "Singapore"]}, "categories": [{"id": "4bf58dd8d48988d175941735", "name": "Gym / Fitness Center", "pluralName": "Gyms or Fitness Centers", "shortName": "Gym / Fitness", "icon": {"prefix": "https://ss3.4sqi.net/img/categories_v2/building/gym_", "suffix": ".png"}, "primary": true}], "photos": {"count": 0, "groups": []}}, "referralId": "e-0-4b08bbdbf964a5209a1123e3-19"}, {"reasons": {"count": 0, "items": [{"summary": "This spot is popular", "type": "general", "reasonName": "globalInteractionReason"}]}, "venue": {"id": "4b15f0dcf964a520e3b523e3", "name": "AMK Hub", "location": {"address": "53 Ang Mo Kio Ave. 3", "crossStreet": "Ang Mo Kio Ave. 8", "lat": 1.3692972736978681, "lng": 103.8487510002312, "distance": 121, "postalCode": "569933", "cc": "SG", "city": "Singapore", "country": "Singapore", "formattedAddress": ["53 Ang Mo Kio Ave. 3 (Ang Mo Kio Ave. 8)", "569933", "Singapore"]}, "categories": [{"id": "4bf58dd8d48988d1fd941735", "name": "Shopping Mall", "pluralName": "Shopping Malls", "shortName": "Mall", "icon": {"prefix": "https://ss3.4sqi.net/img/categories_v2/shops/mall_", "suffix": ".png"}, "primary": true}], "photos": {"count": 0, "groups": []}}, "referralId": "e-0-4b15f0dcf964a520e3b523e3-20"}, {"reasons": {"count": 0, "items": [{"summary": "This spot is popular", "type": "general", "reasonName": "globalInteractionReason"}]}, "venue": {"id": "4b1ea142f964a520001d24e3", "name": "Cathay Cineplexes", "location": {"address": "Level 4, AMK Hub", "crossStreet": "53 Ang Mo Kio Ave 3", "lat": 1.3693207810230712, "lng": 103.8487183124522, "labeledLatLngs": [{"label": "display", "lat": 1.3693207810230712, "lng": 103.8487183124522}], "distance": 122, "postalCode": "569933", "cc": "SG", "city": "Singapore", "country": "Singapore", "formattedAddress": ["Level 4, AMK Hub (53 Ang Mo Kio Ave 3)", "569933", "Singapore"]}, "categories": [{"id": "4bf58dd8d48988d180941735", "name": "Multiplex", "pluralName": "Multiplexes", "shortName": "Cineplex", "icon": {"prefix": "https://ss3.4sqi.net/img/categories_v2/arts_entertainment/movietheater_", "suffix": ".png"}, "primary": true}], "photos": {"count": 0, "groups": []}}, "referralId": "e-0-4b1ea142f964a520001d24e3-21"}, {"reasons": {"count": 0, "items": [{"summary": "This spot is popular", "type": "general", "reasonName": "globalInteractionReason"}]}, "venue": {"id": "4c8b68711556bfb775ff0093", "name": "POSB Ang Mo Kio Central Branch", "location": {"address": "712A Ang Mo Kio Ave 6 #01-4066", "lat": 1.3709690879855922, "lng": 103.847341485289, "labeledLatLngs": [{"label": "display", "lat": 1.3709690879855922, "lng": 103.847341485289}], "distance": 261, "postalCode": "560712", "cc": "SG", "city": "Singapore", "country": "Singapore", "formattedAddress": ["712A Ang Mo Kio Ave 6 #01-4066", "560712", "Singapore"]}, "categories": [{"id": "4bf58dd8d48988d10a951735", "name": "Bank", "pluralName": "Banks", "shortName": "Bank", "icon": {"prefix": "https://ss3.4sqi.net/img/categories_v2/shops/financial_", "suffix": ".png"}, "primary": true}], "photos": {"count": 0, "groups": []}}, "referralId": "e-0-4c8b68711556bfb775ff0093-22"}, {"reasons": {"count": 0, "items": [{"summary": "This spot is popular", "type": "general", "reasonName": "globalInteractionReason"}]}, "venue": {"id": "57662f0f498e7856b64833be", "name": "Collin's Grille . Bento", "location": {"address": "Ang Mo Kio Central", "crossStreet": "Jubilee Sq", "lat": 1.3717133895413027, "lng": 103.84752638869986, "labeledLatLngs": [{"label": "display", "lat": 1.3717133895413027, "lng": 103.84752638869986}], "distance": 286, "cc": "SG", "city": "Singapore", "country": "Singapore", "formattedAddress": ["Ang Mo Kio Central (Jubilee Sq)", "Singapore"]}, "categories": [{"id": "52e81612bcbc57f1066b79f9", "name": "Modern European Restaurant", "pluralName": "Modern European Restaurants", "shortName": "Modern European", "icon": {"prefix": "https://ss3.4sqi.net/img/categories_v2/food/default_", "suffix": ".png"}, "primary": true}], "photos": {"count": 0, "groups": []}}, "referralId": "e-0-57662f0f498e7856b64833be-23"}, {"reasons": {"count": 0, "items": [{"summary": "This spot is popular", "type": "general", "reasonName": "globalInteractionReason"}]}, "venue": {"id": "4f76d0c0e4b01af71245368a", "name": "LiHO", "location": {"address": "#02-66 AMK Hub", "crossStreet": "53 Ang Mo Kio Ave 3", "lat": 1.3691032014108975, "lng": 103.84824143272056, "labeledLatLngs": [{"label": "display", "lat": 1.3691032014108975, "lng": 103.84824143272056}], "distance": 178, "postalCode": "569933", "cc": "SG", "city": "Singapore", "country": "Singapore", "formattedAddress": ["#02-66 AMK Hub (53 Ang Mo Kio Ave 3)", "569933", "Singapore"]}, "categories": [{"id": "52e81612bcbc57f1066b7a0c", "name": "Bubble Tea Shop", "pluralName": "Bubble Tea Shops", "shortName": "Bubble Tea", "icon": {"prefix": "https://ss3.4sqi.net/img/categories_v2/food/bubble_", "suffix": ".png"}, "primary": true}], "photos": {"count": 0, "groups": []}}, "referralId": "e-0-4f76d0c0e4b01af71245368a-24"}, {"reasons": {"count": 0, "items": [{"summary": "This spot is popular", "type": "general", "reasonName": "globalInteractionReason"}]}, "venue": {"id": "5687adf3498e2cded5e88837", "name": "Takagi Ramen", "location": {"address": "51 Ang Mo Kio Ave 3 #01-01C", "crossStreet": "Broadway Coffee Shop", "lat": 1.3692634, "lng": 103.847046, "labeledLatLngs": [{"label": "display", "lat": 1.3692634, "lng": 103.847046}], "distance": 289, "postalCode": "560721", "cc": "SG", "neighborhood": "Ang Mo Kio", "city": "Singapore", "country": "Singapore", "formattedAddress": ["51 Ang Mo Kio Ave 3 #01-01C (Broadway Coffee Shop)", "560721", "Singapore"]}, "categories": [{"id": "55a59bace4b013909087cb24", "name": "Ramen Restaurant", "pluralName": "Ramen Restaurants", "shortName": "Ramen", "icon": {"prefix": "https://ss3.4sqi.net/img/categories_v2/food/ramen_", "suffix": ".png"}, "primary": true}], "photos": {"count": 0, "groups": []}}, "referralId": "e-0-5687adf3498e2cded5e88837-25"}, {"reasons": {"count": 0, "items": [{"summary": "This spot is popular", "type": "general", "reasonName": "globalInteractionReason"}]}, "venue": {"id": "4b7fce65f964a520903e30e3", "name": "AMK 347 Food House", "location": {"address": "347, Ang Mo Kio Avenue 3", "lat": 1.367601595486527, "lng": 103.84837187141285, "labeledLatLngs": [{"label": "display", "lat": 1.367601595486527, "lng": 103.84837187141285}], "distance": 303, "postalCode": "560347", "cc": "SG", "neighborhood": "Ang Mo Kio", "city": "Singapore", "country": "Singapore", "formattedAddress": ["347, Ang Mo Kio Avenue 3", "560347", "Singapore"]}, "categories": [{"id": "4bf58dd8d48988d1e0931735", "name": "Coffee Shop", "pluralName": "Coffee Shops", "shortName": "Coffee Shop", "icon": {"prefix": "https://ss3.4sqi.net/img/categories_v2/food/coffeeshop_", "suffix": ".png"}, "primary": true}], "photos": {"count": 0, "groups": []}}, "referralId": "e-0-4b7fce65f964a520903e30e3-26"}, {"reasons": {"count": 0, "items": [{"summary": "This spot is popular", "type": "general", "reasonName": "globalInteractionReason"}]}, "venue": {"id": "4c657dabe2ee9c749ce32d2f", "name": "Ang Mo Kio Central Market & Food Centre", "location": {"address": "724 Ang Mo Kio Avenue 6", "lat": 1.372036962033785, "lng": 103.84636606706158, "labeledLatLngs": [{"label": "display", "lat": 1.372036962033785, "lng": 103.84636606706158}], "distance": 413, "postalCode": "560724", "cc": "SG", "neighborhood": "Ang Mo Kio", "city": "Singapore", "country": "Singapore", "formattedAddress": ["724 Ang Mo Kio Avenue 6", "560724", "Singapore"]}, "categories": [{"id": "4bf58dd8d48988d120951735", "name": "Food Court", "pluralName": "Food Courts", "shortName": "Food Court", "icon": {"prefix": "https://ss3.4sqi.net/img/categories_v2/shops/food_foodcourt_", "suffix": ".png"}, "primary": true}], "photos": {"count": 0, "groups": []}}, "referralId": "e-0-4c657dabe2ee9c749ce32d2f-27"}, {"reasons": {"count": 0, "items": [{"summary": "This spot is popular", "type": "general", "reasonName": "globalInteractionReason"}]}, "venue": {"id": "5799ecad498ec6d503ab8a53", "name": "Mr Teh Tarik", "location": {"address": "Blk 728 Ang Mo Kio Avenue 6", "crossStreet": "Ang Mo Kio Central", "lat": 1.3721677783775261, "lng": 103.84560223678665, "labeledLatLngs": [{"label": "display", "lat": 1.3721677783775261, "lng": 103.84560223678665}], "distance": 494, "postalCode": "560728", "cc": "SG", "state": "Singapore", "country": "Singapore", "formattedAddress": ["Blk 728 Ang Mo Kio Avenue 6 (Ang Mo Kio Central)", "560728", "Singapore"]}, "categories": [{"id": "52e81612bcbc57f1066b79ff", "name": "Halal Restaurant", "pluralName": "Halal Restaurants", "shortName": "Halal", "icon": {"prefix": "https://ss3.4sqi.net/img/categories_v2/food/halal_", "suffix": ".png"}, "primary": true}], "photos": {"count": 0, "groups": []}}, "referralId": "e-0-5799ecad498ec6d503ab8a53-28"}, {"reasons": {"count": 0, "items": [{"summary": "This spot is popular", "type": "general", "reasonName": "globalInteractionReason"}]}, "venue": {"id": "4c2d720875579521e9735d83", "name": "Watsons", "location": {"address": "#B1-39 to 41, AMK Hub", "crossStreet": "53 Ang Mo Kio Ave 3", "lat": 1.3693816236732865, "lng": 103.84921372306107, "labeledLatLngs": [{"label": "display", "lat": 1.3693816236732865, "lng": 103.84921372306107}], "distance": 84, "postalCode": "569933", "cc": "SG", "city": "Singapore", "country": "Singapore", "formattedAddress": ["#B1-39 to 41, AMK Hub (53 Ang Mo Kio Ave 3)", "569933", "Singapore"]}, "categories": [{"id": "4bf58dd8d48988d10f951735", "name": "Pharmacy", "pluralName": "Pharmacies", "shortName": "Pharmacy", "icon": {"prefix": "https://ss3.4sqi.net/img/categories_v2/shops/pharmacy_", "suffix": ".png"}, "primary": true}], "photos": {"count": 0, "groups": []}}, "referralId": "e-0-4c2d720875579521e9735d83-29"}, {"reasons": {"count": 0, "items": [{"summary": "This spot is popular", "type": "general", "reasonName": "globalInteractionReason"}]}, "venue": {"id": "4b1e9fabf964a520cf1c24e3", "name": "Fish & Co.", "location": {"address": "#02-03, AMK Hub", "crossStreet": "53 Ang Mo Kio Ave 3", "lat": 1.3690773713959834, "lng": 103.84908088946379, "labeledLatLngs": [{"label": "display", "lat": 1.3690773713959834, "lng": 103.84908088946379}], "distance": 120, "postalCode": "569933", "cc": "SG", "city": "Singapore", "country": "Singapore", "formattedAddress": ["#02-03, AMK Hub (53 Ang Mo Kio Ave 3)", "569933", "Singapore"]}, "categories": [{"id": "4bf58dd8d48988d1ce941735", "name": "Seafood Restaurant", "pluralName": "Seafood Restaurants", "shortName": "Seafood", "icon": {"prefix": "https://ss3.4sqi.net/img/categories_v2/food/seafood_", "suffix": ".png"}, "primary": true}], "photos": {"count": 0, "groups": []}}, "referralId": "e-0-4b1e9fabf964a520cf1c24e3-30"}, {"reasons": {"count": 0, "items": [{"summary": "This spot is popular", "type": "general", "reasonName": "globalInteractionReason"}]}, "venue": {"id": "515ace52e4b0cc51344f4eb4", "name": "Lao Ban Soya Beancurd \u8001\u4f34\u8c46\u82b1", "location": {"address": "#01-03 Jubilee Sq", "crossStreet": "61 Ang Mo Kio Ave 8", "lat": 1.3716845960108295, "lng": 103.8479733775373, "labeledLatLngs": [{"label": "display", "lat": 1.3716845960108295, "lng": 103.8479733775373}], "distance": 248, "postalCode": "569814", "cc": "SG", "city": "Singapore", "country": "Singapore", "formattedAddress": ["#01-03 Jubilee Sq (61 Ang Mo Kio Ave 8)", "569814", "Singapore"]}, "categories": [{"id": "4bf58dd8d48988d1d0941735", "name": "Dessert Shop", "pluralName": "Dessert Shops", "shortName": "Desserts", "icon": {"prefix": "https://ss3.4sqi.net/img/categories_v2/food/dessert_", "suffix": ".png"}, "primary": true}], "photos": {"count": 0, "groups": []}}, "referralId": "e-0-515ace52e4b0cc51344f4eb4-31"}, {"reasons": {"count": 0, "items": [{"summary": "This spot is popular", "type": "general", "reasonName": "globalInteractionReason"}]}, "venue": {"id": "4b666f95f964a52058212be3", "name": "Popeyes Louisiana Kitchen", "location": {"address": "61 Ang Mo Kio Ave 8 #01-00", "crossStreet": "Jubilee Sq", "lat": 1.371654846551403, "lng": 103.84800842657619, "labeledLatLngs": [{"label": "display", "lat": 1.371654846551403, "lng": 103.84800842657619}], "distance": 243, "postalCode": "569814", "cc": "SG", "city": "Singapore", "country": "Singapore", "formattedAddress": ["61 Ang Mo Kio Ave 8 #01-00 (Jubilee Sq)", "569814", "Singapore"]}, "categories": [{"id": "4d4ae6fc7a7b7dea34424761", "name": "Fried Chicken Joint", "pluralName": "Fried Chicken Joints", "shortName": "Fried Chicken", "icon": {"prefix": "https://ss3.4sqi.net/img/categories_v2/food/friedchicken_", "suffix": ".png"}, "primary": true}], "photos": {"count": 0, "groups": []}}, "referralId": "e-0-4b666f95f964a52058212be3-32"}, {"reasons": {"count": 0, "items": [{"summary": "This spot is popular", "type": "general", "reasonName": "globalInteractionReason"}]}, "venue": {"id": "56680091498e8e6841cce303", "name": "Yol\u00e9", "location": {"address": "#01-08 Ang Mo Kio MRT Station", "crossStreet": "2450 Ang Mo Kio Avenue 8", "lat": 1.3691228490354497, "lng": 103.85000298363413, "labeledLatLngs": [{"label": "display", "lat": 1.3691228490354497, "lng": 103.85000298363413}], "distance": 118, "postalCode": "569811", "cc": "SG", "city": "Singapore", "country": "Singapore", "formattedAddress": ["#01-08 Ang Mo Kio MRT Station (2450 Ang Mo Kio Avenue 8)", "569811", "Singapore"]}, "categories": [{"id": "512e7cae91d4cbb4e5efe0af", "name": "Frozen Yogurt Shop", "pluralName": "Frozen Yogurt Shops", "shortName": "Yogurt", "icon": {"prefix": "https://ss3.4sqi.net/img/categories_v2/food/frozenyogurt_", "suffix": ".png"}, "primary": true}], "photos": {"count": 0, "groups": []}}, "referralId": "e-0-56680091498e8e6841cce303-33"}, {"reasons": {"count": 0, "items": [{"summary": "This spot is popular", "type": "general", "reasonName": "globalInteractionReason"}]}, "venue": {"id": "4d23ed07836f5481bc403ff7", "name": "LiHO", "location": {"address": "#01-14 Jubilee Square", "crossStreet": "61 Ang Mo Kio Ave 8", "lat": 1.3715925436856207, "lng": 103.84786263454394, "labeledLatLngs": [{"label": "display", "lat": 1.3715925436856207, "lng": 103.84786263454394}], "distance": 249, "postalCode": "569814", "cc": "SG", "city": "Singapore", "country": "Singapore", "formattedAddress": ["#01-14 Jubilee Square (61 Ang Mo Kio Ave 8)", "569814", "Singapore"]}, "categories": [{"id": "52e81612bcbc57f1066b7a0c", "name": "Bubble Tea Shop", "pluralName": "Bubble Tea Shops", "shortName": "Bubble Tea", "icon": {"prefix": "https://ss3.4sqi.net/img/categories_v2/food/bubble_", "suffix": ".png"}, "primary": true}], "photos": {"count": 0, "groups": []}}, "referralId": "e-0-4d23ed07836f5481bc403ff7-34"}, {"reasons": {"count": 0, "items": [{"summary": "This spot is popular", "type": "general", "reasonName": "globalInteractionReason"}]}, "venue": {"id": "4cd0300cadf29c74238b7b95", "name": "Yunus N Family", "location": {"address": "#01-01 Ang Mo Kio Central Food Centre", "crossStreet": "724 Ang Mo Kio Ave 6", "lat": 1.3716603267595933, "lng": 103.8463755962762, "labeledLatLngs": [{"label": "display", "lat": 1.3716603267595933, "lng": 103.8463755962762}], "distance": 391, "postalCode": "560724", "cc": "SG", "city": "Singapore", "country": "Singapore", "formattedAddress": ["#01-01 Ang Mo Kio Central Food Centre (724 Ang Mo Kio Ave 6)", "560724", "Singapore"]}, "categories": [{"id": "4bf58dd8d48988d156941735", "name": "Malay Restaurant", "pluralName": "Malay Restaurants", "shortName": "Malay", "icon": {"prefix": "https://ss3.4sqi.net/img/categories_v2/food/malaysian_", "suffix": ".png"}, "primary": true}], "photos": {"count": 0, "groups": []}}, "referralId": "e-0-4cd0300cadf29c74238b7b95-35"}, {"reasons": {"count": 0, "items": [{"summary": "This spot is popular", "type": "general", "reasonName": "globalInteractionReason"}]}, "venue": {"id": "4d490174f53c8cfa19c41247", "name": "Umi Sushi", "location": {"address": "#B2-11, AMK Hub", "crossStreet": "53 Ang Mo Kio Ave 3", "lat": 1.3694055476931515, "lng": 103.84930516535186, "labeledLatLngs": [{"label": "display", "lat": 1.3694055476931515, "lng": 103.84930516535186}], "distance": 77, "postalCode": "569933", "cc": "SG", "city": "Singapore", "country": "Singapore", "formattedAddress": ["#B2-11, AMK Hub (53 Ang Mo Kio Ave 3)", "569933", "Singapore"]}, "categories": [{"id": "4bf58dd8d48988d1d2941735", "name": "Sushi Restaurant", "pluralName": "Sushi Restaurants", "shortName": "Sushi", "icon": {"prefix": "https://ss3.4sqi.net/img/categories_v2/food/sushi_", "suffix": ".png"}, "primary": true}], "photos": {"count": 0, "groups": []}}, "referralId": "e-0-4d490174f53c8cfa19c41247-36"}, {"reasons": {"count": 0, "items": [{"summary": "This spot is popular", "type": "general", "reasonName": "globalInteractionReason"}]}, "venue": {"id": "4b9392f3f964a520d54834e3", "name": "Hong Kong Dessert", "location": {"address": "Jubilee Entertainment Hall", "crossStreet": "61 Ang Mo Kio Ave 8", "lat": 1.3716722755967306, "lng": 103.84805899124987, "labeledLatLngs": [{"label": "display", "lat": 1.3716722755967306, "lng": 103.84805899124987}], "distance": 240, "postalCode": "569814", "cc": "SG", "city": "Singapore", "country": "Singapore", "formattedAddress": ["Jubilee Entertainment Hall (61 Ang Mo Kio Ave 8)", "569814", "Singapore"]}, "categories": [{"id": "4bf58dd8d48988d1d0941735", "name": "Dessert Shop", "pluralName": "Dessert Shops", "shortName": "Desserts", "icon": {"prefix": "https://ss3.4sqi.net/img/categories_v2/food/dessert_", "suffix": ".png"}, "primary": true}], "photos": {"count": 0, "groups": []}}, "referralId": "e-0-4b9392f3f964a520d54834e3-37"}, {"reasons": {"count": 0, "items": [{"summary": "This spot is popular", "type": "general", "reasonName": "globalInteractionReason"}]}, "venue": {"id": "4b83bd62f964a520c80e31e3", "name": "McDonald's/McCafe", "location": {"address": "#01-04 Big Mac Centre", "crossStreet": "51 Ang Mo Kio Ave 3", "lat": 1.3693852228380523, "lng": 103.84736482845963, "labeledLatLngs": [{"label": "display", "lat": 1.3693852228380523, "lng": 103.84736482845963}], "distance": 251, "postalCode": "569922", "cc": "SG", "city": "Singapore", "country": "Singapore", "formattedAddress": ["#01-04 Big Mac Centre (51 Ang Mo Kio Ave 3)", "569922", "Singapore"]}, "categories": [{"id": "4bf58dd8d48988d16e941735", "name": "Fast Food Restaurant", "pluralName": "Fast Food Restaurants", "shortName": "Fast Food", "icon": {"prefix": "https://ss3.4sqi.net/img/categories_v2/food/fastfood_", "suffix": ".png"}, "primary": true}], "photos": {"count": 0, "groups": []}}, "referralId": "e-0-4b83bd62f964a520c80e31e3-38"}, {"reasons": {"count": 0, "items": [{"summary": "This spot is popular", "type": "general", "reasonName": "globalInteractionReason"}]}, "venue": {"id": "4bb4078987aa952134d8acd1", "name": "Subway", "location": {"address": "#01-15, Jubilee Square", "crossStreet": "61 Ang Mo Kio Avenue 8", "lat": 1.3715630503082745, "lng": 103.84767745118577, "labeledLatLngs": [{"label": "display", "lat": 1.3715630503082745, "lng": 103.84767745118577}], "distance": 263, "postalCode": "569814", "cc": "SG", "city": "Singapore", "country": "Singapore", "formattedAddress": ["#01-15, Jubilee Square (61 Ang Mo Kio Avenue 8)", "569814", "Singapore"]}, "categories": [{"id": "4bf58dd8d48988d1c5941735", "name": "Sandwich Place", "pluralName": "Sandwich Places", "shortName": "Sandwiches", "icon": {"prefix": "https://ss3.4sqi.net/img/categories_v2/food/deli_", "suffix": ".png"}, "primary": true}], "photos": {"count": 0, "groups": []}}, "referralId": "e-0-4bb4078987aa952134d8acd1-39"}]}]}}