{"meta": {"code": 200, "requestId": "5e6ee6f2be61c9001b2248d3"}, "response": {"suggestedFilters": {"header": "Tap to show:", "filters": [{"name": "Open now", "key": "openNow"}]}, "headerLocation": "Changi", "headerFullLocation": "Changi, Singapore", "headerLocationGranularity": "neighborhood", "totalResults": 58, "suggestedBounds": {"ne": {"lat": 1.3570160045000046, "lng": 103.9914998216221}, "sw": {"lat": 1.3480159954999955, "lng": 103.98251411320261}}, "groups": [{"type": "Recommended Places", "name": "recommended", "items": [{"reasons": {"count": 0, "items": [{"summary": "This spot is popular", "type": "general", "reasonName": "globalInteractionReason"}]}, "venue": {"id": "4b0bd124f964a520e03323e3", "name": "Singapore Changi Airport (SIN) (Singapore Changi Airport)", "location": {"address": "Airport Boulevard", "lat": 1.353767301607359, "lng": 103.98784875869751, "labeledLatLngs": [{"label": "display", "lat": 1.353767301607359, "lng": 103.98784875869751}], "distance": 167, "postalCode": "918146", "cc": "SG", "city": "Singapore", "country": "Singapore", "formattedAddress": ["Airport Boulevard", "918146", "Singapore"]}, "categories": [{"id": "4bf58dd8d48988d1ed931735", "name": "Airport", "pluralName": "Airports", "shortName": "Airport", "icon": {"prefix": "https://ss3.4sqi.net/img/categories_v2/travel/airport_", "suffix": ".png"}, "primary": true}], "photos": {"count": 0, "groups": []}}, "referralId": "e-0-4b0bd124f964a520e03323e3-0"}, {"reasons": {"count": 0, "items": [{"summary": "This spot is popular", "type": "general", "reasonName": "globalInteractionReason"}]}, "venue": {"id": "4d0b88b39a443704e448ba67", "name": "Singapore Airlines First Class Check-In Reception", "location": {"address": "Changi Airport T3", "crossStreet": "Airport Boulevard", "lat": 1.3551342655815644, "lng": 103.98673179266916, "labeledLatLngs": [{"label": "display", "lat": 1.3551342655815644, "lng": 103.98673179266916}], "distance": 293, "cc": "SG", "city": "Singapore", "country": "Singapore", "formattedAddress": ["Changi Airport T3 (Airport Boulevard)", "Singapore"]}, "categories": [{"id": "4eb1bc533b7b2c5b1d4306cb", "name": "Airport Lounge", "pluralName": "Airport Lounges", "shortName": "Lounge", "icon": {"prefix": "https://ss3.4sqi.net/img/categories_v2/nightlife/default_", "suffix": ".png"}, "primary": true}], "photos": {"count": 0, "groups": []}}, "referralId": "e-0-4d0b88b39a443704e448ba67-1"}, {"reasons": {"count": 0, "items": [{"summary": "This spot is popular", "type": "general", "reasonName": "globalInteractionReason"}]}, "venue": {"id": "4c9a936578ffa09351bc6d75", "name": "Orchid Garden", "location": {"address": "Changi Airport Terminal 2", "lat": 1.3538456347901882, "lng": 103.9890262300953, "labeledLatLngs": [{"label": "display", "lat": 1.3538456347901882, "lng": 103.9890262300953}], "distance": 269, "postalCode": "819643", "cc": "SG", "city": "Singapore", "country": "Singapore", "formattedAddress": ["Changi Airport Terminal 2", "819643", "Singapore"]}, "categories": [{"id": "4bf58dd8d48988d15a941735", "name": "Garden", "pluralName": "Gardens", "shortName": "Garden", "icon": {"prefix": "https://ss3.4sqi.net/img/categories_v2/parks_outdoors/garden_", "suffix": ".png"}, "primary": true}], "photos": {"count": 0, "groups": []}}, "referralId": "e-0-4c9a936578ffa09351bc6d75-2"}, {"reasons": {"count": 0, "items": [{"summary": "This spot is popular", "type": "general", "reasonName": "globalInteractionReason"}]}, "venue": {"id": "50edf12ce4b03df116e37509", "name": "TWG Tea Salon & Boutique", "location": {"address": "Changi Airport Terminal 2", "lat": 1.354640864770029, "lng": 103.98899306735406, "labeledLatLngs": [{"label": "display", "lat": 1.354640864770029, "lng": 103.98899306735406}], "distance": 323, "cc": "SG", "neighborhood": "Changi", "country": "Singapore", "formattedAddress": ["Changi Airport Terminal 2", "Singapore"]}, "categories": [{"id": "4bf58dd8d48988d1dc931735", "name": "Tea Room", "pluralName": "Tea Rooms", "shortName": "Tea Room", "icon": {"prefix": "https://ss3.4sqi.net/img/categories_v2/food/tearoom_", "suffix": ".png"}, "primary": true}], "photos": {"count": 0, "groups": []}}, "referralId": "e-0-50edf12ce4b03df116e37509-3"}, {"reasons": {"count": 0, "items": [{"summary": "This spot is popular", "type": "general", "reasonName": "globalInteractionReason"}]}, "venue": {"id": "4bea68c661aca59397b68300", "name": "SIA SilverKris Lounge (Terminal 3)", "location": {"address": "Level 3, Departure Transit Lounge, Terminal 3", "crossStreet": "Changi International Airport", "lat": 1.354745257389442, "lng": 103.98521485131722, "labeledLatLngs": [{"label": "display", "lat": 1.354745257389442, "lng": 103.98521485131722}], "distance": 318, "postalCode": "819663", "cc": "SG", "city": "Singapore", "country": "Singapore", "formattedAddress": ["Level 3, Departure Transit Lounge, Terminal 3 (Changi International Airport)", "819663", "Singapore"]}, "categories": [{"id": "4eb1bc533b7b2c5b1d4306cb", "name": "Airport Lounge", "pluralName": "Airport Lounges", "shortName": "Lounge", "icon": {"prefix": "https://ss3.4sqi.net/img/categories_v2/nightlife/default_", "suffix": ".png"}, "primary": true}], "photos": {"count": 0, "groups": []}}, "referralId": "e-0-4bea68c661aca59397b68300-4"}, {"reasons": {"count": 0, "items": [{"summary": "This spot is popular", "type": "general", "reasonName": "globalInteractionReason"}]}, "venue": {"id": "5075b3fbe4b08069f6320901", "name": "Terminal 3 Immigration (Arrivals North)", "location": {"address": "Level 1 (Arrival), Changi Airport Terminal 3", "lat": 1.354760053978944, "lng": 103.98601204631491, "labeledLatLngs": [{"label": "display", "lat": 1.354760053978944, "lng": 103.98601204631491}], "distance": 273, "cc": "SG", "city": "Singapore", "country": "Singapore", "formattedAddress": ["Level 1 (Arrival), Changi Airport Terminal 3", "Singapore"]}, "categories": [{"id": "52f2ab2ebcbc57f1066b8b4b", "name": "Border Crossing", "pluralName": "Border Crossings", "shortName": "Border Crossing", "icon": {"prefix": "https://ss3.4sqi.net/img/categories_v2/travel/default_", "suffix": ".png"}, "primary": true}], "photos": {"count": 0, "groups": []}}, "referralId": "e-0-5075b3fbe4b08069f6320901-5"}, {"reasons": {"count": 0, "items": [{"summary": "This spot is popular", "type": "general", "reasonName": "globalInteractionReason"}]}, "venue": {"id": "5a097d316bd36b4be1f58013", "name": "Japan Gourmet Hall SORA", "location": {"address": "#036-058/059, Terminal 2", "crossStreet": "60 Airport Blvd", "lat": 1.3547868356462962, "lng": 103.98840455562016, "labeledLatLngs": [{"label": "display", "lat": 1.3547868356462962, "lng": 103.98840455562016}], "distance": 296, "postalCode": "819643", "cc": "SG", "city": "Singapore", "country": "Singapore", "formattedAddress": ["#036-058/059, Terminal 2 (60 Airport Blvd)", "819643", "Singapore"]}, "categories": [{"id": "4bf58dd8d48988d111941735", "name": "Japanese Restaurant", "pluralName": "Japanese Restaurants", "shortName": "Japanese", "icon": {"prefix": "https://ss3.4sqi.net/img/categories_v2/food/japanese_", "suffix": ".png"}, "primary": true}], "photos": {"count": 0, "groups": []}}, "referralId": "e-0-5a097d316bd36b4be1f58013-6"}, {"reasons": {"count": 0, "items": [{"summary": "This spot is popular", "type": "general", "reasonName": "globalInteractionReason"}]}, "venue": {"id": "4c7b6bdb794e224b25486b28", "name": "Sunflower Garden", "location": {"address": "T2 Link N", "lat": 1.3537629676995884, "lng": 103.98927668412936, "labeledLatLngs": [{"label": "display", "lat": 1.3537629676995884, "lng": 103.98927668412936}], "distance": 288, "cc": "SG", "city": "Singapore", "country": "Singapore", "formattedAddress": ["T2 Link N", "Singapore"]}, "categories": [{"id": "4bf58dd8d48988d15a941735", "name": "Garden", "pluralName": "Gardens", "shortName": "Garden", "icon": {"prefix": "https://ss3.4sqi.net/img/categories_v2/parks_outdoors/garden_", "suffix": ".png"}, "primary": true}], "photos": {"count": 0, "groups": []}}, "referralId": "e-0-4c7b6bdb794e224b25486b28-7"}, {"reasons": {"count": 0, "items": [{"summary": "This spot is popular", "type": "general", "reasonName": "globalInteractionReason"}]}, "venue": {"id": "5958ccdfa9fe12131def782a", "name": "Louis Vuitton", "location": {"address": "Changi Airport Terminal 3, Departure / Transit Lounge Central ,65 Airport Boulevard, Level 2, Unit No. 02-36A", "lat": 1.3555805, "lng": 103.9861962, "labeledLatLngs": [{"label": "display", "lat": 1.3555805, "lng": 103.9861962}], "distance": 352, "postalCode": "819663", "cc": "SG", "city": "Singapore", "country": "Singapore", "formattedAddress": ["Changi Airport Terminal 3, Departure / Transit Lounge Central ,65 Airport Boulevard, Level 2, Unit No. 02-36A", "819663", "Singapore"]}, "categories": [{"id": "4bf58dd8d48988d104951735", "name": "Boutique", "pluralName": "Boutiques", "shortName": "Boutique", "icon": {"prefix": "https://ss3.4sqi.net/img/categories_v2/shops/apparel_boutique_", "suffix": ".png"}, "primary": true}], "photos": {"count": 0, "groups": []}}, "referralId": "e-0-5958ccdfa9fe12131def782a-8"}, {"reasons": {"count": 0, "items": [{"summary": "This spot is popular", "type": "general", "reasonName": "globalInteractionReason"}]}, "venue": {"id": "4fe29cb9e4b0b1a277bec24f", "name": "Singapore Airlines (SQ) Check-in Counter", "location": {"address": "Departure Hall, Terminal 3", "crossStreet": "Singapore Changi Airport", "lat": 1.3554377650369238, "lng": 103.98566067543747, "labeledLatLngs": [{"label": "display", "lat": 1.3554377650369238, "lng": 103.98566067543747}], "distance": 358, "cc": "SG", "city": "Singapore", "country": "Singapore", "formattedAddress": ["Departure Hall, Terminal 3 (Singapore Changi Airport)", "Singapore"]}, "categories": [{"id": "4bf58dd8d48988d1ed931735", "name": "Airport", "pluralName": "Airports", "shortName": "Airport", "icon": {"prefix": "https://ss3.4sqi.net/img/categories_v2/travel/airport_", "suffix": ".png"}, "primary": true}], "photos": {"count": 0, "groups": []}}, "referralId": "e-0-4fe29cb9e4b0b1a277bec24f-9"}, {"reasons": {"count": 0, "items": [{"summary": "This spot is popular", "type": "general", "reasonName": "globalInteractionReason"}]}, "venue": {"id": "4d0fe01ed21db60c06a92618", "name": "DFS", "location": {"address": "Changi Airport Terminal 2", "lat": 1.3552699803322088, "lng": 103.98920276136248, "labeledLatLngs": [{"label": "display", "lat": 1.3552699803322088, "lng": 103.98920276136248}], "distance": 392, "cc": "SG", "city": "Singapore", "country": "Singapore", "formattedAddress": ["Changi Airport Terminal 2", "Singapore"]}, "categories": [{"id": "589ddde98ae3635c072819ee", "name": "Duty-free Shop", "pluralName": "Duty-free Shops", "shortName": "Duty-free", "icon": {"prefix": "https://ss3.4sqi.net/img/categories_v2/shops/default_", "suffix": ".png"}, "primary": true}], "photos": {"count": 0, "groups": []}}, "referralId": "e-0-4d0fe01ed21db60c06a92618-10"}, {"reasons": {"count": 0, "items": [{"summary": "This spot is popular", "type": "general", "reasonName": "globalInteractionReason"}]}, "venue": {"id": "4d655fcf072a6ea874affc4d", "name": "Movie Theatre | Terminal 2", "location": {"address": "Level 3, Departure Transit Lounge, Changi Airport Terminal 2", "crossStreet": "near the Sunflower Garden", "lat": 1.3537746578183334, "lng": 103.98929511919317, "labeledLatLngs": [{"label": "display", "lat": 1.3537746578183334, "lng": 103.98929511919317}], "distance": 290, "cc": "SG", "city": "Singapore", "country": "Singapore", "formattedAddress": ["Level 3, Departure Transit Lounge, Changi Airport Terminal 2 (near the Sunflower Garden)", "Singapore"]}, "categories": [{"id": "4bf58dd8d48988d17f941735", "name": "Movie Theater", "pluralName": "Movie Theaters", "shortName": "Movie Theater", "icon": {"prefix": "https://ss3.4sqi.net/img/categories_v2/arts_entertainment/movietheater_", "suffix": ".png"}, "primary": true}], "photos": {"count": 0, "groups": []}}, "referralId": "e-0-4d655fcf072a6ea874affc4d-11"}, {"reasons": {"count": 0, "items": [{"summary": "This spot is popular", "type": "general", "reasonName": "globalInteractionReason"}]}, "venue": {"id": "554c4b30498e53034f70293b", "name": "Nando's", "location": {"address": "Changi Airport Terminal 2", "crossStreet": "75 Airport Boulevard", "lat": 1.354780904344977, "lng": 103.98822158955448, "labeledLatLngs": [{"label": "display", "lat": 1.354780904344977, "lng": 103.98822158955448}], "distance": 286, "cc": "SG", "city": "Singapore", "country": "Singapore", "formattedAddress": ["Changi Airport Terminal 2 (75 Airport Boulevard)", "Singapore"]}, "categories": [{"id": "4def73e84765ae376e57713a", "name": "Portuguese Restaurant", "pluralName": "Portuguese Restaurants", "shortName": "Portuguese", "icon": {"prefix": "https://ss3.4sqi.net/img/categories_v2/food/portuguese_", "suffix": ".png"}, "primary": true}], "photos": {"count": 0, "groups": []}}, "referralId": "e-0-554c4b30498e53034f70293b-12"}, {"reasons": {"count": 0, "items": [{"summary": "This spot is popular", "type": "general", "reasonName": "globalInteractionReason"}]}, "venue": {"id": "5365fbc4498e82a0e4ca5981", "name": "Fairprice F\u00ednest", "location": {"address": "Changi Airport Terminal 3 Level B2", "lat": 1.3560063009502297, "lng": 103.98713250533541, "labeledLatLngs": [{"label": "display", "lat": 1.3560063009502297, "lng": 103.98713250533541}], "distance": 388, "cc": "SG", "city": "Singapore", "country": "Singapore", "formattedAddress": ["Changi Airport Terminal 3 Level B2", "Singapore"]}, "categories": [{"id": "52f2ab2ebcbc57f1066b8b46", "name": "Supermarket", "pluralName": "Supermarkets", "shortName": "Supermarket", "icon": {"prefix": "https://ss3.4sqi.net/img/categories_v2/shops/food_grocery_", "suffix": ".png"}, "primary": true}], "photos": {"count": 0, "groups": []}}, "referralId": "e-0-5365fbc4498e82a0e4ca5981-13"}, {"reasons": {"count": 0, "items": [{"summary": "This spot is popular", "type": "general", "reasonName": "globalInteractionReason"}]}, "venue": {"id": "52ee3abd498e752fd304a6e5", "name": "Subway @ Changi T2", "location": {"lat": 1.3550187742070412, "lng": 103.9878616525853, "labeledLatLngs": [{"label": "display", "lat": 1.3550187742070412, "lng": 103.9878616525853}], "distance": 294, "cc": "SG", "country": "Singapore", "formattedAddress": ["Singapore"]}, "categories": [{"id": "4bf58dd8d48988d1c5941735", "name": "Sandwich Place", "pluralName": "Sandwich Places", "shortName": "Sandwiches", "icon": {"prefix": "https://ss3.4sqi.net/img/categories_v2/food/deli_", "suffix": ".png"}, "primary": true}], "photos": {"count": 0, "groups": []}}, "referralId": "e-0-52ee3abd498e752fd304a6e5-14"}, {"reasons": {"count": 0, "items": [{"summary": "This spot is popular", "type": "general", "reasonName": "globalInteractionReason"}]}, "venue": {"id": "4ca6dd69b0b8236abfd2a3e6", "name": "Herm\u00e8s", "location": {"address": "Transit Mall, Changi International Airport Terminal 3", "crossStreet": "65 Airport Blvd", "lat": 1.355955609326103, "lng": 103.98615372837247, "labeledLatLngs": [{"label": "display", "lat": 1.355955609326103, "lng": 103.98615372837247}], "distance": 394, "postalCode": "819663", "cc": "SG", "city": "Singapore", "country": "Singapore", "formattedAddress": ["Transit Mall, Changi International Airport Terminal 3 (65 Airport Blvd)", "819663", "Singapore"]}, "categories": [{"id": "4bf58dd8d48988d104951735", "name": "Boutique", "pluralName": "Boutiques", "shortName": "Boutique", "icon": {"prefix": "https://ss3.4sqi.net/img/categories_v2/shops/apparel_boutique_", "suffix": ".png"}, "primary": true}], "photos": {"count": 0, "groups": []}}, "referralId": "e-0-4ca6dd69b0b8236abfd2a3e6-15"}, {"reasons": {"count": 0, "items": [{"summary": "This spot is popular", "type": "general", "reasonName": "globalInteractionReason"}]}, "venue": {"id": "4d32d2c02e56236aa98620b4", "name": "Herm\u00e8s", "location": {"address": "Transit Mall, #026-172 Changi International Airport Terminal 2", "crossStreet": "60 Airport Blvd", "lat": 1.355171139396557, "lng": 103.98842066100045, "labeledLatLngs": [{"label": "display", "lat": 1.355171139396557, "lng": 103.98842066100045}], "distance": 334, "postalCode": "819643", "cc": "SG", "city": "Singapore", "country": "Singapore", "formattedAddress": ["Transit Mall, #026-172 Changi International Airport Terminal 2 (60 Airport Blvd)", "819643", "Singapore"]}, "categories": [{"id": "4bf58dd8d48988d104951735", "name": "Boutique", "pluralName": "Boutiques", "shortName": "Boutique", "icon": {"prefix": "https://ss3.4sqi.net/img/categories_v2/shops/apparel_boutique_", "suffix": ".png"}, "primary": true}], "photos": {"count": 0, "groups": []}}, "referralId": "e-0-4d32d2c02e56236aa98620b4-16"}, {"reasons": {"count": 0, "items": [{"summary": "This spot is popular", "type": "general", "reasonName": "globalInteractionReason"}]}, "venue": {"id": "4f211f9ae4b0c59297c67ae1", "name": "Boost Juice Bar", "location": {"address": "Changi Airport Terminal 3 Departure", "lat": 1.3556396635516295, "lng": 103.98548804886298, "labeledLatLngs": [{"label": "display", "lat": 1.3556396635516295, "lng": 103.98548804886298}], "distance": 386, "cc": "SG", "country": "Singapore", "formattedAddress": ["Changi Airport Terminal 3 Departure", "Singapore"]}, "categories": [{"id": "4bf58dd8d48988d112941735", "name": "Juice Bar", "pluralName": "Juice Bars", "shortName": "Juice Bar", "icon": {"prefix": "https://ss3.4sqi.net/img/categories_v2/food/juicebar_", "suffix": ".png"}, "primary": true}], "photos": {"count": 0, "groups": []}}, "referralId": "e-0-4f211f9ae4b0c59297c67ae1-17"}, {"reasons": {"count": 0, "items": [{"summary": "This spot is popular", "type": "general", "reasonName": "globalInteractionReason"}]}, "venue": {"id": "58b6cf059f8b86376f00b0a6", "name": "LeNu Chef Wai's Noodle Bar", "location": {"address": "65 Airport Boulevard, Level 2 #02-28 Departure/Transit Lounge, Terminal 3", "lat": 1.3556620452116432, "lng": 103.98552057853139, "labeledLatLngs": [{"label": "display", "lat": 1.3556620452116432, "lng": 103.98552057853139}], "distance": 387, "cc": "SG", "city": "Singapore", "country": "Singapore", "formattedAddress": ["65 Airport Boulevard, Level 2 #02-28 Departure/Transit Lounge, Terminal 3", "Singapore"]}, "categories": [{"id": "4bf58dd8d48988d145941735", "name": "Chinese Restaurant", "pluralName": "Chinese Restaurants", "shortName": "Chinese", "icon": {"prefix": "https://ss3.4sqi.net/img/categories_v2/food/asian_", "suffix": ".png"}, "primary": true}], "photos": {"count": 0, "groups": []}}, "referralId": "e-0-58b6cf059f8b86376f00b0a6-18"}, {"reasons": {"count": 0, "items": [{"summary": "This spot is popular", "type": "general", "reasonName": "globalInteractionReason"}]}, "venue": {"id": "4d230ea216cfb60cbb586e61", "name": "Bengawan Solo", "location": {"address": "#026-078 Changi Airport Terminal 2 Departure Hall", "crossStreet": "Airport Blvd.", "lat": 1.3546477752453365, "lng": 103.98946346246404, "labeledLatLngs": [{"label": "display", "lat": 1.3546477752453365, "lng": 103.98946346246404}], "distance": 362, "cc": "SG", "city": "Singapore", "country": "Singapore", "formattedAddress": ["#026-078 Changi Airport Terminal 2 Departure Hall (Airport Blvd.)", "Singapore"]}, "categories": [{"id": "4bf58dd8d48988d16a941735", "name": "Bakery", "pluralName": "Bakeries", "shortName": "Bakery", "icon": {"prefix": "https://ss3.4sqi.net/img/categories_v2/food/bakery_", "suffix": ".png"}, "primary": true}], "photos": {"count": 0, "groups": []}}, "referralId": "e-0-4d230ea216cfb60cbb586e61-19"}, {"reasons": {"count": 0, "items": [{"summary": "This spot is popular", "type": "general", "reasonName": "globalInteractionReason"}]}, "venue": {"id": "4bf9c0535317a59323d3017f", "name": "The Private Room", "location": {"address": "Singapore Changi Airport (SIN)", "crossStreet": "Terminal 3", "lat": 1.3543629293508601, "lng": 103.98498932113964, "labeledLatLngs": [{"label": "display", "lat": 1.3543629293508601, "lng": 103.98498932113964}], "distance": 304, "postalCode": "819664", "cc": "SG", "city": "Singapore", "country": "Singapore", "formattedAddress": ["Singapore Changi Airport (SIN) (Terminal 3)", "819664", "Singapore"]}, "categories": [{"id": "4eb1bc533b7b2c5b1d4306cb", "name": "Airport Lounge", "pluralName": "Airport Lounges", "shortName": "Lounge", "icon": {"prefix": "https://ss3.4sqi.net/img/categories_v2/nightlife/default_", "suffix": ".png"}, "primary": true}], "photos": {"count": 0, "groups": []}}, "referralId": "e-0-4bf9c0535317a59323d3017f-20"}, {"reasons": {"count": 0, "items": [{"summary": "This spot is popular", "type": "general", "reasonName": "globalInteractionReason"}]}, "venue": {"id": "515fc485e4b040ebae400284", "name": "Times Bookstore Terminal 2", "location": {"address": "Terminal 2 Changi Airport", "lat": 1.3536568678877428, "lng": 103.98879904236044, "labeledLatLngs": [{"label": "display", "lat": 1.3536568678877428, "lng": 103.98879904236044}], "distance": 236, "cc": "SG", "country": "Singapore", "formattedAddress": ["Terminal 2 Changi Airport", "Singapore"]}, "categories": [{"id": "4bf58dd8d48988d114951735", "name": "Bookstore", "pluralName": "Bookstores", "shortName": "Bookstore", "icon": {"prefix": "https://ss3.4sqi.net/img/categories_v2/shops/bookstore_", "suffix": ".png"}, "primary": true}], "photos": {"count": 0, "groups": []}}, "referralId": "e-0-515fc485e4b040ebae400284-21"}, {"reasons": {"count": 0, "items": [{"summary": "This spot is popular", "type": "general", "reasonName": "globalInteractionReason"}]}, "venue": {"id": "4fb2a70de4b0968bdd322962", "name": "McDonald's", "location": {"address": "Changi Airport T2. Transit Level 3 #036-070 (Airside)", "crossStreet": "60 Airport Blvd.", "lat": 1.3546633292507364, "lng": 103.98942926255137, "labeledLatLngs": [{"label": "display", "lat": 1.3546633292507364, "lng": 103.98942926255137}], "distance": 360, "postalCode": "819643", "cc": "SG", "neighborhood": "Changi", "city": "Singapore", "country": "Singapore", "formattedAddress": ["Changi Airport T2. Transit Level 3 #036-070 (Airside) (60 Airport Blvd.)", "819643", "Singapore"]}, "categories": [{"id": "4bf58dd8d48988d16e941735", "name": "Fast Food Restaurant", "pluralName": "Fast Food Restaurants", "shortName": "Fast Food", "icon": {"prefix": "https://ss3.4sqi.net/img/categories_v2/food/fastfood_", "suffix": ".png"}, "primary": true}], "photos": {"count": 0, "groups": []}}, "referralId": "e-0-4fb2a70de4b0968bdd322962-22"}, {"reasons": {"count": 0, "items": [{"summary": "This spot is popular", "type": "general", "reasonName": "globalInteractionReason"}]}, "venue": {"id": "4d952824942ba0933c77358c", "name": "Terminal 3 Immigration (Arrivals South)", "location": {"address": "Terminal 3, Singapore Changi Airport", "crossStreet": "Airport Boulevard", "lat": 1.3553845568437113, "lng": 103.98632526397705, "labeledLatLngs": [{"label": "display", "lat": 1.3553845568437113, "lng": 103.98632526397705}], "distance": 328, "cc": "SG", "neighborhood": "Changi", "city": "Singapore", "country": "Singapore", "formattedAddress": ["Terminal 3, Singapore Changi Airport (Airport Boulevard)", "Singapore"]}, "categories": [{"id": "52f2ab2ebcbc57f1066b8b4b", "name": "Border Crossing", "pluralName": "Border Crossings", "shortName": "Border Crossing", "icon": {"prefix": "https://ss3.4sqi.net/img/categories_v2/travel/default_", "suffix": ".png"}, "primary": true}], "photos": {"count": 0, "groups": []}}, "referralId": "e-0-4d952824942ba0933c77358c-23"}, {"reasons": {"count": 0, "items": [{"summary": "This spot is popular", "type": "general", "reasonName": "globalInteractionReason"}]}, "venue": {"id": "518f290f498e744b82bfd499", "name": "KOI Express", "location": {"address": "#B2-12 Changi Airport Terminal 3", "crossStreet": "Changi International Airport", "lat": 1.356430029248066, "lng": 103.98730341036322, "labeledLatLngs": [{"label": "display", "lat": 1.356430029248066, "lng": 103.98730341036322}], "distance": 436, "postalCode": "819663", "cc": "SG", "city": "Singapore", "country": "Singapore", "formattedAddress": ["#B2-12 Changi Airport Terminal 3 (Changi International Airport)", "819663", "Singapore"]}, "categories": [{"id": "52e81612bcbc57f1066b7a0c", "name": "Bubble Tea Shop", "pluralName": "Bubble Tea Shops", "shortName": "Bubble Tea", "icon": {"prefix": "https://ss3.4sqi.net/img/categories_v2/food/bubble_", "suffix": ".png"}, "primary": true}], "photos": {"count": 0, "groups": []}}, "referralId": "e-0-518f290f498e744b82bfd499-24"}, {"reasons": {"count": 0, "items": [{"summary": "This spot is popular", "type": "general", "reasonName": "globalInteractionReason"}]}, "venue": {"id": "4b997e05f964a520cb7e35e3", "name": "Prada", "location": {"address": "Transit Lounge Central", "crossStreet": "#026-072 Changi Airport Terminal 2", "lat": 1.3555352067179802, "lng": 103.98949179956985, "labeledLatLngs": [{"label": "display", "lat": 1.3555352067179802, "lng": 103.98949179956985}], "distance": 435, "postalCode": "918142", "cc": "SG", "city": "Singapore", "country": "Singapore", "formattedAddress": ["Transit Lounge Central (#026-072 Changi Airport Terminal 2)", "918142", "Singapore"]}, "categories": [{"id": "4bf58dd8d48988d102951735", "name": "Accessories Store", "pluralName": "Accessories Stores", "shortName": "Accessories", "icon": {"prefix": "https://ss3.4sqi.net/img/categories_v2/shops/apparel_accessories_", "suffix": ".png"}, "primary": true}], "photos": {"count": 0, "groups": []}}, "referralId": "e-0-4b997e05f964a520cb7e35e3-25"}, {"reasons": {"count": 0, "items": [{"summary": "This spot is popular", "type": "general", "reasonName": "globalInteractionReason"}]}, "venue": {"id": "59253749364d971c13bf5bc4", "name": "Irvins Salted Egg", "location": {"address": "#026-10703/Transit Area Changi Airport Terminal 2", "lat": 1.3550503956520334, "lng": 103.98981528319221, "labeledLatLngs": [{"label": "display", "lat": 1.3550503956520334, "lng": 103.98981528319221}], "distance": 421, "postalCode": "819643", "cc": "SG", "state": "Singapore", "country": "Singapore", "formattedAddress": ["#026-10703/Transit Area Changi Airport Terminal 2", "819643", "Singapore"]}, "categories": [{"id": "4bf58dd8d48988d1c7941735", "name": "Snack Place", "pluralName": "Snack Places", "shortName": "Snacks", "icon": {"prefix": "https://ss3.4sqi.net/img/categories_v2/food/snacks_", "suffix": ".png"}, "primary": true}], "photos": {"count": 0, "groups": []}}, "referralId": "e-0-59253749364d971c13bf5bc4-26"}, {"reasons": {"count": 0, "items": [{"summary": "This spot is popular", "type": "general", "reasonName": "globalInteractionReason"}]}, "venue": {"id": "4ddd8e22fa769803ef7e9d95", "name": "The Cocoa Trees", "location": {"address": "Terminal 2", "crossStreet": "Changi International Airport", "lat": 1.3555727382749072, "lng": 103.99010954991641, "labeledLatLngs": [{"label": "display", "lat": 1.3555727382749072, "lng": 103.99010954991641}], "distance": 484, "postalCode": "819663", "cc": "SG", "city": "Singapore", "country": "Singapore", "formattedAddress": ["Terminal 2 (Changi International Airport)", "819663", "Singapore"]}, "categories": [{"id": "4bf58dd8d48988d117951735", "name": "Candy Store", "pluralName": "Candy Stores", "shortName": "Candy Store", "icon": {"prefix": "https://ss3.4sqi.net/img/categories_v2/shops/candystore_", "suffix": ".png"}, "primary": true}], "photos": {"count": 0, "groups": []}}, "referralId": "e-0-4ddd8e22fa769803ef7e9d95-27"}, {"reasons": {"count": 0, "items": [{"summary": "This spot is popular", "type": "general", "reasonName": "globalInteractionReason"}]}, "venue": {"id": "4c013ec3360a9c74ce1cd9a0", "name": "Smoking Area", "location": {"address": "Departure Hall, Changi Airport Terminal 2", "crossStreet": "60 Airport Blvd.", "lat": 1.3540258556294384, "lng": 103.9896165255347, "labeledLatLngs": [{"label": "display", "lat": 1.3540258556294384, "lng": 103.9896165255347}], "distance": 335, "postalCode": "819643", "cc": "SG", "city": "Singapore", "country": "Singapore", "formattedAddress": ["Departure Hall, Changi Airport Terminal 2 (60 Airport Blvd.)", "819643", "Singapore"]}, "categories": [{"id": "4d954b16a243a5684b65b473", "name": "Rest Area", "pluralName": "Rest Areas", "shortName": "Rest Areas", "icon": {"prefix": "https://ss3.4sqi.net/img/categories_v2/travel/restarea_", "suffix": ".png"}, "primary": true}], "photos": {"count": 0, "groups": []}}, "referralId": "e-0-4c013ec3360a9c74ce1cd9a0-28"}, {"reasons": {"count": 0, "items": [{"summary": "This spot is popular", "type": "general", "reasonName": "globalInteractionReason"}]}, "venue": {"id": "55e5b86d498e18a2e50070ec", "name": "ZARA", "location": {"address": "Singapore Changi Airport Terminal 3", "lat": 1.35485441267384, "lng": 103.98544953984432, "labeledLatLngs": [{"label": "display", "lat": 1.35485441267384, "lng": 103.98544953984432}], "distance": 312, "cc": "SG", "country": "Singapore", "formattedAddress": ["Singapore Changi Airport Terminal 3", "Singapore"]}, "categories": [{"id": "4bf58dd8d48988d103951735", "name": "Clothing Store", "pluralName": "Clothing Stores", "shortName": "Apparel", "icon": {"prefix": "https://ss3.4sqi.net/img/categories_v2/shops/apparel_", "suffix": ".png"}, "primary": true}], "photos": {"count": 0, "groups": []}}, "referralId": "e-0-55e5b86d498e18a2e50070ec-29"}, {"reasons": {"count": 0, "items": [{"summary": "This spot is popular", "type": "general", "reasonName": "globalInteractionReason"}]}, "venue": {"id": "4c7ba42597028cfadc5ae1fe", "name": "Tiffany & Co.", "location": {"address": "Departure/Transit Lounge South, Unit 02-18 Terminal 3", "lat": 1.3554984517920186, "lng": 103.9863190948472, "labeledLatLngs": [{"label": "display", "lat": 1.3554984517920186, "lng": 103.9863190948472}], "distance": 340, "postalCode": "819663", "cc": "SG", "city": "Singapore", "country": "Singapore", "formattedAddress": ["Departure/Transit Lounge South, Unit 02-18 Terminal 3", "819663", "Singapore"]}, "categories": [{"id": "4bf58dd8d48988d111951735", "name": "Jewelry Store", "pluralName": "Jewelry Stores", "shortName": "Jewelry", "icon": {"prefix": "https://ss3.4sqi.net/img/categories_v2/shops/jewelry_", "suffix": ".png"}, "primary": true}], "photos": {"count": 0, "groups": []}}, "referralId": "e-0-4c7ba42597028cfadc5ae1fe-30"}, {"reasons": {"count": 0, "items": [{"summary": "This spot is popular", "type": "general", "reasonName": "globalInteractionReason"}]}, "venue": {"id": "571b7565498e465e30395e2e", "name": "TWG Tea Boutique", "location": {"address": "T3 Departure", "lat": 1.3559476165406765, "lng": 103.98580638215276, "labeledLatLngs": [{"label": "display", "lat": 1.3559476165406765, "lng": 103.98580638215276}], "distance": 404, "cc": "SG", "neighborhood": "Changi", "country": "Singapore", "formattedAddress": ["T3 Departure", "Singapore"]}, "categories": [{"id": "4bf58dd8d48988d128951735", "name": "Gift Shop", "pluralName": "Gift Shops", "shortName": "Gift Shop", "icon": {"prefix": "https://ss3.4sqi.net/img/categories_v2/shops/giftshop_", "suffix": ".png"}, "primary": true}], "photos": {"count": 0, "groups": []}}, "referralId": "e-0-571b7565498e465e30395e2e-31"}, {"reasons": {"count": 0, "items": [{"summary": "This spot is popular", "type": "general", "reasonName": "globalInteractionReason"}]}, "venue": {"id": "59b624a31499466c7afe570f", "name": "TGM Japanese Korean Cuisine", "location": {"address": "Terminal 2, Departure Transit Lounge Level 3", "crossStreet": "SIN Airport", "lat": 1.3552313785183874, "lng": 103.98954391479492, "labeledLatLngs": [{"label": "display", "lat": 1.3552313785183874, "lng": 103.98954391479492}], "distance": 413, "postalCode": "819643", "cc": "SG", "neighborhood": "Changi Airport", "city": "Singapore", "country": "Singapore", "formattedAddress": ["Terminal 2, Departure Transit Lounge Level 3 (SIN Airport)", "819643", "Singapore"]}, "categories": [{"id": "4bf58dd8d48988d142941735", "name": "Asian Restaurant", "pluralName": "Asian Restaurants", "shortName": "Asian", "icon": {"prefix": "https://ss3.4sqi.net/img/categories_v2/food/asian_", "suffix": ".png"}, "primary": true}], "photos": {"count": 0, "groups": []}}, "referralId": "e-0-59b624a31499466c7afe570f-32"}, {"reasons": {"count": 0, "items": [{"summary": "This spot is popular", "type": "general", "reasonName": "globalInteractionReason"}]}, "venue": {"id": "4edea5da29c25233b4e0eed6", "name": "Xperience Zone", "location": {"address": "Departure Transit Lounge, Level 2, Transit Area, Changi Airport Terminal 2", "crossStreet": "Singapore Changi Airport (SIN)", "lat": 1.3545435224888749, "lng": 103.98970795442457, "labeledLatLngs": [{"label": "display", "lat": 1.3545435224888749, "lng": 103.98970795442457}], "distance": 375, "cc": "SG", "city": "Singapore", "country": "Singapore", "formattedAddress": ["Departure Transit Lounge, Level 2, Transit Area, Changi Airport Terminal 2 (Singapore Changi Airport (SIN))", "Singapore"]}, "categories": [{"id": "4bf58dd8d48988d1e5931735", "name": "Music Venue", "pluralName": "Music Venues", "shortName": "Music Venue", "icon": {"prefix": "https://ss3.4sqi.net/img/categories_v2/arts_entertainment/musicvenue_", "suffix": ".png"}, "primary": true}], "photos": {"count": 0, "groups": []}}, "referralId": "e-0-4edea5da29c25233b4e0eed6-33"}, {"reasons": {"count": 0, "items": [{"summary": "This spot is popular", "type": "general", "reasonName": "globalInteractionReason"}]}, "venue": {"id": "4c6885fd832bc928e790b4a8", "name": "DBS Asia Treasures Terminal 2 Lounge", "location": {"address": "T2 Changi Airport", "lat": 1.3558415907303576, "lng": 103.98930024088298, "labeledLatLngs": [{"label": "display", "lat": 1.3558415907303576, "lng": 103.98930024088298}], "distance": 449, "postalCode": "819643", "cc": "SG", "city": "Singapore", "country": "Singapore", "formattedAddress": ["T2 Changi Airport", "819643", "Singapore"]}, "categories": [{"id": "4eb1bc533b7b2c5b1d4306cb", "name": "Airport Lounge", "pluralName": "Airport Lounges", "shortName": "Lounge", "icon": {"prefix": "https://ss3.4sqi.net/img/categories_v2/nightlife/default_", "suffix": ".png"}, "primary": true}], "photos": {"count": 0, "groups": []}}, "referralId": "e-0-4c6885fd832bc928e790b4a8-34"}, {"reasons": {"count": 0, "items": [{"summary": "This spot is popular", "type": "general", "reasonName": "globalInteractionReason"}]}, "venue": {"id": "592a04bbb8fd9d01a77677a8", "name": "Starbucks", "location": {"address": "Terminal 3 Departure #02-90", "lat": 1.352087, "lng": 103.98409, "labeledLatLngs": [{"label": "display", "lat": 1.352087, "lng": 103.98409}], "distance": 328, "cc": "SG", "city": "Singapore", "country": "Singapore", "formattedAddress": ["Terminal 3 Departure #02-90", "Singapore"]}, "categories": [{"id": "4bf58dd8d48988d1e0931735", "name": "Coffee Shop", "pluralName": "Coffee Shops", "shortName": "Coffee Shop", "icon": {"prefix": "https://ss3.4sqi.net/img/categories_v2/food/coffeeshop_", "suffix": ".png"}, "primary": true}], "photos": {"count": 0, "groups": []}}, "referralId": "e-0-592a04bbb8fd9d01a77677a8-35"}, {"reasons": {"count": 0, "items": [{"summary": "This spot is popular", "type": "general", "reasonName": "globalInteractionReason"}]}, "venue": {"id": "4d761b7ad94ea35d00f9afaf", "name": "Ambassador Transit Hotel", "location": {"address": "Terminal 2", "crossStreet": "SIN Airport", "lat": 1.353961611666803, "lng": 103.98947346794104, "labeledLatLngs": [{"label": "display", "lat": 1.353961611666803, "lng": 103.98947346794104}], "distance": 318, "cc": "SG", "city": "Changi Village", "state": "North East Community Development Region", "country": "Singapore", "formattedAddress": ["Terminal 2 (SIN Airport)", "Singapore"]}, "categories": [{"id": "4bf58dd8d48988d1fa931735", "name": "Hotel", "pluralName": "Hotels", "shortName": "Hotel", "icon": {"prefix": "https://ss3.4sqi.net/img/categories_v2/travel/hotel_", "suffix": ".png"}, "primary": true}], "photos": {"count": 0, "groups": []}}, "referralId": "e-0-4d761b7ad94ea35d00f9afaf-36"}, {"reasons": {"count": 0, "items": [{"summary": "This spot is popular", "type": "general", "reasonName": "globalInteractionReason"}]}, "venue": {"id": "515a38a2e4b0f49f046ee922", "name": "Relay Bookshop | Terminal 2", "location": {"address": "Departure Transit Lounge (near E Gates), Changi Airport Terminal 2", "crossStreet": "60 Airport Blvd.", "lat": 1.3557774948042516, "lng": 103.98978083838004, "labeledLatLngs": [{"label": "display", "lat": 1.3557774948042516, "lng": 103.98978083838004}], "distance": 476, "postalCode": "819643", "cc": "SG", "city": "Singapore", "country": "Singapore", "formattedAddress": ["Departure Transit Lounge (near E Gates), Changi Airport Terminal 2 (60 Airport Blvd.)", "819643", "Singapore"]}, "categories": [{"id": "4bf58dd8d48988d114951735", "name": "Bookstore", "pluralName": "Bookstores", "shortName": "Bookstore", "icon": {"prefix": "https://ss3.4sqi.net/img/categories_v2/shops/bookstore_", "suffix": ".png"}, "primary": true}], "photos": {"count": 0, "groups": []}}, "referralId": "e-0-515a38a2e4b0f49f046ee922-37"}, {"reasons": {"count": 0, "items": [{"summary": "This spot is popular", "type": "general", "reasonName": "globalInteractionReason"}]}, "venue": {"id": "53931c0f498ee0e5e0b8ffd5", "name": "Mugiho Bakers", "location": {"address": "Kopitiam, Terminal 3 Basement 2 Mall", "crossStreet": "Changi International Airport", "lat": 1.3556146010754908, "lng": 103.9870046534929, "labeledLatLngs": [{"label": "display", "lat": 1.3556146010754908, "lng": 103.9870046534929}], "distance": 344, "cc": "SG", "city": "Singapore", "country": "Singapore", "formattedAddress": ["Kopitiam, Terminal 3 Basement 2 Mall (Changi International Airport)", "Singapore"]}, "categories": [{"id": "4bf58dd8d48988d16a941735", "name": "Bakery", "pluralName": "Bakeries", "shortName": "Bakery", "icon": {"prefix": "https://ss3.4sqi.net/img/categories_v2/food/bakery_", "suffix": ".png"}, "primary": true}], "photos": {"count": 0, "groups": []}}, "referralId": "e-0-53931c0f498ee0e5e0b8ffd5-38"}, {"reasons": {"count": 0, "items": [{"summary": "This spot is popular", "type": "general", "reasonName": "globalInteractionReason"}]}, "venue": {"id": "4ea92a196c253859bb40b752", "name": "Entertainment Deck", "location": {"address": "Terminal 2, Singapore Changi Airport", "crossStreet": "Airport Blvd.", "lat": 1.3537923065236355, "lng": 103.98927560154314, "labeledLatLngs": [{"label": "display", "lat": 1.3537923065236355, "lng": 103.98927560154314}], "distance": 289, "cc": "SG", "city": "Singapore", "country": "Singapore", "formattedAddress": ["Terminal 2, Singapore Changi Airport (Airport Blvd.)", "Singapore"]}, "categories": [{"id": "4bf58dd8d48988d180941735", "name": "Multiplex", "pluralName": "Multiplexes", "shortName": "Cineplex", "icon": {"prefix": "https://ss3.4sqi.net/img/categories_v2/arts_entertainment/movietheater_", "suffix": ".png"}, "primary": true}], "photos": {"count": 0, "groups": []}}, "referralId": "e-0-4ea92a196c253859bb40b752-39"}, {"reasons": {"count": 0, "items": [{"summary": "This spot is popular", "type": "general", "reasonName": "globalInteractionReason"}]}, "venue": {"id": "4dcfd4c3887785124419d562", "name": "Bengawan Solo", "location": {"address": "#02-85, Changi Airport T3 (65 Airport Boulevard)", "crossStreet": "65 Airport Blvd", "lat": 1.3559385514384592, "lng": 103.98673841908062, "labeledLatLngs": [{"label": "display", "lat": 1.3559385514384592, "lng": 103.98673841908062}], "distance": 382, "postalCode": "819666", "cc": "SG", "city": "Singapore", "country": "Singapore", "formattedAddress": ["#02-85, Changi Airport T3 (65 Airport Boulevard) (65 Airport Blvd)", "819666", "Singapore"]}, "categories": [{"id": "4bf58dd8d48988d16a941735", "name": "Bakery", "pluralName": "Bakeries", "shortName": "Bakery", "icon": {"prefix": "https://ss3.4sqi.net/img/categories_v2/food/bakery_", "suffix": ".png"}, "primary": true}], "photos": {"count": 0, "groups": []}}, "referralId": "e-0-4dcfd4c3887785124419d562-40"}, {"reasons": {"count": 0, "items": [{"summary": "This spot is popular", "type": "general", "reasonName": "globalInteractionReason"}]}, "venue": {"id": "4c576b467329c928d4f58e80", "name": "Gate A5", "location": {"address": "Concourse A, Terminal 3", "crossStreet": "Changi International Airport", "lat": 1.354980040319938, "lng": 103.98484918286971, "labeledLatLngs": [{"label": "display", "lat": 1.354980040319938, "lng": 103.98484918286971}], "distance": 364, "postalCode": "819663", "cc": "SG", "city": "Singapore", "country": "Singapore", "formattedAddress": ["Concourse A, Terminal 3 (Changi International Airport)", "819663", "Singapore"]}, "categories": [{"id": "4bf58dd8d48988d1f0931735", "name": "Airport Gate", "pluralName": "Airport Gates", "shortName": "Gate", "icon": {"prefix": "https://ss3.4sqi.net/img/categories_v2/travel/airport_gate_", "suffix": ".png"}, "primary": true}], "photos": {"count": 0, "groups": []}}, "referralId": "e-0-4c576b467329c928d4f58e80-41"}, {"reasons": {"count": 0, "items": [{"summary": "This spot is popular", "type": "general", "reasonName": "globalInteractionReason"}]}, "venue": {"id": "53dcfcb2498e6dfaddc359e0", "name": "Krispy Kreme", "location": {"address": "Changi Airport Terminal 2 Departure Hall North", "crossStreet": "60 Airport Blvd", "lat": 1.3564668999629803, "lng": 103.9888390474869, "labeledLatLngs": [{"label": "display", "lat": 1.3564668999629803, "lng": 103.9888390474869}], "distance": 484, "postalCode": "819643", "cc": "SG", "city": "Singapore", "country": "Singapore", "formattedAddress": ["Changi Airport Terminal 2 Departure Hall North (60 Airport Blvd)", "819643", "Singapore"]}, "categories": [{"id": "4bf58dd8d48988d148941735", "name": "Donut Shop", "pluralName": "Donut Shops", "shortName": "Donuts", "icon": {"prefix": "https://ss3.4sqi.net/img/categories_v2/food/donuts_", "suffix": ".png"}, "primary": true}], "photos": {"count": 0, "groups": []}}, "referralId": "e-0-53dcfcb2498e6dfaddc359e0-42"}, {"reasons": {"count": 0, "items": [{"summary": "This spot is popular", "type": "general", "reasonName": "globalInteractionReason"}]}, "venue": {"id": "58ee0303d4ab73464b9be7ff", "name": "Starbucks Reserve", "location": {"address": "Terminal 3 Departure Hall, #02-90, Singapore Changi Airport", "crossStreet": "65 Airport Boulevard", "lat": 1.3568763583222232, "lng": 103.98722669998013, "labeledLatLngs": [{"label": "display", "lat": 1.3568763583222232, "lng": 103.98722669998013}], "distance": 486, "postalCode": "819663", "cc": "SG", "city": "Singapore", "country": "Singapore", "formattedAddress": ["Terminal 3 Departure Hall, #02-90, Singapore Changi Airport (65 Airport Boulevard)", "819663", "Singapore"]}, "categories": [{"id": "4bf58dd8d48988d1e0931735", "name": "Coffee Shop", "pluralName": "Coffee Shops", "shortName": "Coffee Shop", "icon": {"prefix": "https://ss3.4sqi.net/img/categories_v2/food/coffeeshop_", "suffix": ".png"}, "primary": true}], "photos": {"count": 0, "groups": []}}, "referralId": "e-0-58ee0303d4ab73464b9be7ff-43"}, {"reasons": {"count": 0, "items": [{"summary": "This spot is popular", "type": "general", "reasonName": "globalInteractionReason"}]}, "venue": {"id": "4b5b2758f964a520fce628e3", "name": "The Coffee Bean & Tea Leaf", "location": {"address": "#026-017, Changi Airport Terminal 2", "crossStreet": "60 Airport Blvd", "lat": 1.3537873306997938, "lng": 103.98926488249795, "labeledLatLngs": [{"label": "display", "lat": 1.3537873306997938, "lng": 103.98926488249795}], "distance": 288, "postalCode": "819643", "cc": "SG", "city": "Singapore", "state": "Riau", "country": "Singapore", "formattedAddress": ["#026-017, Changi Airport Terminal 2 (60 Airport Blvd)", "819643", "Singapore"]}, "categories": [{"id": "4bf58dd8d48988d1e0931735", "name": "Coffee Shop", "pluralName": "Coffee Shops", "shortName": "Coffee Shop", "icon": {"prefix": "https://ss3.4sqi.net/img/categories_v2/food/coffeeshop_", "suffix": ".png"}, "primary": true}], "photos": {"count": 0, "groups": []}}, "referralId": "e-0-4b5b2758f964a520fce628e3-44"}, {"reasons": {"count": 0, "items": [{"summary": "This spot is popular", "type": "general", "reasonName": "globalInteractionReason"}]}, "venue": {"id": "57067b5acd103cd2d2f726c0", "name": "Boost Juice Bar", "location": {"address": "Changi Terminal 2", "lat": 1.3554446039421917, "lng": 103.99001915967077, "labeledLatLngs": [{"label": "display", "lat": 1.3554446039421917, "lng": 103.99001915967077}], "distance": 467, "cc": "SG", "country": "Singapore", "formattedAddress": ["Changi Terminal 2", "Singapore"]}, "categories": [{"id": "4bf58dd8d48988d112941735", "name": "Juice Bar", "pluralName": "Juice Bars", "shortName": "Juice Bar", "icon": {"prefix": "https://ss3.4sqi.net/img/categories_v2/food/juicebar_", "suffix": ".png"}, "primary": true}], "photos": {"count": 0, "groups": []}}, "referralId": "e-0-57067b5acd103cd2d2f726c0-45"}, {"reasons": {"count": 0, "items": [{"summary": "This spot is popular", "type": "general", "reasonName": "globalInteractionReason"}]}, "venue": {"id": "4b75d7e1f964a520d0282ee3", "name": "T2 Staff Canteen by Kopitiam", "location": {"address": "Level 3M, Changi Airport Terminal 2", "lat": 1.3531005062295727, "lng": 103.98781924433884, "labeledLatLngs": [{"label": "display", "lat": 1.3531005062295727, "lng": 103.98781924433884}], "distance": 111, "postalCode": "819643", "cc": "SG", "city": "Singapore", "country": "Singapore", "formattedAddress": ["Level 3M, Changi Airport Terminal 2", "819643", "Singapore"]}, "categories": [{"id": "4bf58dd8d48988d1ef931735", "name": "Airport Food Court", "pluralName": "Airport Food Courts", "shortName": "Food Court", "icon": {"prefix": "https://ss3.4sqi.net/img/categories_v2/travel/airport_", "suffix": ".png"}, "primary": true}], "photos": {"count": 0, "groups": []}}, "referralId": "e-0-4b75d7e1f964a520d0282ee3-46"}, {"reasons": {"count": 0, "items": [{"summary": "This spot is popular", "type": "general", "reasonName": "globalInteractionReason"}]}, "venue": {"id": "4bb9f1cd1261d13a9a02ea98", "name": "SATS Premier Lounge", "location": {"address": "Terminal 2", "crossStreet": "Changi International Airport", "lat": 1.3551691123863996, "lng": 103.98994157915307, "labeledLatLngs": [{"label": "display", "lat": 1.3551691123863996, "lng": 103.98994157915307}], "distance": 440, "postalCode": "819663", "cc": "SG", "city": "Singapore", "country": "Singapore", "formattedAddress": ["Terminal 2 (Changi International Airport)", "819663", "Singapore"]}, "categories": [{"id": "4eb1bc533b7b2c5b1d4306cb", "name": "Airport Lounge", "pluralName": "Airport Lounges", "shortName": "Lounge", "icon": {"prefix": "https://ss3.4sqi.net/img/categories_v2/nightlife/default_", "suffix": ".png"}, "primary": true}], "photos": {"count": 0, "groups": []}}, "referralId": "e-0-4bb9f1cd1261d13a9a02ea98-47"}, {"reasons": {"count": 0, "items": [{"summary": "This spot is popular", "type": "general", "reasonName": "globalInteractionReason"}]}, "venue": {"id": "4c3f3dc7d7fad13ae23304da", "name": "SIA Flight Operations Flight Control Centre", "location": {"address": "65 Airport Blvd.", "lat": 1.3530002584506047, "lng": 103.98716250881137, "labeledLatLngs": [{"label": "display", "lat": 1.3530002584506047, "lng": 103.98716250881137}], "distance": 56, "postalCode": "819663", "cc": "SG", "city": "Singapore", "country": "Singapore", "formattedAddress": ["65 Airport Blvd.", "819663", "Singapore"]}, "categories": [{"id": "4bf58dd8d48988d124941735", "name": "Office", "pluralName": "Offices", "shortName": "Office", "icon": {"prefix": "https://ss3.4sqi.net/img/categories_v2/building/default_", "suffix": ".png"}, "primary": true}], "photos": {"count": 0, "groups": []}}, "referralId": "e-0-4c3f3dc7d7fad13ae23304da-48"}, {"reasons": {"count": 0, "items": [{"summary": "This spot is popular", "type": "general", "reasonName": "globalInteractionReason"}]}, "venue": {"id": "51b6ebb2498e1d02e7b47c64", "name": "Entertainment Deck Terminal 2", "location": {"address": "Changi Airport", "crossStreet": "Singapore", "lat": 1.351717050341516, "lng": 103.9854623213035, "labeledLatLngs": [{"label": "display", "lat": 1.351717050341516, "lng": 103.9854623213035}], "distance": 193, "cc": "SG", "country": "Singapore", "formattedAddress": ["Changi Airport (Singapore)", "Singapore"]}, "categories": [{"id": "4bf58dd8d48988d17f941735", "name": "Movie Theater", "pluralName": "Movie Theaters", "shortName": "Movie Theater", "icon": {"prefix": "https://ss3.4sqi.net/img/categories_v2/arts_entertainment/movietheater_", "suffix": ".png"}, "primary": true}], "photos": {"count": 0, "groups": []}}, "referralId": "e-0-51b6ebb2498e1d02e7b47c64-49"}, {"reasons": {"count": 0, "items": [{"summary": "This spot is popular", "type": "general", "reasonName": "globalInteractionReason"}]}, "venue": {"id": "4c0c8cadb1b676b03f4ddf86", "name": "Levi's", "location": {"address": "Changi Airport T2", "lat": 1.3518795527836271, "lng": 103.99040222167969, "labeledLatLngs": [{"label": "display", "lat": 1.3518795527836271, "lng": 103.99040222167969}], "distance": 384, "cc": "SG", "country": "Singapore", "formattedAddress": ["Changi Airport T2", "Singapore"]}, "categories": [{"id": "4bf58dd8d48988d103951735", "name": "Clothing Store", "pluralName": "Clothing Stores", "shortName": "Apparel", "icon": {"prefix": "https://ss3.4sqi.net/img/categories_v2/shops/apparel_", "suffix": ".png"}, "primary": true}], "photos": {"count": 0, "groups": []}}, "referralId": "e-0-4c0c8cadb1b676b03f4ddf86-50"}, {"reasons": {"count": 0, "items": [{"summary": "This spot is popular", "type": "general", "reasonName": "globalInteractionReason"}]}, "venue": {"id": "4fc08f2ee4b0f60183b2342b", "name": "Delifrance", "location": {"address": "Terminal 2 transit", "crossStreet": "(Changi International Airport)", "lat": 1.355116684854971, "lng": 103.98994997989509, "labeledLatLngs": [{"label": "display", "lat": 1.355116684854971, "lng": 103.98994997989509}], "distance": 437, "cc": "SG", "city": "Singapore", "country": "Singapore", "formattedAddress": ["Terminal 2 transit ((Changi International Airport))", "Singapore"]}, "categories": [{"id": "4bf58dd8d48988d16d941735", "name": "Caf\u00e9", "pluralName": "Caf\u00e9s", "shortName": "Caf\u00e9", "icon": {"prefix": "https://ss3.4sqi.net/img/categories_v2/food/cafe_", "suffix": ".png"}, "primary": true}], "photos": {"count": 0, "groups": []}}, "referralId": "e-0-4fc08f2ee4b0f60183b2342b-51"}, {"reasons": {"count": 0, "items": [{"summary": "This spot is popular", "type": "general", "reasonName": "globalInteractionReason"}]}, "venue": {"id": "4eaa2e51f9f45048e722bab2", "name": "Customs & Immigration Inspection Area", "location": {"address": "75 Airport Blvd", "crossStreet": "at SIN Airport", "lat": 1.3520726180716618, "lng": 103.98334264755249, "labeledLatLngs": [{"label": "display", "lat": 1.3520726180716618, "lng": 103.98334264755249}], "distance": 410, "postalCode": "819664", "cc": "SG", "city": "Singapore", "country": "Singapore", "formattedAddress": ["75 Airport Blvd (at SIN Airport)", "819664", "Singapore"]}, "categories": [{"id": "56aa371be4b08b9a8d57352f", "name": "Airport Service", "pluralName": "Airport Services", "shortName": "Airport Service", "icon": {"prefix": "https://ss3.4sqi.net/img/categories_v2/travel/airport_", "suffix": ".png"}, "primary": true}], "photos": {"count": 0, "groups": []}}, "referralId": "e-0-4eaa2e51f9f45048e722bab2-52"}, {"reasons": {"count": 0, "items": [{"summary": "This spot is popular", "type": "general", "reasonName": "globalInteractionReason"}]}, "venue": {"id": "508662b9e4b0cd28419f5cd9", "name": "Garuda Indonesia Executive Lounge ( A16 )", "location": {"lat": 1.3501990156963068, "lng": 103.98400017673814, "labeledLatLngs": [{"label": "display", "lat": 1.3501990156963068, "lng": 103.98400017673814}], "distance": 422, "cc": "SG", "country": "Singapore", "formattedAddress": ["Singapore"]}, "categories": [{"id": "4eb1bc533b7b2c5b1d4306cb", "name": "Airport Lounge", "pluralName": "Airport Lounges", "shortName": "Lounge", "icon": {"prefix": "https://ss3.4sqi.net/img/categories_v2/nightlife/default_", "suffix": ".png"}, "primary": true}], "photos": {"count": 0, "groups": []}}, "referralId": "e-0-508662b9e4b0cd28419f5cd9-53"}, {"reasons": {"count": 0, "items": [{"summary": "This spot is popular", "type": "general", "reasonName": "globalInteractionReason"}]}, "venue": {"id": "4fe056d2e4b0c4779151cb62", "name": "Hong Kong Sheng Kee Dessert \u9999\u6e2f\u76db\u8a18\u751c\u54c1", "location": {"address": "Terminal 2, Changi International Airport", "crossStreet": "Airport Blvd.", "lat": 1.3554090075136114, "lng": 103.99001520363214, "labeledLatLngs": [{"label": "display", "lat": 1.3554090075136114, "lng": 103.99001520363214}], "distance": 464, "cc": "SG", "city": "Singapore", "country": "Singapore", "formattedAddress": ["Terminal 2, Changi International Airport (Airport Blvd.)", "Singapore"]}, "categories": [{"id": "4bf58dd8d48988d142941735", "name": "Asian Restaurant", "pluralName": "Asian Restaurants", "shortName": "Asian", "icon": {"prefix": "https://ss3.4sqi.net/img/categories_v2/food/asian_", "suffix": ".png"}, "primary": true}], "photos": {"count": 0, "groups": []}}, "referralId": "e-0-4fe056d2e4b0c4779151cb62-54"}, {"reasons": {"count": 0, "items": [{"summary": "This spot is popular", "type": "general", "reasonName": "globalInteractionReason"}]}, "venue": {"id": "56455a9d498e11179c079b43", "name": "Shilla Duty Free", "location": {"address": "Changi Airport", "lat": 1.355254353595732, "lng": 103.98991118941326, "labeledLatLngs": [{"label": "display", "lat": 1.355254353595732, "lng": 103.98991118941326}], "distance": 444, "cc": "SG", "neighborhood": "Changi", "country": "Singapore", "formattedAddress": ["Changi Airport", "Singapore"]}, "categories": [{"id": "589ddde98ae3635c072819ee", "name": "Duty-free Shop", "pluralName": "Duty-free Shops", "shortName": "Duty-free", "icon": {"prefix": "https://ss3.4sqi.net/img/categories_v2/shops/default_", "suffix": ".png"}, "primary": true}], "photos": {"count": 0, "groups": []}}, "referralId": "e-0-56455a9d498e11179c079b43-55"}, {"reasons": {"count": 0, "items": [{"summary": "This spot is popular", "type": "general", "reasonName": "globalInteractionReason"}]}, "venue": {"id": "4e295145e4cd6c6cb34f565a", "name": "The Green Market", "location": {"address": "Departure Transit Lounge Level 3, Terminal 2, Singapore Changi Airport (near Food Court, opposite Wellness Spa)", "crossStreet": "Airport Blvd.", "lat": 1.3552725477477974, "lng": 103.98994150792424, "labeledLatLngs": [{"label": "display", "lat": 1.3552725477477974, "lng": 103.98994150792424}], "distance": 448, "cc": "SG", "city": "Singapore", "country": "Singapore", "formattedAddress": ["Departure Transit Lounge Level 3, Terminal 2, Singapore Changi Airport (near Food Court, opposite Wellness Spa) (Airport Blvd.)", "Singapore"]}, "categories": [{"id": "4eb1bc533b7b2c5b1d4306cb", "name": "Airport Lounge", "pluralName": "Airport Lounges", "shortName": "Lounge", "icon": {"prefix": "https://ss3.4sqi.net/img/categories_v2/nightlife/default_", "suffix": ".png"}, "primary": true}], "photos": {"count": 0, "groups": []}}, "referralId": "e-0-4e295145e4cd6c6cb34f565a-56"}, {"reasons": {"count": 0, "items": [{"summary": "This spot is popular", "type": "general", "reasonName": "globalInteractionReason"}]}, "venue": {"id": "4d6ba952994f224b8b0117eb", "name": "Nike Shop @ T2", "location": {"lat": 1.355688317519651, "lng": 103.99012180387315, "labeledLatLngs": [{"label": "display", "lat": 1.355688317519651, "lng": 103.99012180387315}], "distance": 494, "cc": "SG", "city": "Singapore", "country": "Singapore", "formattedAddress": ["Singapore"]}, "categories": [{"id": "4bf58dd8d48988d1f2941735", "name": "Sporting Goods Shop", "pluralName": "Sporting Goods Shops", "shortName": "Sporting Goods", "icon": {"prefix": "https://ss3.4sqi.net/img/categories_v2/shops/sports_outdoors_", "suffix": ".png"}, "primary": true}], "photos": {"count": 0, "groups": []}}, "referralId": "e-0-4d6ba952994f224b8b0117eb-57"}]}]}}