,name,categories,lat,lng,groupby
0,Xin Peng La Mian Xiao Long Bao,Dim Sum Restaurant,1.3136611,103.76419,Restaurant
1,GameWerks,Video Game Store,1.3145050442743482,103.7643027305603,Misc.
2,Golden Rooster (Clementi),Fried Chicken Joint,1.3133874383486301,103.76582623741506,Misc.
3,Fitness First Platinum Clementi,Gym,1.3119545799581729,103.76510334481439,Misc.
4,Fried Carrot Cake 炒菜頭粿,Chinese Breakfast Place,1.313511123939743,103.76456344703749,Restaurant
5,Kimly Seafood 全味港式烧腊,Chinese Restaurant,1.314636983187089,103.76699685017519,Restaurant
6,Joyful Paradise,Chinese Restaurant,1.314154009232714,103.7635093170412,Restaurant
7,Soup Restaurant 三盅兩件 (Soup Restaurant),Soup Place,1.3151353753882422,103.76488053332439,Restaurant
8,Lao Ban Soya Beancurd 老伴豆花,Dessert Shop,1.3144393248080246,103.76513892232951,Quick Bite
9,Art•Friend,Arts & Crafts Store,1.3123954454723044,103.76567916018058,Entertainment
10,Saizeriya Ristorante E Caffe,Italian Restaurant,1.3120133128191802,103.76499484965457,Restaurant
11,Thaksin Beef Noodle,Thai Restaurant,1.3127466700755805,103.76510849259725,Restaurant
12,Boon Kee Wanton Noodle,Noodle House,1.3135286278394256,103.76458457190402,Restaurant
13,Clementi 448 Market & Food Centre,Food Court,1.3135061033403834,103.76459330372082,Restaurant
14,328 Coffee Shop,Food Court,1.313750598775886,103.76677487811548,Restaurant
15,Baker Talent,Bakery,1.3146712970404795,103.76469224975706,Quick Bite
16,Whampoa Soya Bean,Dessert Shop,1.3136487426758972,103.76454909737589,Quick Bite
17,WE Cinemas,Multiplex,1.311952802607596,103.76509536320955,Entertainment
18,Jinjja Chicken,Fried Chicken Joint,1.315192,103.764618,Misc.
19,Yakiniku-OhJi Goen,Japanese Restaurant,1.311978,103.765011,Restaurant
20,Subway,Sandwich Place,1.3150749737586223,103.76493186498523,Misc.
21,Popular Bookstore,Bookstore,1.3151038674787716,103.7648786911558,Misc.
22,Soon Lee 顺利 (Soon Lee),Asian Restaurant,1.3133737374492633,103.76467324978132,Restaurant
23,Jit It Thai San Popiah (Yue Yi Tai Shan Popiah),Snack Place,1.3126580812673125,103.76534246744868,Misc.
24,Blk 378 Clementi Ave 5,Coffee Shop,1.3174415122257401,103.76731724162954,Quick Bite
25,Phoon Huat & Co.,Grocery Store,1.3131496033724803,103.7628832578269,Misc.
26,Clementi Florist & Aquarium (C328),Pet Store,1.3138683071378605,103.76696541409505,Misc.
27,Brothers Rojak,Asian Restaurant,1.3127480920179142,103.76522421656111,Restaurant
28,McDonald's,Fast Food Restaurant,1.3123934028476523,103.76592261439633,Restaurant
29,Challenger,Electronics Store,1.3152052660196536,103.76480853075027,Misc.
30,Hong Ho Phang Hong Kong Tim Sum 丰和香香港点心,Dim Sum Restaurant,1.315145383397447,103.76697365071114,Restaurant
31,Chai Ho Satay 财好沙爹,BBQ Joint,1.3134111308811816,103.76471803983341,Misc.
32,McDonald's / McCafé,Fast Food Restaurant,1.3155393570665985,103.7647235560603,Restaurant
33,Bedok Chwee Kueh 勿洛水粿 (Clementi Branch),Chinese Breakfast Place,1.3134781191338019,103.76433155413817,Restaurant
34,Crystal Jade Kitchen 翡翠小厨,Chinese Restaurant,1.3153502025036363,103.76478700948594,Restaurant
35,Ichiban Sushi,Sushi Restaurant,1.3153427099687938,103.76479970774696,Restaurant
36,Ya Kun Kaya Toast 亞坤,Coffee Shop,1.3150651341917035,103.76490850933511,Quick Bite
37,NTUC FairPrice,Supermarket,1.3126397425098555,103.76595805242523,Shop
38,"Kian Seng Lor Mee, Prawn Mee, Laksa",Noodle House,1.3135591273471734,103.7643915297551,Restaurant
39,Ootoya Japanese Restaurant 大户屋,Japanese Restaurant,1.3152849739411399,103.76481023865026,Restaurant
40,Starbucks,Coffee Shop,1.3152220891153599,103.76481371695844,Quick Bite
41,Swensen's,American Restaurant,1.3154116043058592,103.76480057153621,Restaurant
42,Mei Heong Yuen Dessert,Dessert Shop,1.3119850870636516,103.76509626408006,Quick Bite
43,Prata Alley,Asian Restaurant,1.3120842338449512,103.76513217419662,Restaurant
44,Food Loft @ 431,Food Court,1.3133163901504554,103.76354414094249,Restaurant
45,321 Clementi,Shopping Mall,1.3119639585283829,103.76507198453936,Shop
46,Tian Tian Hainanese Chicken Rice,Coffee Shop,1.3132632643333586,103.76583367125392,Quick Bite
47,Best Denki,Electronics Store,1.3153284934201392,103.76477926209519,Misc.
48,The Clementi Mall,Shopping Mall,1.3150355807801655,103.7649092702271,Shop
49,BGAIN 442 Eating House,Food Court,1.313552605351163,103.76440896334849,Restaurant
50,Food Pavilion,Food Court,1.3141544,103.76367,Restaurant
51,Clementi ActiveSG Sports Centre,Gym,1.310860560736149,103.76501995510465,Misc.
52,Kopitiam,Coffee Shop,1.3147989296267806,103.76702982045722,Quick Bite
53,Kaffe & Toast,Coffee Shop,1.315248967262287,103.76465389841513,Quick Bite
54,Rock & Ash,Snack Place,1.315031,103.76490062499998,Misc.
55,Polar Puffs & Cakes,Bakery,1.3153511217400276,103.76504164447944,Quick Bite
56,Coffee Bay,Coffee Shop,1.3141708193554815,103.76349133254179,Quick Bite
57,Raffles Medical Group,Pharmacy,1.31386,103.76353,Misc.
58,Courts,Furniture / Home Store,1.312356513760592,103.76579519309436,Misc.
59,Cartello Santeria™ Pubs & Bbq,Hookah Bar,1.3176713569824374,103.76366107385239,Bars
60,Bangkok J.N Thai Food,Thai Restaurant,1.3130926219466135,103.76282922049117,Restaurant
61,WE Cinemas First Class,Movie Theater,1.3119537157333776,103.76511504271079,Entertainment
62,Arch Angel Brow,Health & Beauty Service,1.311917,103.765253,Misc.
63,378 Coffee Shop,Coffee Shop,1.3176304469920392,103.76760479068352,Quick Bite
64,Blk 345 Clementi Avenue 5,Coffee Shop,1.3178429368138764,103.76788770164929,Quick Bite
65,Bus Stop 17059 (Regent Pk),Bus Station,1.3166972828175456,103.7616385323179,Misc.
66,Clementi 881 Coffee Station,Coffee Shop,1.3173410515225583,103.76876534005225,Quick Bite
67,345 Chicken Duck Rice,Asian Restaurant,1.317682623481197,103.76877129077911,Restaurant
