{"meta": {"code": 200, "requestId": "5e6dabee1835dd001bf3f789"}, "response": {"suggestedFilters": {"header": "Tap to show:", "filters": [{"name": "Open now", "key": "openNow"}]}, "headerLocation": "Financial District", "headerFullLocation": "Financial District, Singapore", "headerLocationGranularity": "neighborhood", "totalResults": 75, "suggestedBounds": {"ne": {"lat": 1.2912000045000045, "lng": 103.85799273532541}, "sw": {"lat": 1.2821999954999954, "lng": 103.84900726467458}}, "groups": [{"type": "Recommended Places", "name": "recommended", "items": [{"reasons": {"count": 0, "items": [{"summary": "This spot is popular", "type": "general", "reasonName": "globalInteractionReason"}]}, "venue": {"id": "4b05880bf964a520e8ad22e3", "name": "The Fullerton Hotel", "location": {"address": "1 Fullerton Square", "crossStreet": "Financial District", "lat": 1.2862, "lng": 103.85298, "labeledLatLngs": [{"label": "display", "lat": 1.2862, "lng": 103.85298}], "distance": 80, "postalCode": "049178", "cc": "SG", "city": "Singapore", "country": "Singapore", "formattedAddress": ["1 Fullerton Square (Financial District)", "049178", "Singapore"]}, "categories": [{"id": "4bf58dd8d48988d1fa931735", "name": "Hotel", "pluralName": "Hotels", "shortName": "Hotel", "icon": {"prefix": "https://ss3.4sqi.net/img/categories_v2/travel/hotel_", "suffix": ".png"}, "primary": true}], "photos": {"count": 0, "groups": []}}, "referralId": "e-0-4b05880bf964a520e8ad22e3-0"}, {"reasons": {"count": 0, "items": [{"summary": "This spot is popular", "type": "general", "reasonName": "globalInteractionReason"}]}, "venue": {"id": "4b20c0b7f964a5206a3424e3", "name": "One Fullerton", "location": {"address": "1 Fullerton Rd.", "lat": 1.2857966380343786, "lng": 103.85418059470722, "labeledLatLngs": [{"label": "display", "lat": 1.2857966380343786, "lng": 103.85418059470722}], "distance": 125, "postalCode": "049213", "cc": "SG", "city": "Singapore", "country": "Singapore", "formattedAddress": ["1 Fullerton Rd.", "049213", "Singapore"]}, "categories": [{"id": "4bf58dd8d48988d164941735", "name": "Plaza", "pluralName": "Plazas", "shortName": "Plaza", "icon": {"prefix": "https://ss3.4sqi.net/img/categories_v2/parks_outdoors/plaza_", "suffix": ".png"}, "primary": true}], "photos": {"count": 0, "groups": []}}, "referralId": "e-0-4b20c0b7f964a5206a3424e3-1"}, {"reasons": {"count": 0, "items": [{"summary": "This spot is popular", "type": "general", "reasonName": "globalInteractionReason"}]}, "venue": {"id": "4b2c8c2ef964a520bbc724e3", "name": "The Merlion", "location": {"address": "Merlion Park", "crossStreet": "1 Fullerton Rd", "lat": 1.286906421390687, "lng": 103.85435611180665, "distance": 98, "postalCode": "049213", "cc": "SG", "city": "Singapore", "country": "Singapore", "formattedAddress": ["Merlion Park (1 Fullerton Rd)", "049213", "Singapore"]}, "categories": [{"id": "52e81612bcbc57f1066b79ed", "name": "Outdoor Sculpture", "pluralName": "Outdoor Sculptures", "shortName": "Outdoor Sculpture", "icon": {"prefix": "https://ss3.4sqi.net/img/categories_v2/parks_outdoors/sculpture_", "suffix": ".png"}, "primary": true}], "photos": {"count": 0, "groups": []}}, "referralId": "e-0-4b2c8c2ef964a520bbc724e3-2"}, {"reasons": {"count": 0, "items": [{"summary": "This spot is popular", "type": "general", "reasonName": "globalInteractionReason"}]}, "venue": {"id": "4cc434238062468871f0342f", "name": "Fullerton WaterFront", "location": {"address": "Marina Bay", "crossStreet": "One Fullerton / Fullerton Bay Hotel", "lat": 1.2848221090926681, "lng": 103.85343323411014, "labeledLatLngs": [{"label": "display", "lat": 1.2848221090926681, "lng": 103.85343323411014}], "distance": 209, "cc": "SG", "city": "Singapore", "country": "Singapore", "formattedAddress": ["Marina Bay (One Fullerton / Fullerton Bay Hotel)", "Singapore"]}, "categories": [{"id": "56aa371be4b08b9a8d5734c3", "name": "Waterfront", "pluralName": "Waterfronts", "shortName": "Waterfront", "icon": {"prefix": "https://ss3.4sqi.net/img/categories_v2/parks_outdoors/river_", "suffix": ".png"}, "primary": true}], "photos": {"count": 0, "groups": []}}, "referralId": "e-0-4cc434238062468871f0342f-3"}, {"reasons": {"count": 0, "items": [{"summary": "This spot is popular", "type": "general", "reasonName": "globalInteractionReason"}]}, "venue": {"id": "4bd87e785cf276b043669d00", "name": "Cavenagh Bridge", "location": {"address": "Singapore River", "lat": 1.2865958046384585, "lng": 103.8523381948471, "labeledLatLngs": [{"label": "display", "lat": 1.2865958046384585, "lng": 103.8523381948471}], "distance": 129, "cc": "SG", "city": "Singapore", "country": "Singapore", "formattedAddress": ["Singapore River", "Singapore"]}, "categories": [{"id": "4bf58dd8d48988d1df941735", "name": "Bridge", "pluralName": "Bridges", "shortName": "Bridge", "icon": {"prefix": "https://ss3.4sqi.net/img/categories_v2/parks_outdoors/bridge_", "suffix": ".png"}, "primary": true}], "photos": {"count": 0, "groups": []}}, "referralId": "e-0-4bd87e785cf276b043669d00-4"}, {"reasons": {"count": 0, "items": [{"summary": "This spot is popular", "type": "general", "reasonName": "globalInteractionReason"}]}, "venue": {"id": "4b058810f964a52071af22e3", "name": "Asian Civilisations Museum", "location": {"address": "1 Empress Pl.", "crossStreet": "Fullerton Road", "lat": 1.2871133945901516, "lng": 103.85205165999581, "labeledLatLngs": [{"label": "display", "lat": 1.2871133945901516, "lng": 103.85205165999581}], "distance": 167, "postalCode": "179555", "cc": "SG", "city": "Singapore", "country": "Singapore", "formattedAddress": ["1 Empress Pl. (Fullerton Road)", "179555", "Singapore"]}, "categories": [{"id": "4bf58dd8d48988d190941735", "name": "History Museum", "pluralName": "History Museums", "shortName": "History Museum", "icon": {"prefix": "https://ss3.4sqi.net/img/categories_v2/arts_entertainment/museum_history_", "suffix": ".png"}, "primary": true}], "photos": {"count": 0, "groups": []}}, "referralId": "e-0-4b058810f964a52071af22e3-5"}, {"reasons": {"count": 0, "items": [{"summary": "This spot is popular", "type": "general", "reasonName": "globalInteractionReason"}]}, "venue": {"id": "4b058810f964a52036af22e3", "name": "Esplanade Park", "location": {"address": "Connaught Dr.", "crossStreet": "Opp Padang & City Hall", "lat": 1.2889675708353954, "lng": 103.85358044117562, "labeledLatLngs": [{"label": "display", "lat": 1.2889675708353954, "lng": 103.85358044117562}], "distance": 252, "postalCode": "179558", "cc": "SG", "city": "Singapore", "country": "Singapore", "formattedAddress": ["Connaught Dr. (Opp Padang & City Hall)", "179558", "Singapore"]}, "categories": [{"id": "4bf58dd8d48988d163941735", "name": "Park", "pluralName": "Parks", "shortName": "Park", "icon": {"prefix": "https://ss3.4sqi.net/img/categories_v2/parks_outdoors/park_", "suffix": ".png"}, "primary": true}], "photos": {"count": 0, "groups": []}}, "referralId": "e-0-4b058810f964a52036af22e3-6"}, {"reasons": {"count": 0, "items": [{"summary": "This spot is popular", "type": "general", "reasonName": "globalInteractionReason"}]}, "venue": {"id": "57883c99cd10e8a1050e7f5d", "name": "Merlion Park", "location": {"address": "One Fullerton", "lat": 1.2866564658048365, "lng": 103.8544479619874, "labeledLatLngs": [{"label": "display", "lat": 1.2866564658048365, "lng": 103.8544479619874}], "distance": 105, "cc": "SG", "city": "Singapore", "country": "Singapore", "formattedAddress": ["One Fullerton", "Singapore"]}, "categories": [{"id": "4bf58dd8d48988d166941735", "name": "Sculpture Garden", "pluralName": "Sculpture Gardens", "shortName": "Sculpture", "icon": {"prefix": "https://ss3.4sqi.net/img/categories_v2/parks_outdoors/sculpture_", "suffix": ".png"}, "primary": true}], "photos": {"count": 0, "groups": []}}, "referralId": "e-0-57883c99cd10e8a1050e7f5d-7"}, {"reasons": {"count": 0, "items": [{"summary": "This spot is popular", "type": "general", "reasonName": "globalInteractionReason"}]}, "venue": {"id": "4bbb162a1261d13adc3ceb98", "name": "The Lighthouse Restaurant & Rooftop Bar", "location": {"address": "The Fullerton", "crossStreet": "Fullerton Square", "lat": 1.2862313490378119, "lng": 103.85320820322762, "labeledLatLngs": [{"label": "display", "lat": 1.2862313490378119, "lng": 103.85320820322762}], "distance": 61, "cc": "SG", "city": "Singapore", "country": "Singapore", "formattedAddress": ["The Fullerton (Fullerton Square)", "Singapore"]}, "categories": [{"id": "4bf58dd8d48988d110941735", "name": "Italian Restaurant", "pluralName": "Italian Restaurants", "shortName": "Italian", "icon": {"prefix": "https://ss3.4sqi.net/img/categories_v2/food/italian_", "suffix": ".png"}, "primary": true}], "photos": {"count": 0, "groups": []}}, "referralId": "e-0-4bbb162a1261d13adc3ceb98-8"}, {"reasons": {"count": 0, "items": [{"summary": "This spot is popular", "type": "general", "reasonName": "globalInteractionReason"}]}, "venue": {"id": "52fddabd498e48893061a262", "name": "Starbucks Reserve Store (Starbucks Reserve)", "location": {"address": "#02-01/02/03 The Fullerton Waterboat House", "crossStreet": "3 Fullerton Road", "lat": 1.2870494697229158, "lng": 103.85359982710769, "labeledLatLngs": [{"label": "display", "lat": 1.2870494697229158, "lng": 103.85359982710769}], "distance": 40, "postalCode": "049215", "cc": "SG", "city": "Singapore", "country": "Singapore", "formattedAddress": ["#02-01/02/03 The Fullerton Waterboat House (3 Fullerton Road)", "049215", "Singapore"]}, "categories": [{"id": "4bf58dd8d48988d1e0931735", "name": "Coffee Shop", "pluralName": "Coffee Shops", "shortName": "Coffee Shop", "icon": {"prefix": "https://ss3.4sqi.net/img/categories_v2/food/coffeeshop_", "suffix": ".png"}, "primary": true}], "photos": {"count": 0, "groups": []}, "venuePage": {"id": "498672740"}}, "referralId": "e-0-52fddabd498e48893061a262-9"}, {"reasons": {"count": 0, "items": [{"summary": "This spot is popular", "type": "general", "reasonName": "globalInteractionReason"}]}, "venue": {"id": "4e3ce52ce4cdab9b933c525f", "name": "The Fullerton Bay Hotel", "location": {"address": "80 Collyer Quay", "lat": 1.2838775216184781, "lng": 103.85331433621205, "labeledLatLngs": [{"label": "display", "lat": 1.2838775216184781, "lng": 103.85331433621205}], "distance": 314, "postalCode": "049326", "cc": "SG", "city": "Singapore", "country": "Singapore", "formattedAddress": ["80 Collyer Quay", "049326", "Singapore"]}, "categories": [{"id": "4bf58dd8d48988d1fa931735", "name": "Hotel", "pluralName": "Hotels", "shortName": "Hotel", "icon": {"prefix": "https://ss3.4sqi.net/img/categories_v2/travel/hotel_", "suffix": ".png"}, "primary": true}], "photos": {"count": 0, "groups": []}}, "referralId": "e-0-4e3ce52ce4cdab9b933c525f-10"}, {"reasons": {"count": 0, "items": [{"summary": "This spot is popular", "type": "general", "reasonName": "globalInteractionReason"}]}, "venue": {"id": "4bb2edcb2397b713669e37b3", "name": "The Salad Shop", "location": {"address": "1 Bonham St. #01-20 UOB Plaza 2", "lat": 1.2855231912921747, "lng": 103.85117679834366, "labeledLatLngs": [{"label": "display", "lat": 1.2855231912921747, "lng": 103.85117679834366}], "distance": 289, "postalCode": "048624", "cc": "SG", "neighborhood": "Financial District", "city": "Singapore", "country": "Singapore", "formattedAddress": ["1 Bonham St. #01-20 UOB Plaza 2", "048624", "Singapore"]}, "categories": [{"id": "4bf58dd8d48988d1bd941735", "name": "Salad Place", "pluralName": "Salad Places", "shortName": "Salad", "icon": {"prefix": "https://ss3.4sqi.net/img/categories_v2/food/salad_", "suffix": ".png"}, "primary": true}], "photos": {"count": 0, "groups": []}}, "referralId": "e-0-4bb2edcb2397b713669e37b3-11"}, {"reasons": {"count": 0, "items": [{"summary": "This spot is popular", "type": "general", "reasonName": "globalInteractionReason"}]}, "venue": {"id": "4f0bbc70e4b0baf830387ef5", "name": "The Oval @ Singapore Cricket Club Pavilion", "location": {"address": "Connaught Dr", "lat": 1.2890063261799183, "lng": 103.85243809189993, "labeledLatLngs": [{"label": "display", "lat": 1.2890063261799183, "lng": 103.85243809189993}], "distance": 282, "cc": "SG", "city": "Singapore", "country": "Singapore", "formattedAddress": ["Connaught Dr", "Singapore"]}, "categories": [{"id": "4bf58dd8d48988d1c4941735", "name": "Restaurant", "pluralName": "Restaurants", "shortName": "Restaurant", "icon": {"prefix": "https://ss3.4sqi.net/img/categories_v2/food/default_", "suffix": ".png"}, "primary": true}], "photos": {"count": 0, "groups": []}}, "referralId": "e-0-4f0bbc70e4b0baf830387ef5-12"}, {"reasons": {"count": 0, "items": [{"summary": "This spot is popular", "type": "general", "reasonName": "globalInteractionReason"}]}, "venue": {"id": "4d9c4c9333caf04d2ef8d6c5", "name": "Esplanade Riverside", "location": {"address": "Marina Bay", "lat": 1.2888952713583763, "lng": 103.8550978155989, "labeledLatLngs": [{"label": "display", "lat": 1.2888952713583763, "lng": 103.8550978155989}], "distance": 302, "cc": "SG", "city": "Singapore", "country": "Singapore", "formattedAddress": ["Marina Bay", "Singapore"]}, "categories": [{"id": "56aa371be4b08b9a8d5734c3", "name": "Waterfront", "pluralName": "Waterfronts", "shortName": "Waterfront", "icon": {"prefix": "https://ss3.4sqi.net/img/categories_v2/parks_outdoors/river_", "suffix": ".png"}, "primary": true}], "photos": {"count": 0, "groups": []}}, "referralId": "e-0-4d9c4c9333caf04d2ef8d6c5-13"}, {"reasons": {"count": 0, "items": [{"summary": "This spot is popular", "type": "general", "reasonName": "globalInteractionReason"}]}, "venue": {"id": "4b5305e3f964a520d98c27e3", "name": "Starbucks", "location": {"address": "#01-04 One Fullerton", "crossStreet": "1 Fullerton Rd", "lat": 1.2856320767718488, "lng": 103.85388935351173, "labeledLatLngs": [{"label": "display", "lat": 1.2856320767718488, "lng": 103.85388935351173}], "distance": 126, "postalCode": "049213", "cc": "SG", "neighborhood": "Central Business District", "city": "Singapore", "country": "Singapore", "formattedAddress": ["#01-04 One Fullerton (1 Fullerton Rd)", "049213", "Singapore"]}, "categories": [{"id": "4bf58dd8d48988d1e0931735", "name": "Coffee Shop", "pluralName": "Coffee Shops", "shortName": "Coffee Shop", "icon": {"prefix": "https://ss3.4sqi.net/img/categories_v2/food/coffeeshop_", "suffix": ".png"}, "primary": true}], "photos": {"count": 0, "groups": []}}, "referralId": "e-0-4b5305e3f964a520d98c27e3-14"}, {"reasons": {"count": 0, "items": [{"summary": "This spot is popular", "type": "general", "reasonName": "globalInteractionReason"}]}, "venue": {"id": "586de6b82896a27950756cc4", "name": "J-Cone Jipangyi", "location": {"address": "1 Fullerton road, #01-10", "lat": 1.2864030392460999, "lng": 103.8543546366435, "labeledLatLngs": [{"label": "display", "lat": 1.2864030392460999, "lng": 103.8543546366435}], "distance": 100, "postalCode": "049213", "cc": "SG", "city": "Singapore", "country": "Singapore", "formattedAddress": ["1 Fullerton road, #01-10", "049213", "Singapore"]}, "categories": [{"id": "4bf58dd8d48988d1c7941735", "name": "Snack Place", "pluralName": "Snack Places", "shortName": "Snacks", "icon": {"prefix": "https://ss3.4sqi.net/img/categories_v2/food/snacks_", "suffix": ".png"}, "primary": true}], "photos": {"count": 0, "groups": []}}, "referralId": "e-0-586de6b82896a27950756cc4-15"}, {"reasons": {"count": 0, "items": [{"summary": "This spot is popular", "type": "general", "reasonName": "globalInteractionReason"}]}, "venue": {"id": "4b05880ef964a520a8ae22e3", "name": "Victoria Theatre & Victoria Concert Hall", "location": {"address": "9 & 11 Empress Place", "crossStreet": "Connaught Drive", "lat": 1.2883541544235495, "lng": 103.85173122943438, "labeledLatLngs": [{"label": "display", "lat": 1.2883541544235495, "lng": 103.85173122943438}], "distance": 269, "postalCode": "179558", "cc": "SG", "city": "Singapore", "country": "Singapore", "formattedAddress": ["9 & 11 Empress Place (Connaught Drive)", "179558", "Singapore"]}, "categories": [{"id": "4bf58dd8d48988d12d941735", "name": "Monument / Landmark", "pluralName": "Monuments / Landmarks", "shortName": "Landmark", "icon": {"prefix": "https://ss3.4sqi.net/img/categories_v2/building/government_monument_", "suffix": ".png"}, "primary": true}], "photos": {"count": 0, "groups": []}, "venuePage": {"id": "331768208"}}, "referralId": "e-0-4b05880ef964a520a8ae22e3-16"}, {"reasons": {"count": 0, "items": [{"summary": "This spot is popular", "type": "general", "reasonName": "globalInteractionReason"}]}, "venue": {"id": "4b568e7cf964a520151528e3", "name": "The Sandwich Shop", "location": {"address": "16 Collyer Quay #01-04", "lat": 1.2842655515697992, "lng": 103.85267347097397, "labeledLatLngs": [{"label": "display", "lat": 1.2842655515697992, "lng": 103.85267347097397}], "distance": 286, "postalCode": "049318", "cc": "SG", "neighborhood": "Financial District", "city": "Singapore", "country": "Singapore", "formattedAddress": ["16 Collyer Quay #01-04", "049318", "Singapore"]}, "categories": [{"id": "4bf58dd8d48988d1c5941735", "name": "Sandwich Place", "pluralName": "Sandwich Places", "shortName": "Sandwiches", "icon": {"prefix": "https://ss3.4sqi.net/img/categories_v2/food/deli_", "suffix": ".png"}, "primary": true}], "photos": {"count": 0, "groups": []}}, "referralId": "e-0-4b568e7cf964a520151528e3-17"}, {"reasons": {"count": 0, "items": [{"summary": "This spot is popular", "type": "general", "reasonName": "globalInteractionReason"}]}, "venue": {"id": "53ae48b4498ec970f3cc0455", "name": "CITY Hot Pot Shabu shabu", "location": {"address": "One Raffles Place #04-28", "lat": 1.284172851493935, "lng": 103.85158494974766, "labeledLatLngs": [{"label": "display", "lat": 1.284172851493935, "lng": 103.85158494974766}], "distance": 352, "postalCode": "048616", "cc": "SG", "neighborhood": "Financial District", "city": "Singapore", "country": "Singapore", "formattedAddress": ["One Raffles Place #04-28", "048616", "Singapore"]}, "categories": [{"id": "52af0bd33cf9994f4e043bdd", "name": "Hotpot Restaurant", "pluralName": "Hotpot Restaurants", "shortName": "Hotpot", "icon": {"prefix": "https://ss3.4sqi.net/img/categories_v2/food/asian_", "suffix": ".png"}, "primary": true}], "photos": {"count": 0, "groups": []}}, "referralId": "e-0-53ae48b4498ec970f3cc0455-18"}, {"reasons": {"count": 0, "items": [{"summary": "This spot is popular", "type": "general", "reasonName": "globalInteractionReason"}]}, "venue": {"id": "4b6c1439f964a520ba222ce3", "name": "Esplanade Outdoor Theatre", "location": {"address": "Esplanade - Theatres On The Bay", "crossStreet": "1 Esplanade Dr", "lat": 1.2889043425663702, "lng": 103.85600131170524, "labeledLatLngs": [{"label": "display", "lat": 1.2889043425663702, "lng": 103.85600131170524}], "distance": 371, "postalCode": "038981\u200e", "cc": "SG", "city": "Singapore", "country": "Singapore", "formattedAddress": ["Esplanade - Theatres On The Bay (1 Esplanade Dr)", "038981\u200e", "Singapore"]}, "categories": [{"id": "4bf58dd8d48988d1f2931735", "name": "Performing Arts Venue", "pluralName": "Performing Arts Venues", "shortName": "Performing Arts", "icon": {"prefix": "https://ss3.4sqi.net/img/categories_v2/arts_entertainment/performingarts_", "suffix": ".png"}, "primary": true}], "photos": {"count": 0, "groups": []}, "venuePage": {"id": "39186429"}}, "referralId": "e-0-4b6c1439f964a520ba222ce3-19"}, {"reasons": {"count": 0, "items": [{"summary": "This spot is popular", "type": "general", "reasonName": "globalInteractionReason"}]}, "venue": {"id": "55fe3da6498e0c5eaa442250", "name": "CULINARYON", "location": {"address": "One Raffles Place, tower 2 - 4th floor", "lat": 1.284876109016574, "lng": 103.85093299421413, "labeledLatLngs": [{"label": "display", "lat": 1.284876109016574, "lng": 103.85093299421413}], "distance": 350, "postalCode": "048616", "cc": "SG", "city": "Singapore", "country": "Singapore", "formattedAddress": ["One Raffles Place, tower 2 - 4th floor", "048616", "Singapore"]}, "categories": [{"id": "52e81612bcbc57f1066b7a00", "name": "Comfort Food Restaurant", "pluralName": "Comfort Food Restaurants", "shortName": "Comfort Food", "icon": {"prefix": "https://ss3.4sqi.net/img/categories_v2/food/default_", "suffix": ".png"}, "primary": true}], "photos": {"count": 0, "groups": []}}, "referralId": "e-0-55fe3da6498e0c5eaa442250-20"}, {"reasons": {"count": 0, "items": [{"summary": "This spot is popular", "type": "general", "reasonName": "globalInteractionReason"}]}, "venue": {"id": "571b758d498e166ab0717ce7", "name": "Esplanade Theatre", "location": {"address": "Esplanade - Theatres On The Bay", "crossStreet": "1 Esplanade Dr", "lat": 1.2899318061542575, "lng": 103.8550369159392, "labeledLatLngs": [{"label": "display", "lat": 1.2899318061542575, "lng": 103.8550369159392}], "distance": 398, "cc": "SG", "city": "Singapore", "country": "Singapore", "formattedAddress": ["Esplanade - Theatres On The Bay (1 Esplanade Dr)", "Singapore"]}, "categories": [{"id": "4bf58dd8d48988d137941735", "name": "Theater", "pluralName": "Theaters", "shortName": "Theater", "icon": {"prefix": "https://ss3.4sqi.net/img/categories_v2/arts_entertainment/performingarts_theater_", "suffix": ".png"}, "primary": true}], "photos": {"count": 0, "groups": []}}, "referralId": "e-0-571b758d498e166ab0717ce7-21"}, {"reasons": {"count": 0, "items": [{"summary": "This spot is popular", "type": "general", "reasonName": "globalInteractionReason"}]}, "venue": {"id": "4c419bceff711b8d2c281205", "name": "1-Altitude", "location": {"address": "#63-01 One Raffles Place", "crossStreet": "1 Raffles Pl", "lat": 1.284794431317664, "lng": 103.85115087325562, "labeledLatLngs": [{"label": "display", "lat": 1.284794431317664, "lng": 103.85115087325562}], "distance": 336, "postalCode": "048616", "cc": "SG", "neighborhood": "Financial District", "city": "Singapore", "country": "Singapore", "formattedAddress": ["#63-01 One Raffles Place (1 Raffles Pl)", "048616", "Singapore"]}, "categories": [{"id": "4bf58dd8d48988d11e941735", "name": "Cocktail Bar", "pluralName": "Cocktail Bars", "shortName": "Cocktail", "icon": {"prefix": "https://ss3.4sqi.net/img/categories_v2/nightlife/cocktails_", "suffix": ".png"}, "primary": true}], "photos": {"count": 0, "groups": []}}, "referralId": "e-0-4c419bceff711b8d2c281205-22"}, {"reasons": {"count": 0, "items": [{"summary": "This spot is popular", "type": "general", "reasonName": "globalInteractionReason"}]}, "venue": {"id": "527faef5498ecf5c6e90924f", "name": "Marina Bay", "location": {"address": "Marina Bay", "lat": 1.284992247519025, "lng": 103.8566780090332, "labeledLatLngs": [{"label": "display", "lat": 1.284992247519025, "lng": 103.8566780090332}], "distance": 401, "cc": "SG", "city": "Singapore", "country": "Singapore", "formattedAddress": ["Marina Bay", "Singapore"]}, "categories": [{"id": "56aa371be4b08b9a8d573544", "name": "Bay", "pluralName": "Bays", "shortName": "Bay", "icon": {"prefix": "https://ss3.4sqi.net/img/categories_v2/parks_outdoors/harbor_", "suffix": ".png"}, "primary": true}], "photos": {"count": 0, "groups": []}}, "referralId": "e-0-527faef5498ecf5c6e90924f-23"}, {"reasons": {"count": 0, "items": [{"summary": "This spot is popular", "type": "general", "reasonName": "globalInteractionReason"}]}, "venue": {"id": "4b058814f964a52090b022e3", "name": "Esplanade - Theatres On The Bay", "location": {"address": "1 Esplanade Dr.", "lat": 1.2898371845798673, "lng": 103.85540355727072, "distance": 408, "postalCode": "038981", "cc": "SG", "city": "Singapore", "country": "Singapore", "formattedAddress": ["1 Esplanade Dr.", "038981", "Singapore"]}, "categories": [{"id": "4bf58dd8d48988d1f2931735", "name": "Performing Arts Venue", "pluralName": "Performing Arts Venues", "shortName": "Performing Arts", "icon": {"prefix": "https://ss3.4sqi.net/img/categories_v2/arts_entertainment/performingarts_", "suffix": ".png"}, "primary": true}], "photos": {"count": 0, "groups": []}, "venuePage": {"id": "39186426"}}, "referralId": "e-0-4b058814f964a52090b022e3-24"}, {"reasons": {"count": 0, "items": [{"summary": "This spot is popular", "type": "general", "reasonName": "globalInteractionReason"}]}, "venue": {"id": "50a784ace4b041c0652a1f03", "name": "Esplanade Concert Hall", "location": {"address": "Esplanade Theatres On The Bay", "crossStreet": "1 Esplanade Dr", "lat": 1.2899135232745114, "lng": 103.85498280184933, "labeledLatLngs": [{"label": "display", "lat": 1.2899135232745114, "lng": 103.85498280184933}], "distance": 393, "cc": "SG", "city": "Singapore", "country": "Singapore", "formattedAddress": ["Esplanade Theatres On The Bay (1 Esplanade Dr)", "Singapore"]}, "categories": [{"id": "5032792091d4c4b30a586d5c", "name": "Concert Hall", "pluralName": "Concert Halls", "shortName": "Concert Hall", "icon": {"prefix": "https://ss3.4sqi.net/img/categories_v2/arts_entertainment/musicvenue_", "suffix": ".png"}, "primary": true}], "photos": {"count": 0, "groups": []}}, "referralId": "e-0-50a784ace4b041c0652a1f03-25"}, {"reasons": {"count": 0, "items": [{"summary": "This spot is popular", "type": "general", "reasonName": "globalInteractionReason"}]}, "venue": {"id": "4be7d8e49a54a593753d0911", "name": "Esplanade Concourse", "location": {"address": "Mall Level 2, Esplanade (Theatres On The Bay)", "crossStreet": "1 Esplande Dr.", "lat": 1.2899180869958755, "lng": 103.85496081994411, "labeledLatLngs": [{"label": "display", "lat": 1.2899180869958755, "lng": 103.85496081994411}], "distance": 393, "postalCode": "038981", "cc": "SG", "city": "Singapore", "country": "Singapore", "formattedAddress": ["Mall Level 2, Esplanade (Theatres On The Bay) (1 Esplande Dr.)", "038981", "Singapore"]}, "categories": [{"id": "4bf58dd8d48988d1f1931735", "name": "General Entertainment", "pluralName": "General Entertainment", "shortName": "Entertainment", "icon": {"prefix": "https://ss3.4sqi.net/img/categories_v2/arts_entertainment/default_", "suffix": ".png"}, "primary": true}], "photos": {"count": 0, "groups": []}}, "referralId": "e-0-4be7d8e49a54a593753d0911-26"}, {"reasons": {"count": 0, "items": [{"summary": "This spot is popular", "type": "general", "reasonName": "globalInteractionReason"}]}, "venue": {"id": "4cce8d20c0378cfae0359448", "name": "Esplanade Recital Studio", "location": {"address": "Esplanade - Theatres On The Bay", "crossStreet": "1 Esplanade Drive", "lat": 1.2889965226009676, "lng": 103.85579185019728, "labeledLatLngs": [{"label": "display", "lat": 1.2889965226009676, "lng": 103.85579185019728}], "distance": 361, "cc": "SG", "city": "Singapore", "country": "Singapore", "formattedAddress": ["Esplanade - Theatres On The Bay (1 Esplanade Drive)", "Singapore"]}, "categories": [{"id": "4bf58dd8d48988d1e5931735", "name": "Music Venue", "pluralName": "Music Venues", "shortName": "Music Venue", "icon": {"prefix": "https://ss3.4sqi.net/img/categories_v2/arts_entertainment/musicvenue_", "suffix": ".png"}, "primary": true}], "photos": {"count": 0, "groups": []}}, "referralId": "e-0-4cce8d20c0378cfae0359448-27"}, {"reasons": {"count": 0, "items": [{"summary": "This spot is popular", "type": "general", "reasonName": "globalInteractionReason"}]}, "venue": {"id": "59538b0ac824ae5235423946", "name": "Waa Cow!", "location": {"address": "#B1-63 Raffles Xchange", "crossStreet": "5 Raffles Place", "lat": 1.2842844176977737, "lng": 103.85121523927255, "labeledLatLngs": [{"label": "display", "lat": 1.2842844176977737, "lng": 103.85121523927255}], "distance": 370, "postalCode": "048618", "cc": "SG", "city": "Singapore", "country": "Singapore", "formattedAddress": ["#B1-63 Raffles Xchange (5 Raffles Place)", "048618", "Singapore"]}, "categories": [{"id": "4bf58dd8d48988d111941735", "name": "Japanese Restaurant", "pluralName": "Japanese Restaurants", "shortName": "Japanese", "icon": {"prefix": "https://ss3.4sqi.net/img/categories_v2/food/japanese_", "suffix": ".png"}, "primary": true}], "photos": {"count": 0, "groups": []}}, "referralId": "e-0-59538b0ac824ae5235423946-28"}, {"reasons": {"count": 0, "items": [{"summary": "This spot is popular", "type": "general", "reasonName": "globalInteractionReason"}]}, "venue": {"id": "4b16493af964a52000b823e3", "name": "Palm Beach Seafood Restaurant", "location": {"address": "1 Fullerton Road", "lat": 1.2863125290266249, "lng": 103.85433687075343, "labeledLatLngs": [{"label": "display", "lat": 1.2863125290266249, "lng": 103.85433687075343}], "distance": 102, "cc": "SG", "city": "Singapore", "country": "Singapore", "formattedAddress": ["1 Fullerton Road", "Singapore"]}, "categories": [{"id": "4bf58dd8d48988d1ce941735", "name": "Seafood Restaurant", "pluralName": "Seafood Restaurants", "shortName": "Seafood", "icon": {"prefix": "https://ss3.4sqi.net/img/categories_v2/food/seafood_", "suffix": ".png"}, "primary": true}], "photos": {"count": 0, "groups": []}}, "referralId": "e-0-4b16493af964a52000b823e3-29"}, {"reasons": {"count": 0, "items": [{"summary": "This spot is popular", "type": "general", "reasonName": "globalInteractionReason"}]}, "venue": {"id": "525699bf498e6701439cb8df", "name": "Virgin Active", "location": {"address": "One Raffles Place Tower 2", "lat": 1.284608, "lng": 103.850815, "labeledLatLngs": [{"label": "display", "lat": 1.284608, "lng": 103.850815}], "distance": 378, "postalCode": "048616", "cc": "SG", "city": "Singapore", "country": "Singapore", "formattedAddress": ["One Raffles Place Tower 2", "048616", "Singapore"]}, "categories": [{"id": "4bf58dd8d48988d175941735", "name": "Gym / Fitness Center", "pluralName": "Gyms or Fitness Centers", "shortName": "Gym / Fitness", "icon": {"prefix": "https://ss3.4sqi.net/img/categories_v2/building/gym_", "suffix": ".png"}, "primary": true}], "photos": {"count": 0, "groups": []}}, "referralId": "e-0-525699bf498e6701439cb8df-30"}, {"reasons": {"count": 0, "items": [{"summary": "This spot is popular", "type": "general", "reasonName": "globalInteractionReason"}]}, "venue": {"id": "58083cef38fa14bcde721e41", "name": "Monti", "location": {"address": "82 Collyer Quay, The Fullerton Pavilion", "lat": 1.2845033473613494, "lng": 103.85394374075835, "labeledLatLngs": [{"label": "display", "lat": 1.2845033473613494, "lng": 103.85394374075835}], "distance": 249, "postalCode": "049327", "cc": "SG", "city": "Singapore", "country": "Singapore", "formattedAddress": ["82 Collyer Quay, The Fullerton Pavilion", "049327", "Singapore"]}, "categories": [{"id": "52e81612bcbc57f1066b79f9", "name": "Modern European Restaurant", "pluralName": "Modern European Restaurants", "shortName": "Modern European", "icon": {"prefix": "https://ss3.4sqi.net/img/categories_v2/food/default_", "suffix": ".png"}, "primary": true}], "photos": {"count": 0, "groups": []}}, "referralId": "e-0-58083cef38fa14bcde721e41-31"}, {"reasons": {"count": 0, "items": [{"summary": "This spot is popular", "type": "general", "reasonName": "globalInteractionReason"}]}, "venue": {"id": "4b058813f964a52046b022e3", "name": "The Courtyard", "location": {"address": "The Fullerton Hotel, Lobby", "crossStreet": "1 Fullerton Square", "lat": 1.2861295093403449, "lng": 103.85301852485993, "labeledLatLngs": [{"label": "display", "lat": 1.2861295093403449, "lng": 103.85301852485993}], "distance": 83, "postalCode": "049178", "cc": "SG", "city": "Singapore", "country": "Singapore", "formattedAddress": ["The Fullerton Hotel, Lobby (1 Fullerton Square)", "049178", "Singapore"]}, "categories": [{"id": "4bf58dd8d48988d121941735", "name": "Lounge", "pluralName": "Lounges", "shortName": "Lounge", "icon": {"prefix": "https://ss3.4sqi.net/img/categories_v2/nightlife/default_", "suffix": ".png"}, "primary": true}], "photos": {"count": 0, "groups": []}}, "referralId": "e-0-4b058813f964a52046b022e3-32"}, {"reasons": {"count": 0, "items": [{"summary": "This spot is popular", "type": "general", "reasonName": "globalInteractionReason"}]}, "venue": {"id": "57b59706498e98e5bebecc78", "name": "Victoria Concert Hall - Home of the SSO", "location": {"address": "11 Empress Place", "crossStreet": "Connaught Drive", "lat": 1.2883883823236189, "lng": 103.8516957058828, "labeledLatLngs": [{"label": "display", "lat": 1.2883883823236189, "lng": 103.8516957058828}], "distance": 275, "postalCode": "179558", "cc": "SG", "city": "Singapore", "country": "Singapore", "formattedAddress": ["11 Empress Place (Connaught Drive)", "179558", "Singapore"]}, "categories": [{"id": "5032792091d4c4b30a586d5c", "name": "Concert Hall", "pluralName": "Concert Halls", "shortName": "Concert Hall", "icon": {"prefix": "https://ss3.4sqi.net/img/categories_v2/arts_entertainment/musicvenue_", "suffix": ".png"}, "primary": true}], "photos": {"count": 0, "groups": []}, "venuePage": {"id": "329041599"}}, "referralId": "e-0-57b59706498e98e5bebecc78-33"}, {"reasons": {"count": 0, "items": [{"summary": "This spot is popular", "type": "general", "reasonName": "globalInteractionReason"}]}, "venue": {"id": "5372ff07498eaf002dc13122", "name": "The Clifford Pier", "location": {"address": "The Fullerton Bay Hotel Singapore", "crossStreet": "80 Collyer Quay", "lat": 1.2841103651509331, "lng": 103.85347670219562, "labeledLatLngs": [{"label": "display", "lat": 1.2841103651509331, "lng": 103.85347670219562}], "distance": 288, "cc": "SG", "city": "Singapore", "country": "Singapore", "formattedAddress": ["The Fullerton Bay Hotel Singapore (80 Collyer Quay)", "Singapore"]}, "categories": [{"id": "4bf58dd8d48988d142941735", "name": "Asian Restaurant", "pluralName": "Asian Restaurants", "shortName": "Asian", "icon": {"prefix": "https://ss3.4sqi.net/img/categories_v2/food/asian_", "suffix": ".png"}, "primary": true}], "photos": {"count": 0, "groups": []}}, "referralId": "e-0-5372ff07498eaf002dc13122-34"}, {"reasons": {"count": 0, "items": [{"summary": "This spot is popular", "type": "general", "reasonName": "globalInteractionReason"}]}, "venue": {"id": "5630c035498ed421ed0b2afc", "name": "Odette Restaurant", "location": {"address": "#01-04, National Gal\u00adlery Singa\u00adpore", "crossStreet": "1 St. Andrew's Road", "lat": 1.2896794388567234, "lng": 103.85169075444492, "labeledLatLngs": [{"label": "display", "lat": 1.2896794388567234, "lng": 103.85169075444492}], "distance": 388, "postalCode": "178957", "cc": "SG", "city": "Singapore", "country": "Singapore", "formattedAddress": ["#01-04, National Gal\u00adlery Singa\u00adpore (1 St. Andrew's Road)", "178957", "Singapore"]}, "categories": [{"id": "4bf58dd8d48988d10c941735", "name": "French Restaurant", "pluralName": "French Restaurants", "shortName": "French", "icon": {"prefix": "https://ss3.4sqi.net/img/categories_v2/food/french_", "suffix": ".png"}, "primary": true}], "photos": {"count": 0, "groups": []}}, "referralId": "e-0-5630c035498ed421ed0b2afc-35"}, {"reasons": {"count": 0, "items": [{"summary": "This spot is popular", "type": "general", "reasonName": "globalInteractionReason"}]}, "venue": {"id": "56888626498e3bf4f03ca07f", "name": "Empress", "location": {"address": "#01-03 Asian Civilisations Museum", "lat": 1.287162634970024, "lng": 103.85114335040568, "labeledLatLngs": [{"label": "display", "lat": 1.287162634970024, "lng": 103.85114335040568}], "distance": 267, "cc": "SG", "neighborhood": "Downtown Core", "city": "Singapore", "country": "Singapore", "formattedAddress": ["#01-03 Asian Civilisations Museum", "Singapore"]}, "categories": [{"id": "52af3a7c3cf9994f4e043bed", "name": "Cantonese Restaurant", "pluralName": "Cantonese Restaurants", "shortName": "Cantonese", "icon": {"prefix": "https://ss3.4sqi.net/img/categories_v2/food/asian_", "suffix": ".png"}, "primary": true}], "photos": {"count": 0, "groups": []}}, "referralId": "e-0-56888626498e3bf4f03ca07f-36"}, {"reasons": {"count": 0, "items": [{"summary": "This spot is popular", "type": "general", "reasonName": "globalInteractionReason"}]}, "venue": {"id": "4ccbfc2f063a721e59368b9a", "name": "Sabaai Sabaai Traditional Thai Massage", "location": {"address": "49A Boat Quay", "crossStreet": "Raffles Place", "lat": 1.2869638906726741, "lng": 103.84951228210039, "labeledLatLngs": [{"label": "display", "lat": 1.2869638906726741, "lng": 103.84951228210039}], "distance": 444, "postalCode": "049838", "cc": "SG", "country": "Singapore", "formattedAddress": ["49A Boat Quay (Raffles Place)", "049838", "Singapore"]}, "categories": [{"id": "52f2ab2ebcbc57f1066b8b3c", "name": "Massage Studio", "pluralName": "Massage Studios", "shortName": "Massage Studio", "icon": {"prefix": "https://ss3.4sqi.net/img/categories_v2/shops/spa_", "suffix": ".png"}, "primary": true}], "photos": {"count": 0, "groups": []}, "venuePage": {"id": "503663627"}}, "referralId": "e-0-4ccbfc2f063a721e59368b9a-37"}, {"reasons": {"count": 0, "items": [{"summary": "This spot is popular", "type": "general", "reasonName": "globalInteractionReason"}]}, "venue": {"id": "5205c76d11d2072b2bd3aa80", "name": "La Brasserie", "location": {"address": "80 Collyer Quay", "lat": 1.283112539646023, "lng": 103.85331066421297, "labeledLatLngs": [{"label": "display", "lat": 1.283112539646023, "lng": 103.85331066421297}], "distance": 399, "postalCode": "049326", "cc": "SG", "city": "Singapore", "country": "Singapore", "formattedAddress": ["80 Collyer Quay", "049326", "Singapore"]}, "categories": [{"id": "4bf58dd8d48988d16d941735", "name": "Caf\u00e9", "pluralName": "Caf\u00e9s", "shortName": "Caf\u00e9", "icon": {"prefix": "https://ss3.4sqi.net/img/categories_v2/food/cafe_", "suffix": ".png"}, "primary": true}], "photos": {"count": 0, "groups": []}}, "referralId": "e-0-5205c76d11d2072b2bd3aa80-38"}, {"reasons": {"count": 0, "items": [{"summary": "This spot is popular", "type": "general", "reasonName": "globalInteractionReason"}]}, "venue": {"id": "4d438c6514aa8cfa743d5c3d", "name": "National Gal\u00adlery Singa\u00adpore", "location": {"address": "1 St. Andrew's Road", "lat": 1.2907395913341984, "lng": 103.85154786540198, "labeledLatLngs": [{"label": "display", "lat": 1.2907395913341984, "lng": 103.85154786540198}], "distance": 499, "postalCode": "178957", "cc": "SG", "city": "Singapore", "country": "Singapore", "formattedAddress": ["1 St. Andrew's Road", "178957", "Singapore"]}, "categories": [{"id": "4bf58dd8d48988d1e2931735", "name": "Art Gallery", "pluralName": "Art Galleries", "shortName": "Art Gallery", "icon": {"prefix": "https://ss3.4sqi.net/img/categories_v2/arts_entertainment/artgallery_", "suffix": ".png"}, "primary": true}], "photos": {"count": 0, "groups": []}}, "referralId": "e-0-4d438c6514aa8cfa743d5c3d-39"}, {"reasons": {"count": 0, "items": [{"summary": "This spot is popular", "type": "general", "reasonName": "globalInteractionReason"}]}, "venue": {"id": "4e7f3d04f5b97a346f1afe04", "name": "Singapore F1 GP: Padang Stage", "location": {"address": "Marina Bay Street Circuit", "crossStreet": "Zone 4", "lat": 1.2906966201285628, "lng": 103.85329735080651, "labeledLatLngs": [{"label": "display", "lat": 1.2906966201285628, "lng": 103.85329735080651}], "distance": 445, "cc": "SG", "city": "Singapore", "country": "Singapore", "formattedAddress": ["Marina Bay Street Circuit (Zone 4)", "Singapore"]}, "categories": [{"id": "5032792091d4c4b30a586d5c", "name": "Concert Hall", "pluralName": "Concert Halls", "shortName": "Concert Hall", "icon": {"prefix": "https://ss3.4sqi.net/img/categories_v2/arts_entertainment/musicvenue_", "suffix": ".png"}, "primary": true}], "photos": {"count": 0, "groups": []}}, "referralId": "e-0-4e7f3d04f5b97a346f1afe04-40"}, {"reasons": {"count": 0, "items": [{"summary": "This spot is popular", "type": "general", "reasonName": "globalInteractionReason"}]}, "venue": {"id": "57a5be48498e1c2e446b8cb8", "name": "Headquarters", "location": {"address": "66 Boat Quay", "lat": 1.2877232260225064, "lng": 103.84938113291551, "labeledLatLngs": [{"label": "display", "lat": 1.2877232260225064, "lng": 103.84938113291551}], "distance": 472, "postalCode": "049852", "cc": "SG", "country": "Singapore", "formattedAddress": ["66 Boat Quay", "049852", "Singapore"]}, "categories": [{"id": "4bf58dd8d48988d11f941735", "name": "Nightclub", "pluralName": "Nightclubs", "shortName": "Nightclub", "icon": {"prefix": "https://ss3.4sqi.net/img/categories_v2/nightlife/nightclub_", "suffix": ".png"}, "primary": true}], "photos": {"count": 0, "groups": []}}, "referralId": "e-0-57a5be48498e1c2e446b8cb8-41"}, {"reasons": {"count": 0, "items": [{"summary": "This spot is popular", "type": "general", "reasonName": "globalInteractionReason"}]}, "venue": {"id": "53bd3189498e9424897c4c51", "name": "The Daily Cut", "location": {"address": "1 Raffles Place, B1-31", "lat": 1.2841252538898542, "lng": 103.8514682157539, "labeledLatLngs": [{"label": "display", "lat": 1.2841252538898542, "lng": 103.8514682157539}], "distance": 365, "postalCode": "048616", "cc": "SG", "city": "Singapore", "country": "Singapore", "formattedAddress": ["1 Raffles Place, B1-31", "048616", "Singapore"]}, "categories": [{"id": "4bf58dd8d48988d1bd941735", "name": "Salad Place", "pluralName": "Salad Places", "shortName": "Salad", "icon": {"prefix": "https://ss3.4sqi.net/img/categories_v2/food/salad_", "suffix": ".png"}, "primary": true}], "photos": {"count": 0, "groups": []}}, "referralId": "e-0-53bd3189498e9424897c4c51-42"}, {"reasons": {"count": 0, "items": [{"summary": "This spot is popular", "type": "general", "reasonName": "globalInteractionReason"}]}, "venue": {"id": "56e9144e498e2635b4c1f400", "name": "Ohara Farm Hokkaido Ice Cream", "location": {"lat": 1.288951, "lng": 103.855374, "labeledLatLngs": [{"label": "display", "lat": 1.288951, "lng": 103.855374}], "distance": 326, "cc": "SG", "country": "Singapore", "formattedAddress": ["Singapore"]}, "categories": [{"id": "4bf58dd8d48988d1c9941735", "name": "Ice Cream Shop", "pluralName": "Ice Cream Shops", "shortName": "Ice Cream", "icon": {"prefix": "https://ss3.4sqi.net/img/categories_v2/food/icecream_", "suffix": ".png"}, "primary": true}], "photos": {"count": 0, "groups": []}}, "referralId": "e-0-56e9144e498e2635b4c1f400-43"}, {"reasons": {"count": 0, "items": [{"summary": "This spot is popular", "type": "general", "reasonName": "globalInteractionReason"}]}, "venue": {"id": "4caf1098c5e6a1cd7e80c9f6", "name": "Lantern", "location": {"address": "The Fullerton Bay Hotel", "crossStreet": "80 Collyer Quay", "lat": 1.2832618010900512, "lng": 103.85359781518986, "labeledLatLngs": [{"label": "display", "lat": 1.2832618010900512, "lng": 103.85359781518986}], "distance": 382, "postalCode": "049326", "cc": "SG", "city": "Singapore", "country": "Singapore", "formattedAddress": ["The Fullerton Bay Hotel (80 Collyer Quay)", "049326", "Singapore"]}, "categories": [{"id": "4bf58dd8d48988d11e941735", "name": "Cocktail Bar", "pluralName": "Cocktail Bars", "shortName": "Cocktail", "icon": {"prefix": "https://ss3.4sqi.net/img/categories_v2/nightlife/cocktails_", "suffix": ".png"}, "primary": true}], "photos": {"count": 0, "groups": []}}, "referralId": "e-0-4caf1098c5e6a1cd7e80c9f6-44"}, {"reasons": {"count": 0, "items": [{"summary": "This spot is popular", "type": "general", "reasonName": "globalInteractionReason"}]}, "venue": {"id": "4c9c6962d3c2b60cc65fb7bc", "name": "Singapore F1 Padang Grandstand", "location": {"address": "Marina Bay Street Circuit", "crossStreet": "St. Andrew's Road", "lat": 1.2906556420670499, "lng": 103.85277271270752, "labeledLatLngs": [{"label": "display", "lat": 1.2906556420670499, "lng": 103.85277271270752}], "distance": 447, "cc": "SG", "city": "Singapore", "country": "Singapore", "formattedAddress": ["Marina Bay Street Circuit (St. Andrew's Road)", "Singapore"]}, "categories": [{"id": "4bf58dd8d48988d171941735", "name": "Event Space", "pluralName": "Event Spaces", "shortName": "Event Space", "icon": {"prefix": "https://ss3.4sqi.net/img/categories_v2/building/eventspace_", "suffix": ".png"}, "primary": true}], "photos": {"count": 0, "groups": []}}, "referralId": "e-0-4c9c6962d3c2b60cc65fb7bc-45"}, {"reasons": {"count": 0, "items": [{"summary": "This spot is popular", "type": "general", "reasonName": "globalInteractionReason"}]}, "venue": {"id": "4cc42f489eeab71310e9df40", "name": "The Landing Point", "location": {"address": "The Fullerton Bay Hotel", "crossStreet": "80 Collyer Quay", "lat": 1.2835978417702665, "lng": 103.85319689173761, "labeledLatLngs": [{"label": "display", "lat": 1.2835978417702665, "lng": 103.85319689173761}], "distance": 346, "postalCode": "049326", "cc": "SG", "city": "Singapore", "country": "Singapore", "formattedAddress": ["The Fullerton Bay Hotel (80 Collyer Quay)", "049326", "Singapore"]}, "categories": [{"id": "4bf58dd8d48988d1d5941735", "name": "Hotel Bar", "pluralName": "Hotel Bars", "shortName": "Hotel Bar", "icon": {"prefix": "https://ss3.4sqi.net/img/categories_v2/travel/hotel_bar_", "suffix": ".png"}, "primary": true}], "photos": {"count": 0, "groups": []}}, "referralId": "e-0-4cc42f489eeab71310e9df40-46"}, {"reasons": {"count": 0, "items": [{"summary": "This spot is popular", "type": "general", "reasonName": "globalInteractionReason"}]}, "venue": {"id": "57d95b77498e258079175b5b", "name": "Braci", "location": {"address": "Level 5/6 52 Boat Quay", "lat": 1.2871066430665543, "lng": 103.8492565022556, "labeledLatLngs": [{"label": "display", "lat": 1.2871066430665543, "lng": 103.8492565022556}], "distance": 474, "postalCode": "049841", "cc": "SG", "city": "Singapore", "country": "Singapore", "formattedAddress": ["Level 5/6 52 Boat Quay", "049841", "Singapore"]}, "categories": [{"id": "4bf58dd8d48988d110941735", "name": "Italian Restaurant", "pluralName": "Italian Restaurants", "shortName": "Italian", "icon": {"prefix": "https://ss3.4sqi.net/img/categories_v2/food/italian_", "suffix": ".png"}, "primary": true}], "photos": {"count": 0, "groups": []}}, "referralId": "e-0-57d95b77498e258079175b5b-47"}, {"reasons": {"count": 0, "items": [{"summary": "This spot is popular", "type": "general", "reasonName": "globalInteractionReason"}]}, "venue": {"id": "4b05880ff964a52002af22e3", "name": "Singapore Cricket Club", "location": {"address": "Connaught Dr.", "lat": 1.2888869000338758, "lng": 103.85203969418592, "labeledLatLngs": [{"label": "display", "lat": 1.2888869000338758, "lng": 103.85203969418592}], "distance": 292, "postalCode": "179681", "cc": "SG", "city": "Singapore", "country": "Singapore", "formattedAddress": ["Connaught Dr.", "179681", "Singapore"]}, "categories": [{"id": "52e81612bcbc57f1066b7a35", "name": "Club House", "pluralName": "Club Houses", "shortName": "Club", "icon": {"prefix": "https://ss3.4sqi.net/img/categories_v2/building/default_", "suffix": ".png"}, "primary": true}], "photos": {"count": 0, "groups": []}}, "referralId": "e-0-4b05880ff964a52002af22e3-48"}, {"reasons": {"count": 0, "items": [{"summary": "This spot is popular", "type": "general", "reasonName": "globalInteractionReason"}]}, "venue": {"id": "55b2fbc8498ecb1af57e26d3", "name": "Yoga Mala", "location": {"address": "49A, Circular Road", "lat": 1.2858640514569168, "lng": 103.8494140740419, "labeledLatLngs": [{"label": "display", "lat": 1.2858640514569168, "lng": 103.8494140740419}], "distance": 464, "postalCode": "049404", "cc": "SG", "neighborhood": "Raffles Place", "city": "Singapore", "country": "Singapore", "formattedAddress": ["49A, Circular Road", "049404", "Singapore"]}, "categories": [{"id": "4bf58dd8d48988d102941735", "name": "Yoga Studio", "pluralName": "Yoga Studios", "shortName": "Yoga Studio", "icon": {"prefix": "https://ss3.4sqi.net/img/categories_v2/shops/gym_yogastudio_", "suffix": ".png"}, "primary": true}], "photos": {"count": 0, "groups": []}, "venuePage": {"id": "136875660"}}, "referralId": "e-0-55b2fbc8498ecb1af57e26d3-49"}, {"reasons": {"count": 0, "items": [{"summary": "This spot is popular", "type": "general", "reasonName": "globalInteractionReason"}]}, "venue": {"id": "4e8fe6122c5b7295bba3451f", "name": "Stumps", "location": {"address": "Singapore Cricket Club", "crossStreet": "Connaught Drive", "lat": 1.2892099655419618, "lng": 103.85187679398152, "labeledLatLngs": [{"label": "display", "lat": 1.2892099655419618, "lng": 103.85187679398152}], "distance": 332, "cc": "SG", "city": "Singapore", "country": "Singapore", "formattedAddress": ["Singapore Cricket Club (Connaught Drive)", "Singapore"]}, "categories": [{"id": "4bf58dd8d48988d116941735", "name": "Bar", "pluralName": "Bars", "shortName": "Bar", "icon": {"prefix": "https://ss3.4sqi.net/img/categories_v2/nightlife/pub_", "suffix": ".png"}, "primary": true}], "photos": {"count": 0, "groups": []}}, "referralId": "e-0-4e8fe6122c5b7295bba3451f-50"}, {"reasons": {"count": 0, "items": [{"summary": "This spot is popular", "type": "general", "reasonName": "globalInteractionReason"}]}, "venue": {"id": "57049432498e8e3ab9f2bf77", "name": "Strangers At Work", "location": {"address": "The Arcade, 11 Collyer Quay, #01-07", "lat": 1.2836621604508216, "lng": 103.85179446707164, "labeledLatLngs": [{"label": "display", "lat": 1.2836621604508216, "lng": 103.85179446707164}], "distance": 387, "cc": "SG", "city": "Singapore", "country": "Singapore", "formattedAddress": ["The Arcade, 11 Collyer Quay, #01-07", "Singapore"]}, "categories": [{"id": "4bf58dd8d48988d1e0931735", "name": "Coffee Shop", "pluralName": "Coffee Shops", "shortName": "Coffee Shop", "icon": {"prefix": "https://ss3.4sqi.net/img/categories_v2/food/coffeeshop_", "suffix": ".png"}, "primary": true}], "photos": {"count": 0, "groups": []}}, "referralId": "e-0-57049432498e8e3ab9f2bf77-51"}, {"reasons": {"count": 0, "items": [{"summary": "This spot is popular", "type": "general", "reasonName": "globalInteractionReason"}]}, "venue": {"id": "4c205afab306c9284ed569b7", "name": "One Raffles Place", "location": {"address": "1 Raffles Place", "lat": 1.2843416090582966, "lng": 103.85131573472614, "labeledLatLngs": [{"label": "display", "lat": 1.2843416090582966, "lng": 103.85131573472614}], "distance": 357, "postalCode": "048616", "cc": "SG", "city": "Singapore", "country": "Singapore", "formattedAddress": ["1 Raffles Place", "048616", "Singapore"]}, "categories": [{"id": "4bf58dd8d48988d130941735", "name": "Building", "pluralName": "Buildings", "shortName": "Building", "icon": {"prefix": "https://ss3.4sqi.net/img/categories_v2/building/default_", "suffix": ".png"}, "primary": true}], "photos": {"count": 0, "groups": []}}, "referralId": "e-0-4c205afab306c9284ed569b7-52"}, {"reasons": {"count": 0, "items": [{"summary": "This spot is popular", "type": "general", "reasonName": "globalInteractionReason"}]}, "venue": {"id": "562f8111498e3cff9c7138d4", "name": "Smoke & Mirrors", "location": {"address": "#06-01, National Gallery Singapore", "crossStreet": "1 St. Andrew's Road", "lat": 1.2903374976035917, "lng": 103.85200420890978, "labeledLatLngs": [{"label": "display", "lat": 1.2903374976035917, "lng": 103.85200420890978}], "distance": 437, "postalCode": "178957", "cc": "SG", "city": "Singapore", "country": "Singapore", "formattedAddress": ["#06-01, National Gallery Singapore (1 St. Andrew's Road)", "178957", "Singapore"]}, "categories": [{"id": "4bf58dd8d48988d11e941735", "name": "Cocktail Bar", "pluralName": "Cocktail Bars", "shortName": "Cocktail", "icon": {"prefix": "https://ss3.4sqi.net/img/categories_v2/nightlife/cocktails_", "suffix": ".png"}, "primary": true}], "photos": {"count": 0, "groups": []}}, "referralId": "e-0-562f8111498e3cff9c7138d4-53"}, {"reasons": {"count": 0, "items": [{"summary": "This spot is popular", "type": "general", "reasonName": "globalInteractionReason"}]}, "venue": {"id": "5a9d2d95f8cbd43d5293badd", "name": "Caffe Fernet", "location": {"address": "01-05 Customs House", "crossStreet": "70 Collyer Quay", "lat": 1.2826692114051046, "lng": 103.85374749884602, "labeledLatLngs": [{"label": "display", "lat": 1.2826692114051046, "lng": 103.85374749884602}], "distance": 449, "postalCode": "049326", "cc": "SG", "neighborhood": "Financial District", "city": "Singapore", "country": "Singapore", "formattedAddress": ["01-05 Customs House (70 Collyer Quay)", "049326", "Singapore"]}, "categories": [{"id": "4bf58dd8d48988d110941735", "name": "Italian Restaurant", "pluralName": "Italian Restaurants", "shortName": "Italian", "icon": {"prefix": "https://ss3.4sqi.net/img/categories_v2/food/italian_", "suffix": ".png"}, "primary": true}], "photos": {"count": 0, "groups": []}}, "referralId": "e-0-5a9d2d95f8cbd43d5293badd-54"}, {"reasons": {"count": 0, "items": [{"summary": "This spot is popular", "type": "general", "reasonName": "globalInteractionReason"}]}, "venue": {"id": "56d81de5498e8c565699d3d6", "name": "The Providore Raffles Place", "location": {"address": "7 Raffles Place", "lat": 1.2834914460892377, "lng": 103.85140071022128, "labeledLatLngs": [{"label": "display", "lat": 1.2834914460892377, "lng": 103.85140071022128}], "distance": 426, "postalCode": "048625", "cc": "SG", "country": "Singapore", "formattedAddress": ["7 Raffles Place", "048625", "Singapore"]}, "categories": [{"id": "4bf58dd8d48988d10c941735", "name": "French Restaurant", "pluralName": "French Restaurants", "shortName": "French", "icon": {"prefix": "https://ss3.4sqi.net/img/categories_v2/food/french_", "suffix": ".png"}, "primary": true}], "photos": {"count": 0, "groups": []}}, "referralId": "e-0-56d81de5498e8c565699d3d6-55"}, {"reasons": {"count": 0, "items": [{"summary": "This spot is popular", "type": "general", "reasonName": "globalInteractionReason"}]}, "venue": {"id": "542398b8498e93b780ef0289", "name": "Healthy Soba IKI", "location": {"address": "One Raffles Place", "crossStreet": "1 Raffles Place #04-07", "lat": 1.2842423827202178, "lng": 103.85148972383601, "labeledLatLngs": [{"label": "display", "lat": 1.2842423827202178, "lng": 103.85148972383601}], "distance": 353, "postalCode": "048616", "cc": "SG", "neighborhood": "Financial District", "city": "Singapore", "country": "Singapore", "formattedAddress": ["One Raffles Place (1 Raffles Place #04-07)", "048616", "Singapore"]}, "categories": [{"id": "4bf58dd8d48988d111941735", "name": "Japanese Restaurant", "pluralName": "Japanese Restaurants", "shortName": "Japanese", "icon": {"prefix": "https://ss3.4sqi.net/img/categories_v2/food/japanese_", "suffix": ".png"}, "primary": true}], "photos": {"count": 0, "groups": []}}, "referralId": "e-0-542398b8498e93b780ef0289-56"}, {"reasons": {"count": 0, "items": [{"summary": "This spot is popular", "type": "general", "reasonName": "globalInteractionReason"}]}, "venue": {"id": "52ccc68f498e5fa860f691ec", "name": "Fitness First Platinum", "location": {"address": "63 Market Street", "crossStreet": "#02-01 & 03-01, Bank of Singapore Centre", "lat": 1.2839700996377141, "lng": 103.8504325474436, "labeledLatLngs": [{"label": "display", "lat": 1.2839700996377141, "lng": 103.8504325474436}], "distance": 457, "postalCode": "048942", "cc": "SG", "city": "Singapore", "country": "Singapore", "formattedAddress": ["63 Market Street (#02-01 & 03-01, Bank of Singapore Centre)", "048942", "Singapore"]}, "categories": [{"id": "4bf58dd8d48988d175941735", "name": "Gym / Fitness Center", "pluralName": "Gyms or Fitness Centers", "shortName": "Gym / Fitness", "icon": {"prefix": "https://ss3.4sqi.net/img/categories_v2/building/gym_", "suffix": ".png"}, "primary": true}], "photos": {"count": 0, "groups": []}}, "referralId": "e-0-52ccc68f498e5fa860f691ec-57"}, {"reasons": {"count": 0, "items": [{"summary": "This spot is popular", "type": "general", "reasonName": "globalInteractionReason"}]}, "venue": {"id": "4c480b4496abd13ab3d97201", "name": "Maharajah", "location": {"address": "41 Boat Quay", "lat": 1.2866672011390143, "lng": 103.84963584593372, "labeledLatLngs": [{"label": "display", "lat": 1.2866672011390143, "lng": 103.84963584593372}], "distance": 430, "postalCode": "409830", "cc": "SG", "city": "Singapore", "country": "Singapore", "formattedAddress": ["41 Boat Quay", "409830", "Singapore"]}, "categories": [{"id": "4bf58dd8d48988d10f941735", "name": "Indian Restaurant", "pluralName": "Indian Restaurants", "shortName": "Indian", "icon": {"prefix": "https://ss3.4sqi.net/img/categories_v2/food/indian_", "suffix": ".png"}, "primary": true}], "photos": {"count": 0, "groups": []}}, "referralId": "e-0-4c480b4496abd13ab3d97201-58"}, {"reasons": {"count": 0, "items": [{"summary": "This spot is popular", "type": "general", "reasonName": "globalInteractionReason"}]}, "venue": {"id": "566ea8e6498ee8c21fa57b5b", "name": "Chao Shan Cuisine", "location": {"address": "Grand Building, #01-01/02", "crossStreet": "17 Phillip St", "lat": 1.2844049913989506, "lng": 103.84984910488129, "labeledLatLngs": [{"label": "display", "lat": 1.2844049913989506, "lng": 103.84984910488129}], "distance": 479, "postalCode": "048695", "cc": "SG", "neighborhood": "Financial District", "city": "Singapore", "country": "Singapore", "formattedAddress": ["Grand Building, #01-01/02 (17 Phillip St)", "048695", "Singapore"]}, "categories": [{"id": "4bf58dd8d48988d145941735", "name": "Chinese Restaurant", "pluralName": "Chinese Restaurants", "shortName": "Chinese", "icon": {"prefix": "https://ss3.4sqi.net/img/categories_v2/food/asian_", "suffix": ".png"}, "primary": true}], "photos": {"count": 0, "groups": []}}, "referralId": "e-0-566ea8e6498ee8c21fa57b5b-59"}, {"reasons": {"count": 0, "items": [{"summary": "This spot is popular", "type": "general", "reasonName": "globalInteractionReason"}]}, "venue": {"id": "4be8e6f5947820a13a7cb5db", "name": "Fish Soup @ Arcade", "location": {"address": "20 Raffles Place", "lat": 1.2833937139489695, "lng": 103.8527641433882, "labeledLatLngs": [{"label": "display", "lat": 1.2833937139489695, "lng": 103.8527641433882}], "distance": 377, "postalCode": "048620", "cc": "SG", "city": "Singapore", "country": "Singapore", "formattedAddress": ["20 Raffles Place", "048620", "Singapore"]}, "categories": [{"id": "4bf58dd8d48988d145941735", "name": "Chinese Restaurant", "pluralName": "Chinese Restaurants", "shortName": "Chinese", "icon": {"prefix": "https://ss3.4sqi.net/img/categories_v2/food/asian_", "suffix": ".png"}, "primary": true}], "photos": {"count": 0, "groups": []}}, "referralId": "e-0-4be8e6f5947820a13a7cb5db-60"}, {"reasons": {"count": 0, "items": [{"summary": "This spot is popular", "type": "general", "reasonName": "globalInteractionReason"}]}, "venue": {"id": "50d5dda4e4b073c621953117", "name": "Gerry's Grill", "location": {"address": "Makansutra Glutton's Bay", "crossStreet": "Raffles Avenue", "lat": 1.2893087743562603, "lng": 103.85689087068657, "labeledLatLngs": [{"label": "display", "lat": 1.2893087743562603, "lng": 103.85689087068657}], "distance": 476, "cc": "SG", "city": "Singapore", "country": "Singapore", "formattedAddress": ["Makansutra Glutton's Bay (Raffles Avenue)", "Singapore"]}, "categories": [{"id": "4eb1bd1c3b7b55596b4a748f", "name": "Filipino Restaurant", "pluralName": "Filipino Restaurants", "shortName": "Filipino", "icon": {"prefix": "https://ss3.4sqi.net/img/categories_v2/food/filipino_", "suffix": ".png"}, "primary": true}], "photos": {"count": 0, "groups": []}}, "referralId": "e-0-50d5dda4e4b073c621953117-61"}, {"reasons": {"count": 0, "items": [{"summary": "This spot is popular", "type": "general", "reasonName": "globalInteractionReason"}]}, "venue": {"id": "57d3f93a498e462efdf21803", "name": "Super Loco Custom House", "location": {"address": "70 Collyer Quay #01-04 Customs House", "lat": 1.282502, "lng": 103.853714, "labeledLatLngs": [{"label": "display", "lat": 1.282502, "lng": 103.853714}], "distance": 467, "postalCode": "049323", "cc": "SG", "neighborhood": "Financial District", "city": "Singapore", "country": "Singapore", "formattedAddress": ["70 Collyer Quay #01-04 Customs House", "049323", "Singapore"]}, "categories": [{"id": "4bf58dd8d48988d1c1941735", "name": "Mexican Restaurant", "pluralName": "Mexican Restaurants", "shortName": "Mexican", "icon": {"prefix": "https://ss3.4sqi.net/img/categories_v2/food/mexican_", "suffix": ".png"}, "primary": true}], "photos": {"count": 0, "groups": []}}, "referralId": "e-0-57d3f93a498e462efdf21803-62"}, {"reasons": {"count": 0, "items": [{"summary": "This spot is popular", "type": "general", "reasonName": "globalInteractionReason"}]}, "venue": {"id": "4bd1e8a4462cb7135d28db07", "name": "Boat Quay", "location": {"address": "Boat Quay", "lat": 1.2866377657473904, "lng": 103.8495492898863, "labeledLatLngs": [{"label": "display", "lat": 1.2866377657473904, "lng": 103.8495492898863}], "distance": 439, "cc": "SG", "city": "Singapore", "country": "Singapore", "formattedAddress": ["Boat Quay", "Singapore"]}, "categories": [{"id": "56aa371be4b08b9a8d573562", "name": "Canal", "pluralName": "Canals", "shortName": "Canal", "icon": {"prefix": "https://ss3.4sqi.net/img/categories_v2/parks_outdoors/river_", "suffix": ".png"}, "primary": true}], "photos": {"count": 0, "groups": []}}, "referralId": "e-0-4bd1e8a4462cb7135d28db07-63"}, {"reasons": {"count": 0, "items": [{"summary": "This spot is popular", "type": "general", "reasonName": "globalInteractionReason"}]}, "venue": {"id": "4c14a0457f7f2d7fd234e168", "name": "Hom Yoga", "location": {"address": "3 Canton St, #02-01", "lat": 1.2862367968979624, "lng": 103.84938925719267, "labeledLatLngs": [{"label": "display", "lat": 1.2862367968979624, "lng": 103.84938925719267}], "distance": 460, "postalCode": "049745", "cc": "SG", "city": "Singapore", "country": "Singapore", "formattedAddress": ["3 Canton St, #02-01", "049745", "Singapore"]}, "categories": [{"id": "4bf58dd8d48988d102941735", "name": "Yoga Studio", "pluralName": "Yoga Studios", "shortName": "Yoga Studio", "icon": {"prefix": "https://ss3.4sqi.net/img/categories_v2/shops/gym_yogastudio_", "suffix": ".png"}, "primary": true}], "photos": {"count": 0, "groups": []}}, "referralId": "e-0-4c14a0457f7f2d7fd234e168-64"}, {"reasons": {"count": 0, "items": [{"summary": "This spot is popular", "type": "general", "reasonName": "globalInteractionReason"}]}, "venue": {"id": "54377843498e0a3393581c16", "name": "Hero's", "location": {"address": "69 Circular Road", "lat": 1.2865297706490764, "lng": 103.84907948357424, "labeledLatLngs": [{"label": "display", "lat": 1.2865297706490764, "lng": 103.84907948357424}], "distance": 492, "postalCode": "049423", "cc": "SG", "city": "Singapore", "country": "Singapore", "formattedAddress": ["69 Circular Road", "049423", "Singapore"]}, "categories": [{"id": "4bf58dd8d48988d116941735", "name": "Bar", "pluralName": "Bars", "shortName": "Bar", "icon": {"prefix": "https://ss3.4sqi.net/img/categories_v2/nightlife/pub_", "suffix": ".png"}, "primary": true}], "photos": {"count": 0, "groups": []}}, "referralId": "e-0-54377843498e0a3393581c16-65"}, {"reasons": {"count": 0, "items": [{"summary": "This spot is popular", "type": "general", "reasonName": "globalInteractionReason"}]}, "venue": {"id": "54ba6454498e84e3e1580eeb", "name": "YAKINIQUEST", "location": {"address": "48 Boat Quay, Singapore 049837", "lat": 1.2868585948395266, "lng": 103.84948968887329, "labeledLatLngs": [{"label": "display", "lat": 1.2868585948395266, "lng": 103.84948968887329}], "distance": 446, "postalCode": "049837", "cc": "SG", "country": "Singapore", "formattedAddress": ["48 Boat Quay, Singapore 049837", "049837", "Singapore"]}, "categories": [{"id": "4bf58dd8d48988d1df931735", "name": "BBQ Joint", "pluralName": "BBQ Joints", "shortName": "BBQ", "icon": {"prefix": "https://ss3.4sqi.net/img/categories_v2/food/bbqalt_", "suffix": ".png"}, "primary": true}], "photos": {"count": 0, "groups": []}, "venuePage": {"id": "519494043"}}, "referralId": "e-0-54ba6454498e84e3e1580eeb-66"}, {"reasons": {"count": 0, "items": [{"summary": "This spot is popular", "type": "general", "reasonName": "globalInteractionReason"}]}, "venue": {"id": "51f1348a7dd2877367af2dae", "name": "Ah Sam Cold Drink Stall", "location": {"address": "60A Boat Quay", "lat": 1.2874967995008197, "lng": 103.84930193424223, "labeledLatLngs": [{"label": "display", "lat": 1.2874967995008197, "lng": 103.84930193424223}], "distance": 475, "postalCode": "049848", "cc": "SG", "city": "Singapore", "country": "Singapore", "formattedAddress": ["60A Boat Quay", "049848", "Singapore"]}, "categories": [{"id": "4bf58dd8d48988d11e941735", "name": "Cocktail Bar", "pluralName": "Cocktail Bars", "shortName": "Cocktail", "icon": {"prefix": "https://ss3.4sqi.net/img/categories_v2/nightlife/cocktails_", "suffix": ".png"}, "primary": true}], "photos": {"count": 0, "groups": []}, "venuePage": {"id": "66914407"}}, "referralId": "e-0-51f1348a7dd2877367af2dae-67"}, {"reasons": {"count": 0, "items": [{"summary": "This spot is popular", "type": "general", "reasonName": "globalInteractionReason"}]}, "venue": {"id": "4bb0956af964a520814d3ce3", "name": "Kinki Restaurant & Bar", "location": {"address": "#02-02, Customs House", "crossStreet": "70 Collyer Quay", "lat": 1.2825617986023137, "lng": 103.85366453580399, "labeledLatLngs": [{"label": "display", "lat": 1.2825617986023137, "lng": 103.85366453580399}], "distance": 461, "postalCode": "049323", "cc": "SG", "city": "Singapore", "country": "Singapore", "formattedAddress": ["#02-02, Customs House (70 Collyer Quay)", "049323", "Singapore"]}, "categories": [{"id": "4bf58dd8d48988d111941735", "name": "Japanese Restaurant", "pluralName": "Japanese Restaurants", "shortName": "Japanese", "icon": {"prefix": "https://ss3.4sqi.net/img/categories_v2/food/japanese_", "suffix": ".png"}, "primary": true}], "photos": {"count": 0, "groups": []}, "venuePage": {"id": "90567952"}}, "referralId": "e-0-4bb0956af964a520814d3ce3-68"}, {"reasons": {"count": 0, "items": [{"summary": "This spot is popular", "type": "general", "reasonName": "globalInteractionReason"}]}, "venue": {"id": "562a2288498ec77a3d850a4e", "name": "Aura", "location": {"address": "#05-03/#06-02, National Gallery Singapore", "crossStreet": "1 St Andrews Rd", "lat": 1.290800563788568, "lng": 103.85209173979858, "labeledLatLngs": [{"label": "display", "lat": 1.290800563788568, "lng": 103.85209173979858}], "distance": 482, "postalCode": "178957", "cc": "SG", "city": "Singapore", "country": "Singapore", "formattedAddress": ["#05-03/#06-02, National Gallery Singapore (1 St Andrews Rd)", "178957", "Singapore"]}, "categories": [{"id": "4bf58dd8d48988d110941735", "name": "Italian Restaurant", "pluralName": "Italian Restaurants", "shortName": "Italian", "icon": {"prefix": "https://ss3.4sqi.net/img/categories_v2/food/italian_", "suffix": ".png"}, "primary": true}], "photos": {"count": 0, "groups": []}}, "referralId": "e-0-562a2288498ec77a3d850a4e-69"}, {"reasons": {"count": 0, "items": [{"summary": "This spot is popular", "type": "general", "reasonName": "globalInteractionReason"}]}, "venue": {"id": "50c06bbd8055b84272423bf8", "name": "Esplanade Theatre Studio", "location": {"address": "Esplanade - Theatres On The Bay", "crossStreet": "1 Esplanade Dr", "lat": 1.2896772808809123, "lng": 103.85563891356041, "labeledLatLngs": [{"label": "display", "lat": 1.2896772808809123, "lng": 103.85563891356041}], "distance": 408, "postalCode": "038981", "cc": "SG", "city": "Singapore", "country": "Singapore", "formattedAddress": ["Esplanade - Theatres On The Bay (1 Esplanade Dr)", "038981", "Singapore"]}, "categories": [{"id": "4bf58dd8d48988d1f2931735", "name": "Performing Arts Venue", "pluralName": "Performing Arts Venues", "shortName": "Performing Arts", "icon": {"prefix": "https://ss3.4sqi.net/img/categories_v2/arts_entertainment/performingarts_", "suffix": ".png"}, "primary": true}], "photos": {"count": 0, "groups": []}}, "referralId": "e-0-50c06bbd8055b84272423bf8-70"}, {"reasons": {"count": 0, "items": [{"summary": "This spot is popular", "type": "general", "reasonName": "globalInteractionReason"}]}, "venue": {"id": "5103ce92e4b00e3879881c19", "name": "Gajalee", "location": {"address": "8 Raffles Avenue", "crossStreet": "Esplanade Mall #01-13C", "lat": 1.2892674621448696, "lng": 103.85654224319975, "labeledLatLngs": [{"label": "display", "lat": 1.2892674621448696, "lng": 103.85654224319975}], "distance": 443, "postalCode": "039802", "cc": "SG", "neighborhood": "Downtown Core", "country": "Singapore", "formattedAddress": ["8 Raffles Avenue (Esplanade Mall #01-13C)", "039802", "Singapore"]}, "categories": [{"id": "4bf58dd8d48988d10f941735", "name": "Indian Restaurant", "pluralName": "Indian Restaurants", "shortName": "Indian", "icon": {"prefix": "https://ss3.4sqi.net/img/categories_v2/food/indian_", "suffix": ".png"}, "primary": true}], "photos": {"count": 0, "groups": []}}, "referralId": "e-0-5103ce92e4b00e3879881c19-71"}, {"reasons": {"count": 0, "items": [{"summary": "This spot is popular", "type": "general", "reasonName": "globalInteractionReason"}]}, "venue": {"id": "4ca5ce817334236a7b3a1958", "name": "Esplanade Roof Terrace", "location": {"address": "Esplanade - Theatres On The Bay", "crossStreet": "1 Esplanade Dr", "lat": 1.2893588721017184, "lng": 103.85592575869285, "labeledLatLngs": [{"label": "display", "lat": 1.2893588721017184, "lng": 103.85592575869285}], "distance": 400, "postalCode": "038981", "cc": "SG", "city": "Singapore", "country": "Singapore", "formattedAddress": ["Esplanade - Theatres On The Bay (1 Esplanade Dr)", "038981", "Singapore"]}, "categories": [{"id": "4bf58dd8d48988d165941735", "name": "Scenic Lookout", "pluralName": "Scenic Lookouts", "shortName": "Scenic Lookout", "icon": {"prefix": "https://ss3.4sqi.net/img/categories_v2/parks_outdoors/sceniclookout_", "suffix": ".png"}, "primary": true}], "photos": {"count": 0, "groups": []}}, "referralId": "e-0-4ca5ce817334236a7b3a1958-72"}, {"reasons": {"count": 0, "items": [{"summary": "This spot is popular", "type": "general", "reasonName": "globalInteractionReason"}]}, "venue": {"id": "56559d63498ef88692e0d7ea", "name": "The National Kitchen by Violet Oon Singapore", "location": {"address": "#02\u201301, National Galley Singapore (City Hall Wing)", "crossStreet": "1 St. Andrew\u2019s Road", "lat": 1.290577571387266, "lng": 103.85201721186596, "labeledLatLngs": [{"label": "display", "lat": 1.290577571387266, "lng": 103.85201721186596}], "distance": 462, "postalCode": "178957", "cc": "SG", "city": "Singapore", "country": "Singapore", "formattedAddress": ["#02\u201301, National Galley Singapore (City Hall Wing) (1 St. Andrew\u2019s Road)", "178957", "Singapore"]}, "categories": [{"id": "4bf58dd8d48988d142941735", "name": "Asian Restaurant", "pluralName": "Asian Restaurants", "shortName": "Asian", "icon": {"prefix": "https://ss3.4sqi.net/img/categories_v2/food/asian_", "suffix": ".png"}, "primary": true}], "photos": {"count": 0, "groups": []}}, "referralId": "e-0-56559d63498ef88692e0d7ea-73"}, {"reasons": {"count": 0, "items": [{"summary": "This spot is popular", "type": "general", "reasonName": "globalInteractionReason"}]}, "venue": {"id": "4c9b82c27719236a7fd2e781", "name": "Singapore F1 Zone 4", "location": {"address": "Marina Bay Street Circuit", "crossStreet": "Padang & Surrounds", "lat": 1.2902372787975218, "lng": 103.85338227785537, "labeledLatLngs": [{"label": "display", "lat": 1.2902372787975218, "lng": 103.85338227785537}], "distance": 393, "cc": "SG", "city": "Singapore", "country": "Singapore", "formattedAddress": ["Marina Bay Street Circuit (Padang & Surrounds)", "Singapore"]}, "categories": [{"id": "4bf58dd8d48988d171941735", "name": "Event Space", "pluralName": "Event Spaces", "shortName": "Event Space", "icon": {"prefix": "https://ss3.4sqi.net/img/categories_v2/building/eventspace_", "suffix": ".png"}, "primary": true}], "photos": {"count": 0, "groups": []}}, "referralId": "e-0-4c9b82c27719236a7fd2e781-74"}]}]}}