{"meta": {"code": 200, "requestId": "5e70ddc2b1cac000256a6e87"}, "response": {"headerLocation": "Central Region", "headerFullLocation": "Central Region, Singapore", "headerLocationGranularity": "neighborhood", "totalResults": 4, "suggestedBounds": {"ne": {"lat": 1.2931240045000045, "lng": 103.87431973871657}, "sw": {"lat": 1.2841239954999955, "lng": 103.86533426128344}}, "groups": [{"type": "Recommended Places", "name": "recommended", "items": [{"reasons": {"count": 0, "items": [{"summary": "This spot is popular", "type": "general", "reasonName": "globalInteractionReason"}]}, "venue": {"id": "4e2a8fe5a809f1b164062159", "name": "Bay East (Gardens by the Bay)", "location": {"address": "Tanjong Rhu Rd", "crossStreet": "Gardens by the Bay", "lat": 1.2895830304297036, "lng": 103.86895179748535, "labeledLatLngs": [{"label": "display", "lat": 1.2895830304297036, "lng": 103.86895179748535}], "distance": 144, "cc": "SG", "city": "Singapore", "country": "Singapore", "formattedAddress": ["Tanjong Rhu Rd (Gardens by the Bay)", "Singapore"]}, "categories": [{"id": "4bf58dd8d48988d163941735", "name": "Park", "pluralName": "Parks", "shortName": "Park", "icon": {"prefix": "https://ss3.4sqi.net/img/categories_v2/parks_outdoors/park_", "suffix": ".png"}, "primary": true}], "photos": {"count": 0, "groups": []}}, "referralId": "e-0-4e2a8fe5a809f1b164062159-0"}, {"reasons": {"count": 0, "items": [{"summary": "This spot is popular", "type": "general", "reasonName": "globalInteractionReason"}]}, "venue": {"id": "4c32dad716adc928f1c1c29c", "name": "Marina Reservoir", "location": {"address": "Marina Bay", "lat": 1.2866699884994892, "lng": 103.8703687530367, "labeledLatLngs": [{"label": "display", "lat": 1.2866699884994892, "lng": 103.8703687530367}], "distance": 225, "cc": "SG", "city": "Singapore", "country": "Singapore", "formattedAddress": ["Marina Bay", "Singapore"]}, "categories": [{"id": "4bf58dd8d48988d161941735", "name": "Lake", "pluralName": "Lakes", "shortName": "Lake", "icon": {"prefix": "https://ss3.4sqi.net/img/categories_v2/parks_outdoors/lake_", "suffix": ".png"}, "primary": true}], "photos": {"count": 0, "groups": []}}, "referralId": "e-0-4c32dad716adc928f1c1c29c-1"}, {"reasons": {"count": 0, "items": [{"summary": "This spot is popular", "type": "general", "reasonName": "globalInteractionReason"}]}, "venue": {"id": "56b414cb498e843445097e42", "name": "Palm Grove | Gardens by the Bay East", "location": {"address": "Gardens by the Bay East", "crossStreet": "Tanjung Rhu Road", "lat": 1.285994, "lng": 103.870468, "labeledLatLngs": [{"label": "display", "lat": 1.285994, "lng": 103.870468}], "distance": 301, "cc": "SG", "city": "Singapore", "country": "Singapore", "formattedAddress": ["Gardens by the Bay East (Tanjung Rhu Road)", "Singapore"]}, "categories": [{"id": "4bf58dd8d48988d163941735", "name": "Park", "pluralName": "Parks", "shortName": "Park", "icon": {"prefix": "https://ss3.4sqi.net/img/categories_v2/parks_outdoors/park_", "suffix": ".png"}, "primary": true}], "photos": {"count": 0, "groups": []}}, "referralId": "e-0-56b414cb498e843445097e42-2"}, {"reasons": {"count": 0, "items": [{"summary": "This spot is popular", "type": "general", "reasonName": "globalInteractionReason"}]}, "venue": {"id": "4c21d9e813c00f47508386de", "name": "Canopy Cafe", "location": {"address": "Marina Bay Golf Course", "crossStreet": "80 Rhu Cross", "lat": 1.2928200704014032, "lng": 103.87128391879041, "labeledLatLngs": [{"label": "display", "lat": 1.2928200704014032, "lng": 103.87128391879041}], "distance": 494, "postalCode": "437437", "cc": "SG", "city": "Singapore", "country": "Singapore", "formattedAddress": ["Marina Bay Golf Course (80 Rhu Cross)", "437437", "Singapore"]}, "categories": [{"id": "4bf58dd8d48988d16d941735", "name": "Caf\u00e9", "pluralName": "Caf\u00e9s", "shortName": "Caf\u00e9", "icon": {"prefix": "https://ss3.4sqi.net/img/categories_v2/food/cafe_", "suffix": ".png"}, "primary": true}], "photos": {"count": 0, "groups": []}}, "referralId": "e-0-4c21d9e813c00f47508386de-3"}]}]}}