{"meta": {"code": 200, "requestId": "5e70de7f1a4b0a001b0b9ec0"}, "response": {"suggestedFilters": {"header": "Tap to show:", "filters": [{"name": "Open now", "key": "openNow"}]}, "headerLocation": "Novena", "headerFullLocation": "Novena, Singapore", "headerLocationGranularity": "neighborhood", "totalResults": 62, "suggestedBounds": {"ne": {"lat": 1.3250257045000045, "lng": 103.84837413496345}, "sw": {"lat": 1.3160256954999954, "lng": 103.8393885435955}}, "groups": [{"type": "Recommended Places", "name": "recommended", "items": [{"reasons": {"count": 0, "items": [{"summary": "This spot is popular", "type": "general", "reasonName": "globalInteractionReason"}]}, "venue": {"id": "53492538498e0f29cc1f4da9", "name": "Ah Chew Desserts \u963f\u79cb\u751c\u54c1 (Ah Chew Desserts)", "location": {"address": "181 Thomson Rd Goldhill Centre", "lat": 1.318411, "lng": 103.843714, "labeledLatLngs": [{"label": "display", "lat": 1.318411, "lng": 103.843714}], "distance": 236, "postalCode": "307627", "cc": "SG", "city": "Singapore", "country": "Singapore", "formattedAddress": ["181 Thomson Rd Goldhill Centre", "307627", "Singapore"]}, "categories": [{"id": "4bf58dd8d48988d1d0941735", "name": "Dessert Shop", "pluralName": "Dessert Shops", "shortName": "Desserts", "icon": {"prefix": "https://ss3.4sqi.net/img/categories_v2/food/dessert_", "suffix": ".png"}, "primary": true}], "photos": {"count": 0, "groups": []}}, "referralId": "e-0-53492538498e0f29cc1f4da9-0"}, {"reasons": {"count": 0, "items": [{"summary": "This spot is popular", "type": "general", "reasonName": "globalInteractionReason"}]}, "venue": {"id": "547fcfe1498e9eb4100fcb7b", "name": "Joe & Dough", "location": {"address": "Novena Square 2 #01-156", "lat": 1.3207382003202968, "lng": 103.84381922112256, "labeledLatLngs": [{"label": "display", "lat": 1.3207382003202968, "lng": 103.84381922112256}], "distance": 24, "cc": "SG", "neighborhood": "Novena", "country": "Singapore", "formattedAddress": ["Novena Square 2 #01-156", "Singapore"]}, "categories": [{"id": "4bf58dd8d48988d1c5941735", "name": "Sandwich Place", "pluralName": "Sandwich Places", "shortName": "Sandwiches", "icon": {"prefix": "https://ss3.4sqi.net/img/categories_v2/food/deli_", "suffix": ".png"}, "primary": true}], "photos": {"count": 0, "groups": []}}, "referralId": "e-0-547fcfe1498e9eb4100fcb7b-1"}, {"reasons": {"count": 0, "items": [{"summary": "This spot is popular", "type": "general", "reasonName": "globalInteractionReason"}]}, "venue": {"id": "59c9acf10c9f317c56d7fd52", "name": "Courtyard by Marriott Singapore Novena", "location": {"address": "99 Irrawaddy Road, Novena", "lat": 1.320527693070273, "lng": 103.84322136640549, "labeledLatLngs": [{"label": "display", "lat": 1.320527693070273, "lng": 103.84322136640549}], "distance": 73, "postalCode": "329568", "cc": "SG", "city": "Singapore", "state": "SG-01", "country": "Singapore", "formattedAddress": ["99 Irrawaddy Road, Novena", "329568", "Singapore"]}, "categories": [{"id": "4bf58dd8d48988d1fa931735", "name": "Hotel", "pluralName": "Hotels", "shortName": "Hotel", "icon": {"prefix": "https://ss3.4sqi.net/img/categories_v2/travel/hotel_", "suffix": ".png"}, "primary": true}], "photos": {"count": 0, "groups": []}}, "referralId": "e-0-59c9acf10c9f317c56d7fd52-2"}, {"reasons": {"count": 0, "items": [{"summary": "This spot is popular", "type": "general", "reasonName": "globalInteractionReason"}]}, "venue": {"id": "4bc2d4e44cdfc9b66e959621", "name": "Udders", "location": {"address": "Goldhill Centre", "crossStreet": "155 Thomson Rd", "lat": 1.3182527806436282, "lng": 103.84394754984936, "labeledLatLngs": [{"label": "display", "lat": 1.3182527806436282, "lng": 103.84394754984936}], "distance": 253, "postalCode": "307608", "cc": "SG", "city": "Singapore", "country": "Singapore", "formattedAddress": ["Goldhill Centre (155 Thomson Rd)", "307608", "Singapore"]}, "categories": [{"id": "4bf58dd8d48988d1c9941735", "name": "Ice Cream Shop", "pluralName": "Ice Cream Shops", "shortName": "Ice Cream", "icon": {"prefix": "https://ss3.4sqi.net/img/categories_v2/food/icecream_", "suffix": ".png"}, "primary": true}], "photos": {"count": 0, "groups": []}}, "referralId": "e-0-4bc2d4e44cdfc9b66e959621-3"}, {"reasons": {"count": 0, "items": [{"summary": "This spot is popular", "type": "general", "reasonName": "globalInteractionReason"}]}, "venue": {"id": "5a595fe3d69ed06624ba90ef", "name": "Two Men Bagel House", "location": {"address": "#01-04 Royal Square At Novena", "crossStreet": "103 Irrawaddy Road", "lat": 1.3207178616455315, "lng": 103.84293343507376, "labeledLatLngs": [{"label": "display", "lat": 1.3207178616455315, "lng": 103.84293343507376}], "distance": 107, "postalCode": "329566", "cc": "SG", "neighborhood": "Novena", "city": "Singapore", "country": "Singapore", "formattedAddress": ["#01-04 Royal Square At Novena (103 Irrawaddy Road)", "329566", "Singapore"]}, "categories": [{"id": "4bf58dd8d48988d179941735", "name": "Bagel Shop", "pluralName": "Bagel Shops", "shortName": "Bagels", "icon": {"prefix": "https://ss3.4sqi.net/img/categories_v2/food/bagels_", "suffix": ".png"}, "primary": true}], "photos": {"count": 0, "groups": []}}, "referralId": "e-0-5a595fe3d69ed06624ba90ef-4"}, {"reasons": {"count": 0, "items": [{"summary": "This spot is popular", "type": "general", "reasonName": "globalInteractionReason"}]}, "venue": {"id": "4bcabe06fb84c9b645c31d3e", "name": "Mama Patisserie", "location": {"address": "#02-06/07 Square 2", "crossStreet": "10 Sinaran Dr", "lat": 1.3212708574414043, "lng": 103.84412906866375, "labeledLatLngs": [{"label": "display", "lat": 1.3212708574414043, "lng": 103.84412906866375}], "distance": 87, "postalCode": "307506", "cc": "SG", "city": "Singapore", "country": "Singapore", "formattedAddress": ["#02-06/07 Square 2 (10 Sinaran Dr)", "307506", "Singapore"]}, "categories": [{"id": "4bf58dd8d48988d16a941735", "name": "Bakery", "pluralName": "Bakeries", "shortName": "Bakery", "icon": {"prefix": "https://ss3.4sqi.net/img/categories_v2/food/bakery_", "suffix": ".png"}, "primary": true}], "photos": {"count": 0, "groups": []}}, "referralId": "e-0-4bcabe06fb84c9b645c31d3e-5"}, {"reasons": {"count": 0, "items": [{"summary": "This spot is popular", "type": "general", "reasonName": "globalInteractionReason"}]}, "venue": {"id": "599d738da4ba7c6285d767cc", "name": "S\u014d Ramen", "location": {"address": "#01-05, Velocity@Novena Square", "crossStreet": "238 Thomson Road", "lat": 1.3197487338621987, "lng": 103.84318780819322, "labeledLatLngs": [{"label": "display", "lat": 1.3197487338621987, "lng": 103.84318780819322}], "distance": 115, "postalCode": "307683", "cc": "SG", "city": "Singapore", "country": "Singapore", "formattedAddress": ["#01-05, Velocity@Novena Square (238 Thomson Road)", "307683", "Singapore"]}, "categories": [{"id": "55a59bace4b013909087cb24", "name": "Ramen Restaurant", "pluralName": "Ramen Restaurants", "shortName": "Ramen", "icon": {"prefix": "https://ss3.4sqi.net/img/categories_v2/food/ramen_", "suffix": ".png"}, "primary": true}], "photos": {"count": 0, "groups": []}}, "referralId": "e-0-599d738da4ba7c6285d767cc-6"}, {"reasons": {"count": 0, "items": [{"summary": "This spot is popular", "type": "general", "reasonName": "globalInteractionReason"}]}, "venue": {"id": "4b6ce031f964a520f15a2ce3", "name": "Running Lab", "location": {"address": "#01-47 Velocity", "lat": 1.3192038076678338, "lng": 103.84354814266091, "labeledLatLngs": [{"label": "display", "lat": 1.3192038076678338, "lng": 103.84354814266091}], "distance": 151, "cc": "SG", "city": "Singapore", "country": "Singapore", "formattedAddress": ["#01-47 Velocity", "Singapore"]}, "categories": [{"id": "4bf58dd8d48988d1f2941735", "name": "Sporting Goods Shop", "pluralName": "Sporting Goods Shops", "shortName": "Sporting Goods", "icon": {"prefix": "https://ss3.4sqi.net/img/categories_v2/shops/sports_outdoors_", "suffix": ".png"}, "primary": true}], "photos": {"count": 0, "groups": []}}, "referralId": "e-0-4b6ce031f964a520f15a2ce3-7"}, {"reasons": {"count": 0, "items": [{"summary": "This spot is popular", "type": "general", "reasonName": "globalInteractionReason"}]}, "venue": {"id": "50737a3ee4b005f150f795c5", "name": "La Ristrettos", "location": {"address": "#08-37 Novena Medical Centre", "crossStreet": "10 Sinaran Dr.", "lat": 1.3206992596498968, "lng": 103.84414994643637, "labeledLatLngs": [{"label": "display", "lat": 1.3206992596498968, "lng": 103.84414994643637}], "distance": 35, "cc": "SG", "city": "Singapore", "country": "Singapore", "formattedAddress": ["#08-37 Novena Medical Centre (10 Sinaran Dr.)", "Singapore"]}, "categories": [{"id": "4bf58dd8d48988d16d941735", "name": "Caf\u00e9", "pluralName": "Caf\u00e9s", "shortName": "Caf\u00e9", "icon": {"prefix": "https://ss3.4sqi.net/img/categories_v2/food/cafe_", "suffix": ".png"}, "primary": true}], "photos": {"count": 0, "groups": []}}, "referralId": "e-0-50737a3ee4b005f150f795c5-8"}, {"reasons": {"count": 0, "items": [{"summary": "This spot is popular", "type": "general", "reasonName": "globalInteractionReason"}]}, "venue": {"id": "5854c770876ade78560592c6", "name": "Toast Box \u571f\u53f8\u5de5\u574a", "location": {"address": "Velocity@Novena Square", "crossStreet": "238 Thomson Road #01-15", "lat": 1.3202597311365911, "lng": 103.84364057231635, "labeledLatLngs": [{"label": "display", "lat": 1.3202597311365911, "lng": 103.84364057231635}], "distance": 39, "postalCode": "307683", "cc": "SG", "city": "Singapore", "country": "Singapore", "formattedAddress": ["Velocity@Novena Square (238 Thomson Road #01-15)", "307683", "Singapore"]}, "categories": [{"id": "4bf58dd8d48988d16d941735", "name": "Caf\u00e9", "pluralName": "Caf\u00e9s", "shortName": "Caf\u00e9", "icon": {"prefix": "https://ss3.4sqi.net/img/categories_v2/food/cafe_", "suffix": ".png"}, "primary": true}], "photos": {"count": 0, "groups": []}}, "referralId": "e-0-5854c770876ade78560592c6-9"}, {"reasons": {"count": 0, "items": [{"summary": "This spot is popular", "type": "general", "reasonName": "globalInteractionReason"}]}, "venue": {"id": "58e7bd2e5f671735499d3d17", "name": "Starbucks Reserve", "location": {"address": "#01-01, United Square", "crossStreet": "101 Thomson Rd", "lat": 1.3176731682929055, "lng": 103.84402113019289, "labeledLatLngs": [{"label": "display", "lat": 1.3176731682929055, "lng": 103.84402113019289}], "distance": 317, "postalCode": "307591", "cc": "SG", "city": "Singapore", "country": "Singapore", "formattedAddress": ["#01-01, United Square (101 Thomson Rd)", "307591", "Singapore"]}, "categories": [{"id": "4bf58dd8d48988d1e0931735", "name": "Coffee Shop", "pluralName": "Coffee Shops", "shortName": "Coffee Shop", "icon": {"prefix": "https://ss3.4sqi.net/img/categories_v2/food/coffeeshop_", "suffix": ".png"}, "primary": true}], "photos": {"count": 0, "groups": []}}, "referralId": "e-0-58e7bd2e5f671735499d3d17-10"}, {"reasons": {"count": 0, "items": [{"summary": "This spot is popular", "type": "general", "reasonName": "globalInteractionReason"}]}, "venue": {"id": "4dcd6b18ae603b786d15a073", "name": "Starbucks", "location": {"address": "#02-K7/K8, Novena Square (Office Tower)", "crossStreet": "238 Thomson Rd", "lat": 1.3199546511297626, "lng": 103.84437845987021, "labeledLatLngs": [{"label": "display", "lat": 1.3199546511297626, "lng": 103.84437845987021}], "distance": 84, "postalCode": "307683", "cc": "SG", "city": "Singapore", "country": "Singapore", "formattedAddress": ["#02-K7/K8, Novena Square (Office Tower) (238 Thomson Rd)", "307683", "Singapore"]}, "categories": [{"id": "4bf58dd8d48988d1e0931735", "name": "Coffee Shop", "pluralName": "Coffee Shops", "shortName": "Coffee Shop", "icon": {"prefix": "https://ss3.4sqi.net/img/categories_v2/food/coffeeshop_", "suffix": ".png"}, "primary": true}], "photos": {"count": 0, "groups": []}}, "referralId": "e-0-4dcd6b18ae603b786d15a073-11"}, {"reasons": {"count": 0, "items": [{"summary": "This spot is popular", "type": "general", "reasonName": "globalInteractionReason"}]}, "venue": {"id": "4bd15651462cb7137f1ada07", "name": "QQ Rice", "location": {"address": "#01-06 Square 2", "crossStreet": "10 Sinaran Dr", "lat": 1.3214176715829382, "lng": 103.84452428399291, "labeledLatLngs": [{"label": "display", "lat": 1.3214176715829382, "lng": 103.84452428399291}], "distance": 122, "postalCode": "307506", "cc": "SG", "neighborhood": "Novena", "city": "Singapore", "country": "Singapore", "formattedAddress": ["#01-06 Square 2 (10 Sinaran Dr)", "307506", "Singapore"]}, "categories": [{"id": "4bf58dd8d48988d1c4941735", "name": "Restaurant", "pluralName": "Restaurants", "shortName": "Restaurant", "icon": {"prefix": "https://ss3.4sqi.net/img/categories_v2/food/default_", "suffix": ".png"}, "primary": true}], "photos": {"count": 0, "groups": []}}, "referralId": "e-0-4bd15651462cb7137f1ada07-12"}, {"reasons": {"count": 0, "items": [{"summary": "This spot is popular", "type": "general", "reasonName": "globalInteractionReason"}]}, "venue": {"id": "4b0bcf2af964a520cd3323e3", "name": "Hong Kong Street Family Restaurant", "location": {"address": "273 Thomson Road", "crossStreet": "Novena Gardens", "lat": 1.3206990933881666, "lng": 103.84250345617124, "labeledLatLngs": [{"label": "display", "lat": 1.3206990933881666, "lng": 103.84250345617124}], "distance": 154, "postalCode": "307644", "cc": "SG", "city": "Singapore", "country": "Singapore", "formattedAddress": ["273 Thomson Road (Novena Gardens)", "307644", "Singapore"]}, "categories": [{"id": "4bf58dd8d48988d145941735", "name": "Chinese Restaurant", "pluralName": "Chinese Restaurants", "shortName": "Chinese", "icon": {"prefix": "https://ss3.4sqi.net/img/categories_v2/food/asian_", "suffix": ".png"}, "primary": true}], "photos": {"count": 0, "groups": []}}, "referralId": "e-0-4b0bcf2af964a520cd3323e3-13"}, {"reasons": {"count": 0, "items": [{"summary": "This spot is popular", "type": "general", "reasonName": "globalInteractionReason"}]}, "venue": {"id": "4e0c216b227100f4dfded7be", "name": "SF Food & Beverage", "location": {"address": "#01-22 Velocity @ Novena Square", "crossStreet": "238 Thomson Rd", "lat": 1.3202166394376142, "lng": 103.84385168552399, "labeledLatLngs": [{"label": "display", "lat": 1.3202166394376142, "lng": 103.84385168552399}], "distance": 34, "postalCode": "307683", "cc": "SG", "city": "Singapore", "country": "Singapore", "formattedAddress": ["#01-22 Velocity @ Novena Square (238 Thomson Rd)", "307683", "Singapore"]}, "categories": [{"id": "4bf58dd8d48988d112941735", "name": "Juice Bar", "pluralName": "Juice Bars", "shortName": "Juice Bar", "icon": {"prefix": "https://ss3.4sqi.net/img/categories_v2/food/juicebar_", "suffix": ".png"}, "primary": true}], "photos": {"count": 0, "groups": []}}, "referralId": "e-0-4e0c216b227100f4dfded7be-14"}, {"reasons": {"count": 0, "items": [{"summary": "This spot is popular", "type": "general", "reasonName": "globalInteractionReason"}]}, "venue": {"id": "4ff11d33e4b05cede0d0fe4c", "name": "Starbucks", "location": {"address": "#01-14 Mount Elizabeth Novena Hospital", "crossStreet": "38 Irrawaddy Rd.", "lat": 1.3216945579236998, "lng": 103.8451616456468, "labeledLatLngs": [{"label": "display", "lat": 1.3216945579236998, "lng": 103.8451616456468}], "distance": 192, "postalCode": "329563", "cc": "SG", "neighborhood": "Novena", "city": "Singapore", "country": "Singapore", "formattedAddress": ["#01-14 Mount Elizabeth Novena Hospital (38 Irrawaddy Rd.)", "329563", "Singapore"]}, "categories": [{"id": "4bf58dd8d48988d1e0931735", "name": "Coffee Shop", "pluralName": "Coffee Shops", "shortName": "Coffee Shop", "icon": {"prefix": "https://ss3.4sqi.net/img/categories_v2/food/coffeeshop_", "suffix": ".png"}, "primary": true}], "photos": {"count": 0, "groups": []}}, "referralId": "e-0-4ff11d33e4b05cede0d0fe4c-15"}, {"reasons": {"count": 0, "items": [{"summary": "This spot is popular", "type": "general", "reasonName": "globalInteractionReason"}]}, "venue": {"id": "54e1bc88498e0c237b2a40bc", "name": "The Clue-less Goat", "location": {"address": "Goldhill Centre", "crossStreet": "189 Thomson Road", "lat": 1.318624, "lng": 103.843542, "labeledLatLngs": [{"label": "display", "lat": 1.318624, "lng": 103.843542}], "distance": 215, "postalCode": "307631", "cc": "SG", "city": "Singapore", "country": "Singapore", "formattedAddress": ["Goldhill Centre (189 Thomson Road)", "307631", "Singapore"]}, "categories": [{"id": "4bf58dd8d48988d16d941735", "name": "Caf\u00e9", "pluralName": "Caf\u00e9s", "shortName": "Caf\u00e9", "icon": {"prefix": "https://ss3.4sqi.net/img/categories_v2/food/cafe_", "suffix": ".png"}, "primary": true}], "photos": {"count": 0, "groups": []}}, "referralId": "e-0-54e1bc88498e0c237b2a40bc-16"}, {"reasons": {"count": 0, "items": [{"summary": "This spot is popular", "type": "general", "reasonName": "globalInteractionReason"}]}, "venue": {"id": "5847e8d946563a7aa211a27e", "name": "True Fitness", "location": {"address": "#03-45/46, Velocity@Novena Square", "crossStreet": "238 Thomson Rd", "lat": 1.3192285991142607, "lng": 103.84368453755198, "labeledLatLngs": [{"label": "display", "lat": 1.3192285991142607, "lng": 103.84368453755198}], "distance": 146, "postalCode": "307683", "cc": "SG", "city": "Singapore", "country": "Singapore", "formattedAddress": ["#03-45/46, Velocity@Novena Square (238 Thomson Rd)", "307683", "Singapore"]}, "categories": [{"id": "4bf58dd8d48988d176941735", "name": "Gym", "pluralName": "Gyms", "shortName": "Gym", "icon": {"prefix": "https://ss3.4sqi.net/img/categories_v2/building/gym_", "suffix": ".png"}, "primary": true}], "photos": {"count": 0, "groups": []}}, "referralId": "e-0-5847e8d946563a7aa211a27e-17"}, {"reasons": {"count": 0, "items": [{"summary": "This spot is popular", "type": "general", "reasonName": "globalInteractionReason"}]}, "venue": {"id": "5a7af18ce2d4aa5fbaf54294", "name": "\u6d77\u5e95\u635eHai Di Lao Hotpot", "location": {"address": "#06-01/02 Royal Square At Novena", "crossStreet": "103 Irrawaddy Road", "lat": 1.3204152220961956, "lng": 103.84313143919303, "labeledLatLngs": [{"label": "display", "lat": 1.3204152220961956, "lng": 103.84313143919303}], "distance": 84, "postalCode": "329565", "cc": "SG", "neighborhood": "Novena", "city": "Singapore", "country": "Singapore", "formattedAddress": ["#06-01/02 Royal Square At Novena (103 Irrawaddy Road)", "329565", "Singapore"]}, "categories": [{"id": "52af0bd33cf9994f4e043bdd", "name": "Hotpot Restaurant", "pluralName": "Hotpot Restaurants", "shortName": "Hotpot", "icon": {"prefix": "https://ss3.4sqi.net/img/categories_v2/food/asian_", "suffix": ".png"}, "primary": true}], "photos": {"count": 0, "groups": []}}, "referralId": "e-0-5a7af18ce2d4aa5fbaf54294-18"}, {"reasons": {"count": 0, "items": [{"summary": "This spot is popular", "type": "general", "reasonName": "globalInteractionReason"}]}, "venue": {"id": "4d987c8e9079b1f78e3f2c0a", "name": "Oasia Hotel Singapore", "location": {"address": "8 Sinaran Dr", "lat": 1.320261217502309, "lng": 103.84472638540623, "labeledLatLngs": [{"label": "display", "lat": 1.320261217502309, "lng": 103.84472638540623}], "distance": 98, "postalCode": "307470", "cc": "SG", "city": "Singapore", "country": "Singapore", "formattedAddress": ["8 Sinaran Dr", "307470", "Singapore"]}, "categories": [{"id": "4bf58dd8d48988d1fa931735", "name": "Hotel", "pluralName": "Hotels", "shortName": "Hotel", "icon": {"prefix": "https://ss3.4sqi.net/img/categories_v2/travel/hotel_", "suffix": ".png"}, "primary": true}], "photos": {"count": 0, "groups": []}}, "referralId": "e-0-4d987c8e9079b1f78e3f2c0a-19"}, {"reasons": {"count": 0, "items": [{"summary": "This spot is popular", "type": "general", "reasonName": "globalInteractionReason"}]}, "venue": {"id": "579dac11498ef4fbf0684d8b", "name": "A-Roy Thai Restaurant", "location": {"address": "238 Thomson Road #03-61/63 Novena Square", "crossStreet": "238 Thomson Road", "lat": 1.3193925658888797, "lng": 103.84353235223082, "labeledLatLngs": [{"label": "display", "lat": 1.3193925658888797, "lng": 103.84353235223082}], "distance": 131, "cc": "SG", "city": "Singapore", "country": "Singapore", "formattedAddress": ["238 Thomson Road #03-61/63 Novena Square (238 Thomson Road)", "Singapore"]}, "categories": [{"id": "4bf58dd8d48988d149941735", "name": "Thai Restaurant", "pluralName": "Thai Restaurants", "shortName": "Thai", "icon": {"prefix": "https://ss3.4sqi.net/img/categories_v2/food/thai_", "suffix": ".png"}, "primary": true}], "photos": {"count": 0, "groups": []}}, "referralId": "e-0-579dac11498ef4fbf0684d8b-20"}, {"reasons": {"count": 0, "items": [{"summary": "This spot is popular", "type": "general", "reasonName": "globalInteractionReason"}]}, "venue": {"id": "516cdbd0498e98432ae2ee2d", "name": "Barcook Bakery", "location": {"address": "10 Sinaran Drive, Square 2", "crossStreet": "#01-16/17/18", "lat": 1.3212669194877014, "lng": 103.84419473496541, "labeledLatLngs": [{"label": "display", "lat": 1.3212669194877014, "lng": 103.84419473496541}], "distance": 89, "postalCode": "307506", "cc": "SG", "city": "Singapore", "country": "Singapore", "formattedAddress": ["10 Sinaran Drive, Square 2 (#01-16/17/18)", "307506", "Singapore"]}, "categories": [{"id": "4bf58dd8d48988d16a941735", "name": "Bakery", "pluralName": "Bakeries", "shortName": "Bakery", "icon": {"prefix": "https://ss3.4sqi.net/img/categories_v2/food/bakery_", "suffix": ".png"}, "primary": true}], "photos": {"count": 0, "groups": []}}, "referralId": "e-0-516cdbd0498e98432ae2ee2d-21"}, {"reasons": {"count": 0, "items": [{"summary": "This spot is popular", "type": "general", "reasonName": "globalInteractionReason"}]}, "venue": {"id": "4cd78732fb595481ecffe950", "name": "Hokkaido Fish Market", "location": {"address": "#04-74, Novena Square 2", "lat": 1.320667, "lng": 103.844305, "labeledLatLngs": [{"label": "display", "lat": 1.320667, "lng": 103.844305}], "distance": 49, "cc": "SG", "country": "Singapore", "formattedAddress": ["#04-74, Novena Square 2", "Singapore"]}, "categories": [{"id": "4bf58dd8d48988d111941735", "name": "Japanese Restaurant", "pluralName": "Japanese Restaurants", "shortName": "Japanese", "icon": {"prefix": "https://ss3.4sqi.net/img/categories_v2/food/japanese_", "suffix": ".png"}, "primary": true}], "photos": {"count": 0, "groups": []}}, "referralId": "e-0-4cd78732fb595481ecffe950-22"}, {"reasons": {"count": 0, "items": [{"summary": "This spot is popular", "type": "general", "reasonName": "globalInteractionReason"}]}, "venue": {"id": "5254cbcd11d2394548cb49b4", "name": "Caveman Food", "location": {"address": "#B1-130 Square 2", "crossStreet": "10 Sinaran Dr", "lat": 1.3210620632342724, "lng": 103.8446761775709, "labeledLatLngs": [{"label": "display", "lat": 1.3210620632342724, "lng": 103.8446761775709}], "distance": 106, "postalCode": "307506", "cc": "SG", "city": "Sungapore", "country": "Singapore", "formattedAddress": ["#B1-130 Square 2 (10 Sinaran Dr)", "307506", "Singapore"]}, "categories": [{"id": "56aa371be4b08b9a8d57350b", "name": "Food Stand", "pluralName": "Food Stands", "shortName": "Food Stand", "icon": {"prefix": "https://ss3.4sqi.net/img/categories_v2/travel/movingtarget_", "suffix": ".png"}, "primary": true}], "photos": {"count": 0, "groups": []}}, "referralId": "e-0-5254cbcd11d2394548cb49b4-23"}, {"reasons": {"count": 0, "items": [{"summary": "This spot is popular", "type": "general", "reasonName": "globalInteractionReason"}]}, "venue": {"id": "4c27337f5c5ca593e66747fe", "name": "Ling Zhi | \u7075\u829d", "location": {"address": "#03-09/10, Velocity", "crossStreet": "238 Thomson Rd", "lat": 1.3199133229979796, "lng": 103.8433431571341, "labeledLatLngs": [{"label": "display", "lat": 1.3199133229979796, "lng": 103.8433431571341}], "distance": 90, "postalCode": "307683", "cc": "SG", "city": "Singapore", "country": "Singapore", "formattedAddress": ["#03-09/10, Velocity (238 Thomson Rd)", "307683", "Singapore"]}, "categories": [{"id": "4bf58dd8d48988d1d3941735", "name": "Vegetarian / Vegan Restaurant", "pluralName": "Vegetarian / Vegan Restaurants", "shortName": "Vegetarian / Vegan", "icon": {"prefix": "https://ss3.4sqi.net/img/categories_v2/food/vegetarian_", "suffix": ".png"}, "primary": true}], "photos": {"count": 0, "groups": []}}, "referralId": "e-0-4c27337f5c5ca593e66747fe-24"}, {"reasons": {"count": 0, "items": [{"summary": "This spot is popular", "type": "general", "reasonName": "globalInteractionReason"}]}, "venue": {"id": "4f30af41e4b057434bba1cb0", "name": "Curry Times", "location": {"address": "#02-33/34, Novena Square", "crossStreet": "238A Thomson Rd", "lat": 1.3201360327657405, "lng": 103.8445350593381, "labeledLatLngs": [{"label": "display", "lat": 1.3201360327657405, "lng": 103.8445350593381}], "distance": 84, "postalCode": "307684", "cc": "SG", "city": "Singapore", "country": "Singapore", "formattedAddress": ["#02-33/34, Novena Square (238A Thomson Rd)", "307684", "Singapore"]}, "categories": [{"id": "4bf58dd8d48988d142941735", "name": "Asian Restaurant", "pluralName": "Asian Restaurants", "shortName": "Asian", "icon": {"prefix": "https://ss3.4sqi.net/img/categories_v2/food/asian_", "suffix": ".png"}, "primary": true}], "photos": {"count": 0, "groups": []}}, "referralId": "e-0-4f30af41e4b057434bba1cb0-25"}, {"reasons": {"count": 0, "items": [{"summary": "This spot is popular", "type": "general", "reasonName": "globalInteractionReason"}]}, "venue": {"id": "5a5b63aeda5e5645313aef76", "name": "Urbana Rooftop Bar", "location": {"address": "99 Irrawaddy Road", "crossStreet": "33rd Floor", "lat": 1.3206679206356537, "lng": 103.84334980655888, "labeledLatLngs": [{"label": "display", "lat": 1.3206679206356537, "lng": 103.84334980655888}], "distance": 61, "postalCode": "329568", "cc": "SG", "city": "Novena", "state": "North East Community Development Region", "country": "Singapore", "formattedAddress": ["99 Irrawaddy Road (33rd Floor)", "329568", "Singapore"]}, "categories": [{"id": "4bf58dd8d48988d116941735", "name": "Bar", "pluralName": "Bars", "shortName": "Bar", "icon": {"prefix": "https://ss3.4sqi.net/img/categories_v2/nightlife/pub_", "suffix": ".png"}, "primary": true}], "photos": {"count": 0, "groups": []}}, "referralId": "e-0-5a5b63aeda5e5645313aef76-26"}, {"reasons": {"count": 0, "items": [{"summary": "This spot is popular", "type": "general", "reasonName": "globalInteractionReason"}]}, "venue": {"id": "5881fe5e0802cb5c609aa9c5", "name": "Kajiken", "location": {"address": "Square 2 #02-03", "lat": 1.3211630035083475, "lng": 103.84396522454088, "labeledLatLngs": [{"label": "display", "lat": 1.3211630035083475, "lng": 103.84396522454088}], "distance": 71, "cc": "SG", "neighborhood": "Novena", "country": "Singapore", "formattedAddress": ["Square 2 #02-03", "Singapore"]}, "categories": [{"id": "55a59bace4b013909087cb24", "name": "Ramen Restaurant", "pluralName": "Ramen Restaurants", "shortName": "Ramen", "icon": {"prefix": "https://ss3.4sqi.net/img/categories_v2/food/ramen_", "suffix": ".png"}, "primary": true}], "photos": {"count": 0, "groups": []}}, "referralId": "e-0-5881fe5e0802cb5c609aa9c5-27"}, {"reasons": {"count": 0, "items": [{"summary": "This spot is popular", "type": "general", "reasonName": "globalInteractionReason"}]}, "venue": {"id": "4b723a13f964a520b7742de3", "name": "Brauhaus Restaurant & Pub", "location": {"address": "#B1-13/14, United Square", "crossStreet": "101 Thomson Rd.", "lat": 1.3172041613115102, "lng": 103.84424602943048, "labeledLatLngs": [{"label": "display", "lat": 1.3172041613115102, "lng": 103.84424602943048}], "distance": 371, "postalCode": "307591", "cc": "SG", "city": "Singapore", "country": "Singapore", "formattedAddress": ["#B1-13/14, United Square (101 Thomson Rd.)", "307591", "Singapore"]}, "categories": [{"id": "4bf58dd8d48988d10d941735", "name": "German Restaurant", "pluralName": "German Restaurants", "shortName": "German", "icon": {"prefix": "https://ss3.4sqi.net/img/categories_v2/food/german_", "suffix": ".png"}, "primary": true}], "photos": {"count": 0, "groups": []}}, "referralId": "e-0-4b723a13f964a520b7742de3-28"}, {"reasons": {"count": 0, "items": [{"summary": "This spot is popular", "type": "general", "reasonName": "globalInteractionReason"}]}, "venue": {"id": "5b44325b2463d80044c676af", "name": "Workspace Espresso Bar", "location": {"address": "#01-72/73, Novena Square", "crossStreet": "238 Thomson Rd", "lat": 1.3196931201435624, "lng": 103.84338234087497, "labeledLatLngs": [{"label": "display", "lat": 1.3196931201435624, "lng": 103.84338234087497}], "distance": 108, "postalCode": "307683", "cc": "SG", "city": "Novena", "state": "North East Community Development Region", "country": "Singapore", "formattedAddress": ["#01-72/73, Novena Square (238 Thomson Rd)", "307683", "Singapore"]}, "categories": [{"id": "4bf58dd8d48988d16d941735", "name": "Caf\u00e9", "pluralName": "Caf\u00e9s", "shortName": "Caf\u00e9", "icon": {"prefix": "https://ss3.4sqi.net/img/categories_v2/food/cafe_", "suffix": ".png"}, "primary": true}], "photos": {"count": 0, "groups": []}}, "referralId": "e-0-5b44325b2463d80044c676af-29"}, {"reasons": {"count": 0, "items": [{"summary": "This spot is popular", "type": "general", "reasonName": "globalInteractionReason"}]}, "venue": {"id": "50b836a1e4b09a85611284a1", "name": "Once Upon A Thyme", "location": {"address": "#B1-124 Square 2", "crossStreet": "10 Sinaran Dr.", "lat": 1.3208209891612548, "lng": 103.84452568335907, "labeledLatLngs": [{"label": "display", "lat": 1.3208209891612548, "lng": 103.84452568335907}], "distance": 78, "cc": "SG", "city": "Singapore", "country": "Singapore", "formattedAddress": ["#B1-124 Square 2 (10 Sinaran Dr.)", "Singapore"]}, "categories": [{"id": "4bf58dd8d48988d110941735", "name": "Italian Restaurant", "pluralName": "Italian Restaurants", "shortName": "Italian", "icon": {"prefix": "https://ss3.4sqi.net/img/categories_v2/food/italian_", "suffix": ".png"}, "primary": true}], "photos": {"count": 0, "groups": []}}, "referralId": "e-0-50b836a1e4b09a85611284a1-30"}, {"reasons": {"count": 0, "items": [{"summary": "This spot is popular", "type": "general", "reasonName": "globalInteractionReason"}]}, "venue": {"id": "51c8023c498e4acce28a1227", "name": "The Coffee Bean & Tea Leaf", "location": {"address": "Tan Tock Seng Hospital L1", "lat": 1.3215976837027061, "lng": 103.84609412894656, "labeledLatLngs": [{"label": "display", "lat": 1.3215976837027061, "lng": 103.84609412894656}], "distance": 273, "cc": "SG", "country": "Singapore", "formattedAddress": ["Tan Tock Seng Hospital L1", "Singapore"]}, "categories": [{"id": "4bf58dd8d48988d1e0931735", "name": "Coffee Shop", "pluralName": "Coffee Shops", "shortName": "Coffee Shop", "icon": {"prefix": "https://ss3.4sqi.net/img/categories_v2/food/coffeeshop_", "suffix": ".png"}, "primary": true}], "photos": {"count": 0, "groups": []}}, "referralId": "e-0-51c8023c498e4acce28a1227-31"}, {"reasons": {"count": 0, "items": [{"summary": "This spot is popular", "type": "general", "reasonName": "globalInteractionReason"}]}, "venue": {"id": "4cb1a274db32f04d73bdc94d", "name": "Da Luca Italian Restaurant", "location": {"address": "#01-19/21, Goldhill Plaza", "crossStreet": "1 Goldhill Plaza", "lat": 1.3183205331461998, "lng": 103.8422662569608, "labeledLatLngs": [{"label": "display", "lat": 1.3183205331461998, "lng": 103.8422662569608}], "distance": 304, "cc": "SG", "city": "Singapore", "country": "Singapore", "formattedAddress": ["#01-19/21, Goldhill Plaza (1 Goldhill Plaza)", "Singapore"]}, "categories": [{"id": "4bf58dd8d48988d110941735", "name": "Italian Restaurant", "pluralName": "Italian Restaurants", "shortName": "Italian", "icon": {"prefix": "https://ss3.4sqi.net/img/categories_v2/food/italian_", "suffix": ".png"}, "primary": true}], "photos": {"count": 0, "groups": []}}, "referralId": "e-0-4cb1a274db32f04d73bdc94d-32"}, {"reasons": {"count": 0, "items": [{"summary": "This spot is popular", "type": "general", "reasonName": "globalInteractionReason"}]}, "venue": {"id": "56a487ec498e2d6b34497d59", "name": "Jollibee", "location": {"address": "#01-07, Square 2", "crossStreet": "10 Sinaran Drive", "lat": 1.3212431681463168, "lng": 103.84394359100344, "labeledLatLngs": [{"label": "display", "lat": 1.3212431681463168, "lng": 103.84394359100344}], "distance": 80, "postalCode": "307506", "cc": "SG", "city": "Singapore", "country": "Singapore", "formattedAddress": ["#01-07, Square 2 (10 Sinaran Drive)", "307506", "Singapore"]}, "categories": [{"id": "4bf58dd8d48988d16e941735", "name": "Fast Food Restaurant", "pluralName": "Fast Food Restaurants", "shortName": "Fast Food", "icon": {"prefix": "https://ss3.4sqi.net/img/categories_v2/food/fastfood_", "suffix": ".png"}, "primary": true}], "photos": {"count": 0, "groups": []}}, "referralId": "e-0-56a487ec498e2d6b34497d59-33"}, {"reasons": {"count": 0, "items": [{"summary": "This spot is popular", "type": "general", "reasonName": "globalInteractionReason"}]}, "venue": {"id": "538735f2498eec2ff9f489b7", "name": "Ichiban Boshi", "location": {"address": "#02-02/05, United Square", "crossStreet": "101 Thomson Road", "lat": 1.317506138230302, "lng": 103.84383638730563, "labeledLatLngs": [{"label": "display", "lat": 1.317506138230302, "lng": 103.84383638730563}], "distance": 336, "postalCode": "307591", "cc": "SG", "city": "Singapore", "country": "Singapore", "formattedAddress": ["#02-02/05, United Square (101 Thomson Road)", "307591", "Singapore"]}, "categories": [{"id": "4bf58dd8d48988d1d2941735", "name": "Sushi Restaurant", "pluralName": "Sushi Restaurants", "shortName": "Sushi", "icon": {"prefix": "https://ss3.4sqi.net/img/categories_v2/food/sushi_", "suffix": ".png"}, "primary": true}], "photos": {"count": 0, "groups": []}}, "referralId": "e-0-538735f2498eec2ff9f489b7-34"}, {"reasons": {"count": 0, "items": [{"summary": "This spot is popular", "type": "general", "reasonName": "globalInteractionReason"}]}, "venue": {"id": "4f263d6ae4b0085e4bc50946", "name": "Club Lounge, Oasia Hotel Singapore", "location": {"address": "22nd Floor", "crossStreet": "8 Sinaran Drive", "lat": 1.3199929893398932, "lng": 103.84465192768081, "labeledLatLngs": [{"label": "display", "lat": 1.3199929893398932, "lng": 103.84465192768081}], "distance": 104, "cc": "SG", "city": "Singapore", "country": "Singapore", "formattedAddress": ["22nd Floor (8 Sinaran Drive)", "Singapore"]}, "categories": [{"id": "4bf58dd8d48988d1fa931735", "name": "Hotel", "pluralName": "Hotels", "shortName": "Hotel", "icon": {"prefix": "https://ss3.4sqi.net/img/categories_v2/travel/hotel_", "suffix": ".png"}, "primary": true}], "photos": {"count": 0, "groups": []}}, "referralId": "e-0-4f263d6ae4b0085e4bc50946-35"}, {"reasons": {"count": 0, "items": [{"summary": "This spot is popular", "type": "general", "reasonName": "globalInteractionReason"}]}, "venue": {"id": "557bc889498ee9539a9e86ee", "name": "The Marmalade Pantry", "location": {"address": "#01-02/04, Oasia Hotel", "crossStreet": "8 Sinaran Drive", "lat": 1.3202407729105006, "lng": 103.8446295261383, "labeledLatLngs": [{"label": "display", "lat": 1.3202407729105006, "lng": 103.8446295261383}], "distance": 89, "postalCode": "307470", "cc": "SG", "city": "Singapore", "country": "Singapore", "formattedAddress": ["#01-02/04, Oasia Hotel (8 Sinaran Drive)", "307470", "Singapore"]}, "categories": [{"id": "52e81612bcbc57f1066b79f1", "name": "Bistro", "pluralName": "Bistros", "shortName": "Bistro", "icon": {"prefix": "https://ss3.4sqi.net/img/categories_v2/food/default_", "suffix": ".png"}, "primary": true}], "photos": {"count": 0, "groups": []}}, "referralId": "e-0-557bc889498ee9539a9e86ee-36"}, {"reasons": {"count": 0, "items": [{"summary": "This spot is popular", "type": "general", "reasonName": "globalInteractionReason"}]}, "venue": {"id": "4b505e22f964a5207f2127e3", "name": "Nonya Peranakan Cuisine", "location": {"address": "Novena Gardens", "crossStreet": "273 Thomson Road", "lat": 1.3205035596001473, "lng": 103.84195268154144, "labeledLatLngs": [{"label": "display", "lat": 1.3205035596001473, "lng": 103.84195268154144}], "distance": 214, "cc": "SG", "city": "Singapore", "country": "Singapore", "formattedAddress": ["Novena Gardens (273 Thomson Road)", "Singapore"]}, "categories": [{"id": "4bf58dd8d48988d142941735", "name": "Asian Restaurant", "pluralName": "Asian Restaurants", "shortName": "Asian", "icon": {"prefix": "https://ss3.4sqi.net/img/categories_v2/food/asian_", "suffix": ".png"}, "primary": true}], "photos": {"count": 0, "groups": []}}, "referralId": "e-0-4b505e22f964a5207f2127e3-37"}, {"reasons": {"count": 0, "items": [{"summary": "This spot is popular", "type": "general", "reasonName": "globalInteractionReason"}]}, "venue": {"id": "500f7f14e4b07a68c3ba9b17", "name": "Tonkotsu Kazan Ramen", "location": {"address": "Novena Square 2, #02-68/69", "lat": 1.321175330783019, "lng": 103.84426220490023, "labeledLatLngs": [{"label": "display", "lat": 1.321175330783019, "lng": 103.84426220490023}], "distance": 83, "cc": "SG", "city": "Singapore", "country": "Singapore", "formattedAddress": ["Novena Square 2, #02-68/69", "Singapore"]}, "categories": [{"id": "55a59bace4b013909087cb24", "name": "Ramen Restaurant", "pluralName": "Ramen Restaurants", "shortName": "Ramen", "icon": {"prefix": "https://ss3.4sqi.net/img/categories_v2/food/ramen_", "suffix": ".png"}, "primary": true}], "photos": {"count": 0, "groups": []}}, "referralId": "e-0-500f7f14e4b07a68c3ba9b17-38"}, {"reasons": {"count": 0, "items": [{"summary": "This spot is popular", "type": "general", "reasonName": "globalInteractionReason"}]}, "venue": {"id": "540c77e5498e77fa825ec425", "name": "Nickeldime Drafthouse", "location": {"address": "#01-01, Novena Regency", "crossStreet": "297 Thomson Rd", "lat": 1.321230245097269, "lng": 103.84152352809906, "labeledLatLngs": [{"label": "display", "lat": 1.321230245097269, "lng": 103.84152352809906}], "distance": 273, "postalCode": "307646", "cc": "SG", "city": "Singapore", "country": "Singapore", "formattedAddress": ["#01-01, Novena Regency (297 Thomson Rd)", "307646", "Singapore"]}, "categories": [{"id": "4bf58dd8d48988d155941735", "name": "Gastropub", "pluralName": "Gastropubs", "shortName": "Gastropub", "icon": {"prefix": "https://ss3.4sqi.net/img/categories_v2/food/gastropub_", "suffix": ".png"}, "primary": true}], "photos": {"count": 0, "groups": []}}, "referralId": "e-0-540c77e5498e77fa825ec425-39"}, {"reasons": {"count": 0, "items": [{"summary": "This spot is popular", "type": "general", "reasonName": "globalInteractionReason"}]}, "venue": {"id": "5880a467d0bb3e523bd2806c", "name": "Tuk Tuk Cha Thai Tea & Coffee", "location": {"address": "Velocity@Novena", "lat": 1.3195417194142918, "lng": 103.84346000072715, "labeledLatLngs": [{"label": "display", "lat": 1.3195417194142918, "lng": 103.84346000072715}], "distance": 119, "cc": "SG", "country": "Singapore", "formattedAddress": ["Velocity@Novena", "Singapore"]}, "categories": [{"id": "4bf58dd8d48988d16d941735", "name": "Caf\u00e9", "pluralName": "Caf\u00e9s", "shortName": "Caf\u00e9", "icon": {"prefix": "https://ss3.4sqi.net/img/categories_v2/food/cafe_", "suffix": ".png"}, "primary": true}], "photos": {"count": 0, "groups": []}}, "referralId": "e-0-5880a467d0bb3e523bd2806c-40"}, {"reasons": {"count": 0, "items": [{"summary": "This spot is popular", "type": "general", "reasonName": "globalInteractionReason"}]}, "venue": {"id": "4bd79fc488559521080f88a7", "name": "New Balance", "location": {"address": "Velocity #01-39/41", "lat": 1.3191494346512367, "lng": 103.84336872833966, "labeledLatLngs": [{"label": "display", "lat": 1.3191494346512367, "lng": 103.84336872833966}], "distance": 163, "cc": "SG", "neighborhood": "Novena", "city": "Singapore", "country": "Singapore", "formattedAddress": ["Velocity #01-39/41", "Singapore"]}, "categories": [{"id": "4bf58dd8d48988d1f2941735", "name": "Sporting Goods Shop", "pluralName": "Sporting Goods Shops", "shortName": "Sporting Goods", "icon": {"prefix": "https://ss3.4sqi.net/img/categories_v2/shops/sports_outdoors_", "suffix": ".png"}, "primary": true}], "photos": {"count": 0, "groups": []}}, "referralId": "e-0-4bd79fc488559521080f88a7-41"}, {"reasons": {"count": 0, "items": [{"summary": "This spot is popular", "type": "general", "reasonName": "globalInteractionReason"}]}, "venue": {"id": "4b711fe9f964a520813a2de3", "name": "Nara Japanese Restaurant", "location": {"address": "Goldhill Centre", "crossStreet": "167 Thomson Rd.", "lat": 1.3179151456854772, "lng": 103.84355230732412, "labeledLatLngs": [{"label": "display", "lat": 1.3179151456854772, "lng": 103.84355230732412}], "distance": 292, "postalCode": "307619", "cc": "SG", "city": "Singapore", "country": "Singapore", "formattedAddress": ["Goldhill Centre (167 Thomson Rd.)", "307619", "Singapore"]}, "categories": [{"id": "4bf58dd8d48988d111941735", "name": "Japanese Restaurant", "pluralName": "Japanese Restaurants", "shortName": "Japanese", "icon": {"prefix": "https://ss3.4sqi.net/img/categories_v2/food/japanese_", "suffix": ".png"}, "primary": true}], "photos": {"count": 0, "groups": []}}, "referralId": "e-0-4b711fe9f964a520813a2de3-42"}, {"reasons": {"count": 0, "items": [{"summary": "This spot is popular", "type": "general", "reasonName": "globalInteractionReason"}]}, "venue": {"id": "4cf0adff899c6ea83d3fecc1", "name": "Chye Kee Goldhill Roasted Chicken Rice", "location": {"address": "151 Thomson Road", "crossStreet": "Goldhill Centre", "lat": 1.318204, "lng": 103.843848, "labeledLatLngs": [{"label": "display", "lat": 1.318204, "lng": 103.843848}], "distance": 258, "cc": "SG", "city": "Singapore", "country": "Singapore", "formattedAddress": ["151 Thomson Road (Goldhill Centre)", "Singapore"]}, "categories": [{"id": "4bf58dd8d48988d142941735", "name": "Asian Restaurant", "pluralName": "Asian Restaurants", "shortName": "Asian", "icon": {"prefix": "https://ss3.4sqi.net/img/categories_v2/food/asian_", "suffix": ".png"}, "primary": true}], "photos": {"count": 0, "groups": []}}, "referralId": "e-0-4cf0adff899c6ea83d3fecc1-43"}, {"reasons": {"count": 0, "items": [{"summary": "This spot is popular", "type": "general", "reasonName": "globalInteractionReason"}]}, "venue": {"id": "4b3c86eff964a520e48425e3", "name": "Soup Restaurant \u4e09\u76c5\u5169\u4ef6", "location": {"address": "#B1-10, United Square", "crossStreet": "101 Thomson Road", "lat": 1.3173006724062426, "lng": 103.84423720958344, "labeledLatLngs": [{"label": "display", "lat": 1.3173006724062426, "lng": 103.84423720958344}], "distance": 361, "postalCode": "3075391", "cc": "SG", "city": "Singapore", "country": "Singapore", "formattedAddress": ["#B1-10, United Square (101 Thomson Road)", "3075391", "Singapore"]}, "categories": [{"id": "4bf58dd8d48988d145941735", "name": "Chinese Restaurant", "pluralName": "Chinese Restaurants", "shortName": "Chinese", "icon": {"prefix": "https://ss3.4sqi.net/img/categories_v2/food/asian_", "suffix": ".png"}, "primary": true}], "photos": {"count": 0, "groups": []}}, "referralId": "e-0-4b3c86eff964a520e48425e3-44"}, {"reasons": {"count": 0, "items": [{"summary": "This spot is popular", "type": "general", "reasonName": "globalInteractionReason"}]}, "venue": {"id": "4b0dc9c6f964a520255023e3", "name": "Novena MRT Station (NS20)", "location": {"address": "250 Thomson Rd.", "lat": 1.3200863125684148, "lng": 103.84359175195553, "labeledLatLngs": [{"label": "display", "lat": 1.3200863125684148, "lng": 103.84359175195553}], "distance": 58, "postalCode": "307642", "cc": "SG", "city": "Singapore", "country": "Singapore", "formattedAddress": ["250 Thomson Rd.", "307642", "Singapore"]}, "categories": [{"id": "4bf58dd8d48988d1fd931735", "name": "Metro Station", "pluralName": "Metro Stations", "shortName": "Metro", "icon": {"prefix": "https://ss3.4sqi.net/img/categories_v2/travel/subway_", "suffix": ".png"}, "primary": true}], "photos": {"count": 0, "groups": []}}, "referralId": "e-0-4b0dc9c6f964a520255023e3-45"}, {"reasons": {"count": 0, "items": [{"summary": "This spot is popular", "type": "general", "reasonName": "globalInteractionReason"}]}, "venue": {"id": "4d32640e72a8b1f790149ed0", "name": "Cedele by Bakery Depot", "location": {"address": "#01-01/02, Novena Square", "crossStreet": "Thomson Road", "lat": 1.3198868477406487, "lng": 103.843373990526, "labeledLatLngs": [{"label": "display", "lat": 1.3198868477406487, "lng": 103.843373990526}], "distance": 90, "postalCode": "307683", "cc": "SG", "city": "Singapore", "country": "Singapore", "formattedAddress": ["#01-01/02, Novena Square (Thomson Road)", "307683", "Singapore"]}, "categories": [{"id": "4bf58dd8d48988d16d941735", "name": "Caf\u00e9", "pluralName": "Caf\u00e9s", "shortName": "Caf\u00e9", "icon": {"prefix": "https://ss3.4sqi.net/img/categories_v2/food/cafe_", "suffix": ".png"}, "primary": true}], "photos": {"count": 0, "groups": []}}, "referralId": "e-0-4d32640e72a8b1f790149ed0-46"}, {"reasons": {"count": 0, "items": [{"summary": "This spot is popular", "type": "general", "reasonName": "globalInteractionReason"}]}, "venue": {"id": "4b9da4c0f964a520dbb736e3", "name": "Matsuo Sushi Restaurant", "location": {"address": "1 Goldhill Plaza #01-17", "lat": 1.3183316, "lng": 103.842636, "labeledLatLngs": [{"label": "display", "lat": 1.3183316, "lng": 103.842636}], "distance": 280, "postalCode": "308899", "cc": "SG", "city": "Novena", "state": "North East Community Development Region", "country": "Singapore", "formattedAddress": ["1 Goldhill Plaza #01-17", "308899", "Singapore"]}, "categories": [{"id": "4bf58dd8d48988d111941735", "name": "Japanese Restaurant", "pluralName": "Japanese Restaurants", "shortName": "Japanese", "icon": {"prefix": "https://ss3.4sqi.net/img/categories_v2/food/japanese_", "suffix": ".png"}, "primary": true}], "photos": {"count": 0, "groups": []}}, "referralId": "e-0-4b9da4c0f964a520dbb736e3-47"}, {"reasons": {"count": 0, "items": [{"summary": "This spot is popular", "type": "general", "reasonName": "globalInteractionReason"}]}, "venue": {"id": "4bc69344bf29c9b6eb20fa2a", "name": "Ya Kun Kaya Toast \u4e9e\u5764", "location": {"address": "#B1-38, United Square", "crossStreet": "101 Thomson Road", "lat": 1.317354594975209, "lng": 103.8442284768033, "labeledLatLngs": [{"label": "display", "lat": 1.317354594975209, "lng": 103.8442284768033}], "distance": 355, "postalCode": "307591", "cc": "SG", "city": "Singapore", "country": "Singapore", "formattedAddress": ["#B1-38, United Square (101 Thomson Road)", "307591", "Singapore"]}, "categories": [{"id": "4bf58dd8d48988d1e0931735", "name": "Coffee Shop", "pluralName": "Coffee Shops", "shortName": "Coffee Shop", "icon": {"prefix": "https://ss3.4sqi.net/img/categories_v2/food/coffeeshop_", "suffix": ".png"}, "primary": true}], "photos": {"count": 0, "groups": []}}, "referralId": "e-0-4bc69344bf29c9b6eb20fa2a-48"}, {"reasons": {"count": 0, "items": [{"summary": "This spot is popular", "type": "general", "reasonName": "globalInteractionReason"}]}, "venue": {"id": "4b7f5566f964a520272830e3", "name": "Cold Storage", "location": {"address": "#B1-52, United Square", "crossStreet": "101 Thomson Rd", "lat": 1.317011767424131, "lng": 103.84388234096063, "labeledLatLngs": [{"label": "display", "lat": 1.317011767424131, "lng": 103.84388234096063}], "distance": 391, "postalCode": "307591", "cc": "SG", "city": "Singapore", "country": "Singapore", "formattedAddress": ["#B1-52, United Square (101 Thomson Rd)", "307591", "Singapore"]}, "categories": [{"id": "52f2ab2ebcbc57f1066b8b46", "name": "Supermarket", "pluralName": "Supermarkets", "shortName": "Supermarket", "icon": {"prefix": "https://ss3.4sqi.net/img/categories_v2/shops/food_grocery_", "suffix": ".png"}, "primary": true}], "photos": {"count": 0, "groups": []}}, "referralId": "e-0-4b7f5566f964a520272830e3-49"}, {"reasons": {"count": 0, "items": [{"summary": "This spot is popular", "type": "general", "reasonName": "globalInteractionReason"}]}, "venue": {"id": "5c4aea6458002c002cfe32fb", "name": "Duckland", "location": {"address": "United Square Shopping Mall", "crossStreet": "101 Thomson Road, #B1-09 & 64/65", "lat": 1.3171835, "lng": 103.8439, "labeledLatLngs": [{"label": "display", "lat": 1.3171835, "lng": 103.8439}], "distance": 372, "postalCode": "307591", "cc": "SG", "neighborhood": "Novena", "city": "Singapore", "country": "Singapore", "formattedAddress": ["United Square Shopping Mall (101 Thomson Road, #B1-09 & 64/65)", "307591", "Singapore"]}, "categories": [{"id": "4bf58dd8d48988d145941735", "name": "Chinese Restaurant", "pluralName": "Chinese Restaurants", "shortName": "Chinese", "icon": {"prefix": "https://ss3.4sqi.net/img/categories_v2/food/asian_", "suffix": ".png"}, "primary": true}], "photos": {"count": 0, "groups": []}}, "referralId": "e-0-5c4aea6458002c002cfe32fb-50"}, {"reasons": {"count": 0, "items": [{"summary": "This spot is popular", "type": "general", "reasonName": "globalInteractionReason"}]}, "venue": {"id": "5bb1f37cc66666002c76579c", "name": "Wine Connection Bistro", "location": {"address": "United Square Mall #01-14/15/16", "crossStreet": "101 Thomson Rd", "lat": 1.316804, "lng": 103.844, "labeledLatLngs": [{"label": "display", "lat": 1.316804, "lng": 103.844}], "distance": 414, "postalCode": "307591", "cc": "SG", "neighborhood": "Novena", "city": "Singapore", "country": "Singapore", "formattedAddress": ["United Square Mall #01-14/15/16 (101 Thomson Rd)", "307591", "Singapore"]}, "categories": [{"id": "4bf58dd8d48988d1c4941735", "name": "Restaurant", "pluralName": "Restaurants", "shortName": "Restaurant", "icon": {"prefix": "https://ss3.4sqi.net/img/categories_v2/food/default_", "suffix": ".png"}, "primary": true}], "photos": {"count": 0, "groups": []}}, "referralId": "e-0-5bb1f37cc66666002c76579c-51"}, {"reasons": {"count": 0, "items": [{"summary": "This spot is popular", "type": "general", "reasonName": "globalInteractionReason"}]}, "venue": {"id": "4da2c4f022a5f04d4d711655", "name": "Subway", "location": {"address": "Tan Tock Seng Hospital", "crossStreet": "Jalan Tan Tock Seng", "lat": 1.321511572432217, "lng": 103.8460108075912, "labeledLatLngs": [{"label": "display", "lat": 1.321511572432217, "lng": 103.8460108075912}], "distance": 261, "cc": "SG", "city": "Singapore", "country": "Singapore", "formattedAddress": ["Tan Tock Seng Hospital (Jalan Tan Tock Seng)", "Singapore"]}, "categories": [{"id": "4bf58dd8d48988d1c5941735", "name": "Sandwich Place", "pluralName": "Sandwich Places", "shortName": "Sandwiches", "icon": {"prefix": "https://ss3.4sqi.net/img/categories_v2/food/deli_", "suffix": ".png"}, "primary": true}], "photos": {"count": 0, "groups": []}}, "referralId": "e-0-4da2c4f022a5f04d4d711655-52"}, {"reasons": {"count": 0, "items": [{"summary": "This spot is popular", "type": "general", "reasonName": "globalInteractionReason"}]}, "venue": {"id": "4c282fb3ed0ac9b65cf05faa", "name": "Tan Tock Seng Hospital Pharmacy", "location": {"address": "Tan Tock Seng Hospital", "lat": 1.3205874824029324, "lng": 103.84486640117701, "labeledLatLngs": [{"label": "display", "lat": 1.3205874824029324, "lng": 103.84486640117701}], "distance": 109, "cc": "SG", "city": "Singapore", "country": "Singapore", "formattedAddress": ["Tan Tock Seng Hospital", "Singapore"]}, "categories": [{"id": "4bf58dd8d48988d10f951735", "name": "Pharmacy", "pluralName": "Pharmacies", "shortName": "Pharmacy", "icon": {"prefix": "https://ss3.4sqi.net/img/categories_v2/shops/pharmacy_", "suffix": ".png"}, "primary": true}], "photos": {"count": 0, "groups": []}}, "referralId": "e-0-4c282fb3ed0ac9b65cf05faa-53"}, {"reasons": {"count": 0, "items": [{"summary": "This spot is popular", "type": "general", "reasonName": "globalInteractionReason"}]}, "venue": {"id": "4f0432130e0149a030e6b56f", "name": "The Forest by Wangz", "location": {"address": "145 A Moulmein Road", "lat": 1.3186649098924657, "lng": 103.84766228863818, "labeledLatLngs": [{"label": "display", "lat": 1.3186649098924657, "lng": 103.84766228863818}], "distance": 469, "cc": "SG", "city": "Singapore", "country": "Singapore", "formattedAddress": ["145 A Moulmein Road", "Singapore"]}, "categories": [{"id": "4bf58dd8d48988d1fa931735", "name": "Hotel", "pluralName": "Hotels", "shortName": "Hotel", "icon": {"prefix": "https://ss3.4sqi.net/img/categories_v2/travel/hotel_", "suffix": ".png"}, "primary": true}], "photos": {"count": 0, "groups": []}}, "referralId": "e-0-4f0432130e0149a030e6b56f-54"}, {"reasons": {"count": 0, "items": [{"summary": "This spot is popular", "type": "general", "reasonName": "globalInteractionReason"}]}, "venue": {"id": "51e51da0498eb971191e7420", "name": "Wee Nam Kee \u5a01\u5357\u8bb0\u6d77\u5357\u9e21\u996d\u9910\u5ba4 (Wee Nam Kee)", "location": {"address": "#01-08/11 & 39, United Square", "crossStreet": "101 Thomson Road", "lat": 1.3171111335276484, "lng": 103.84399000558166, "labeledLatLngs": [{"label": "display", "lat": 1.3171111335276484, "lng": 103.84399000558166}], "distance": 380, "postalCode": "307591", "cc": "SG", "city": "Singapore", "country": "Singapore", "formattedAddress": ["#01-08/11 & 39, United Square (101 Thomson Road)", "307591", "Singapore"]}, "categories": [{"id": "52af3abe3cf9994f4e043bf2", "name": "Hainan Restaurant", "pluralName": "Hainan Restaurants", "shortName": "Hainan", "icon": {"prefix": "https://ss3.4sqi.net/img/categories_v2/food/asian_", "suffix": ".png"}, "primary": true}], "photos": {"count": 0, "groups": []}}, "referralId": "e-0-51e51da0498eb971191e7420-55"}, {"reasons": {"count": 0, "items": [{"summary": "This spot is popular", "type": "general", "reasonName": "globalInteractionReason"}]}, "venue": {"id": "55e9218a498e64d23a78bbfd", "name": "Saizeriya Ristorante E Caffe", "location": {"address": "United Square", "crossStreet": "101 Thomson Road", "lat": 1.3170523530010536, "lng": 103.84417222919568, "labeledLatLngs": [{"label": "display", "lat": 1.3170523530010536, "lng": 103.84417222919568}], "distance": 388, "postalCode": "307591", "cc": "SG", "city": "Singapore", "country": "Singapore", "formattedAddress": ["United Square (101 Thomson Road)", "307591", "Singapore"]}, "categories": [{"id": "4bf58dd8d48988d110941735", "name": "Italian Restaurant", "pluralName": "Italian Restaurants", "shortName": "Italian", "icon": {"prefix": "https://ss3.4sqi.net/img/categories_v2/food/italian_", "suffix": ".png"}, "primary": true}], "photos": {"count": 0, "groups": []}}, "referralId": "e-0-55e9218a498e64d23a78bbfd-56"}, {"reasons": {"count": 0, "items": [{"summary": "This spot is popular", "type": "general", "reasonName": "globalInteractionReason"}]}, "venue": {"id": "4bb6fb27941ad13a303420e3", "name": "Cedele by Bakery Depot", "location": {"address": "#B1-34/35/36, United Square Shopping Mall", "crossStreet": "101 Thomson Rd", "lat": 1.317113865347674, "lng": 103.84420227335991, "labeledLatLngs": [{"label": "display", "lat": 1.317113865347674, "lng": 103.84420227335991}], "distance": 381, "postalCode": "307591", "cc": "SG", "city": "Singapore", "country": "Singapore", "formattedAddress": ["#B1-34/35/36, United Square Shopping Mall (101 Thomson Rd)", "307591", "Singapore"]}, "categories": [{"id": "4bf58dd8d48988d16d941735", "name": "Caf\u00e9", "pluralName": "Caf\u00e9s", "shortName": "Caf\u00e9", "icon": {"prefix": "https://ss3.4sqi.net/img/categories_v2/food/cafe_", "suffix": ".png"}, "primary": true}], "photos": {"count": 0, "groups": []}}, "referralId": "e-0-4bb6fb27941ad13a303420e3-57"}, {"reasons": {"count": 0, "items": [{"summary": "This spot is popular", "type": "general", "reasonName": "globalInteractionReason"}]}, "venue": {"id": "51ba62ce498ed262e8a12afa", "name": "Toast Box \u571f\u53f8\u5de5\u574a", "location": {"address": "#01-06 Tan Tock Seng Hospital", "crossStreet": "Jalan Tan Tock Seng", "lat": 1.3215063274292684, "lng": 103.8460495817193, "labeledLatLngs": [{"label": "display", "lat": 1.3215063274292684, "lng": 103.8460495817193}], "distance": 264, "postalCode": "308433", "cc": "SG", "city": "Singapore", "country": "Singapore", "formattedAddress": ["#01-06 Tan Tock Seng Hospital (Jalan Tan Tock Seng)", "308433", "Singapore"]}, "categories": [{"id": "4bf58dd8d48988d16d941735", "name": "Caf\u00e9", "pluralName": "Caf\u00e9s", "shortName": "Caf\u00e9", "icon": {"prefix": "https://ss3.4sqi.net/img/categories_v2/food/cafe_", "suffix": ".png"}, "primary": true}], "photos": {"count": 0, "groups": []}}, "referralId": "e-0-51ba62ce498ed262e8a12afa-58"}, {"reasons": {"count": 0, "items": [{"summary": "This spot is popular", "type": "general", "reasonName": "globalInteractionReason"}]}, "venue": {"id": "587ca4fd65e7c7514c2a719d", "name": "Daessiksin Korean Hotpot & BBQ Buffet", "location": {"address": "#01-14/16, United Square", "crossStreet": "101 Thomson Road", "lat": 1.317036, "lng": 103.84422, "labeledLatLngs": [{"label": "display", "lat": 1.317036, "lng": 103.84422}], "distance": 390, "cc": "SG", "city": "Singapore", "country": "Singapore", "formattedAddress": ["#01-14/16, United Square (101 Thomson Road)", "Singapore"]}, "categories": [{"id": "4bf58dd8d48988d113941735", "name": "Korean Restaurant", "pluralName": "Korean Restaurants", "shortName": "Korean", "icon": {"prefix": "https://ss3.4sqi.net/img/categories_v2/food/korean_", "suffix": ".png"}, "primary": true}], "photos": {"count": 0, "groups": []}}, "referralId": "e-0-587ca4fd65e7c7514c2a719d-59"}, {"reasons": {"count": 0, "items": [{"summary": "This spot is popular", "type": "general", "reasonName": "globalInteractionReason"}]}, "venue": {"id": "589daa1c14f8f4247553ce26", "name": "Happy Joy \u842c\u559c\u5927\u9152\u6a13", "location": {"lat": 1.317118, "lng": 103.841507, "labeledLatLngs": [{"label": "display", "lat": 1.317118, "lng": 103.841507}], "distance": 462, "cc": "SG", "country": "Singapore", "formattedAddress": ["Singapore"]}, "categories": [{"id": "52af3abe3cf9994f4e043bf2", "name": "Hainan Restaurant", "pluralName": "Hainan Restaurants", "shortName": "Hainan", "icon": {"prefix": "https://ss3.4sqi.net/img/categories_v2/food/asian_", "suffix": ".png"}, "primary": true}], "photos": {"count": 0, "groups": []}}, "referralId": "e-0-589daa1c14f8f4247553ce26-60"}, {"reasons": {"count": 0, "items": [{"summary": "This spot is popular", "type": "general", "reasonName": "globalInteractionReason"}]}, "venue": {"id": "4d060348a2685481f3a0bfbd", "name": "Trishaw Coffee House", "location": {"address": "Hotel Royal", "lat": 1.3165927383275644, "lng": 103.84179305711484, "labeledLatLngs": [{"label": "display", "lat": 1.3165927383275644, "lng": 103.84179305711484}], "distance": 495, "postalCode": "307614", "cc": "SG", "city": "Singapore", "country": "Singapore", "formattedAddress": ["Hotel Royal", "307614", "Singapore"]}, "categories": [{"id": "4bf58dd8d48988d142941735", "name": "Asian Restaurant", "pluralName": "Asian Restaurants", "shortName": "Asian", "icon": {"prefix": "https://ss3.4sqi.net/img/categories_v2/food/asian_", "suffix": ".png"}, "primary": true}], "photos": {"count": 0, "groups": []}}, "referralId": "e-0-4d060348a2685481f3a0bfbd-61"}]}]}}