{"meta": {"code": 200, "requestId": "5e6ee62db4b684001b8ac59b"}, "response": {"suggestedFilters": {"header": "Tap to show:", "filters": [{"name": "Open now", "key": "openNow"}]}, "headerLocation": "Pasir Ris", "headerFullLocation": "Pasir Ris, Singapore", "headerLocationGranularity": "neighborhood", "totalResults": 36, "suggestedBounds": {"ne": {"lat": 1.3775307045000045, "lng": 103.95374789247897}, "sw": {"lat": 1.3685306954999954, "lng": 103.94476210752104}}, "groups": [{"type": "Recommended Places", "name": "recommended", "items": [{"reasons": {"count": 0, "items": [{"summary": "This spot is popular", "type": "general", "reasonName": "globalInteractionReason"}]}, "venue": {"id": "4e4babf9aeb72792c33c34c0", "name": "ClubFITT Gym", "location": {"address": "Pasir Ris Sports & Recreation Centre", "crossStreet": "120 Pasir Ris Central", "lat": 1.3739678426786983, "lng": 103.95203931473996, "labeledLatLngs": [{"label": "display", "lat": 1.3739678426786983, "lng": 103.95203931473996}], "distance": 326, "postalCode": "519640", "cc": "SG", "city": "Singapore", "country": "Singapore", "formattedAddress": ["Pasir Ris Sports & Recreation Centre (120 Pasir Ris Central)", "519640", "Singapore"]}, "categories": [{"id": "4bf58dd8d48988d176941735", "name": "Gym", "pluralName": "Gyms", "shortName": "Gym", "icon": {"prefix": "https://ss3.4sqi.net/img/categories_v2/building/gym_", "suffix": ".png"}, "primary": true}], "photos": {"count": 0, "groups": []}}, "referralId": "e-0-4e4babf9aeb72792c33c34c0-0"}, {"reasons": {"count": 0, "items": [{"summary": "This spot is popular", "type": "general", "reasonName": "globalInteractionReason"}]}, "venue": {"id": "4bcda86fcc8cd13a74d9c2cf", "name": "Cottage Pies Cafe", "location": {"address": "White Sands Mall", "lat": 1.3729334103957793, "lng": 103.94960792684566, "labeledLatLngs": [{"label": "display", "lat": 1.3729334103957793, "lng": 103.94960792684566}], "distance": 40, "cc": "SG", "neighborhood": "Pasir Ris", "country": "Singapore", "formattedAddress": ["White Sands Mall", "Singapore"]}, "categories": [{"id": "4bf58dd8d48988d16a941735", "name": "Bakery", "pluralName": "Bakeries", "shortName": "Bakery", "icon": {"prefix": "https://ss3.4sqi.net/img/categories_v2/food/bakery_", "suffix": ".png"}, "primary": true}], "photos": {"count": 0, "groups": []}}, "referralId": "e-0-4bcda86fcc8cd13a74d9c2cf-1"}, {"reasons": {"count": 0, "items": [{"summary": "This spot is popular", "type": "general", "reasonName": "globalInteractionReason"}]}, "venue": {"id": "4c330cb0452620a104ea220f", "name": "Subway", "location": {"address": "#03-03, White Sands", "crossStreet": "1 Pasir Ris Central", "lat": 1.372508645293549, "lng": 103.94941999461136, "labeledLatLngs": [{"label": "display", "lat": 1.372508645293549, "lng": 103.94941999461136}], "distance": 60, "postalCode": "518457", "cc": "SG", "city": "Kampong Pasir Ris", "country": "Singapore", "formattedAddress": ["#03-03, White Sands (1 Pasir Ris Central)", "518457", "Singapore"]}, "categories": [{"id": "4bf58dd8d48988d1c5941735", "name": "Sandwich Place", "pluralName": "Sandwich Places", "shortName": "Sandwiches", "icon": {"prefix": "https://ss3.4sqi.net/img/categories_v2/food/deli_", "suffix": ".png"}, "primary": true}], "photos": {"count": 0, "groups": []}}, "referralId": "e-0-4c330cb0452620a104ea220f-2"}, {"reasons": {"count": 0, "items": [{"summary": "This spot is popular", "type": "general", "reasonName": "globalInteractionReason"}]}, "venue": {"id": "4d9ebb4becb12c0fa6305b89", "name": "Pasir Ris Town Park", "location": {"address": "Pasir Ris Central", "crossStreet": "at Pasir Ris Dr 1 & 3", "lat": 1.372644708666043, "lng": 103.95225048065186, "labeledLatLngs": [{"label": "display", "lat": 1.372644708666043, "lng": 103.95225048065186}], "distance": 336, "cc": "SG", "city": "Kampong Pasir Ris", "country": "Singapore", "formattedAddress": ["Pasir Ris Central (at Pasir Ris Dr 1 & 3)", "Singapore"]}, "categories": [{"id": "4bf58dd8d48988d163941735", "name": "Park", "pluralName": "Parks", "shortName": "Park", "icon": {"prefix": "https://ss3.4sqi.net/img/categories_v2/parks_outdoors/park_", "suffix": ".png"}, "primary": true}], "photos": {"count": 0, "groups": []}}, "referralId": "e-0-4d9ebb4becb12c0fa6305b89-3"}, {"reasons": {"count": 0, "items": [{"summary": "This spot is popular", "type": "general", "reasonName": "globalInteractionReason"}]}, "venue": {"id": "562e171e498eb89ee7be2afa", "name": "Saizeriya Ristorante E Caffe", "location": {"address": "White Sands Shopping Centre", "crossStreet": "1 Pasir Ris Central Street 3", "lat": 1.3723782170005063, "lng": 103.94926110383247, "labeledLatLngs": [{"label": "display", "lat": 1.3723782170005063, "lng": 103.94926110383247}], "distance": 72, "postalCode": "518457", "cc": "SG", "city": "Singapore", "country": "Singapore", "formattedAddress": ["White Sands Shopping Centre (1 Pasir Ris Central Street 3)", "518457", "Singapore"]}, "categories": [{"id": "4bf58dd8d48988d110941735", "name": "Italian Restaurant", "pluralName": "Italian Restaurants", "shortName": "Italian", "icon": {"prefix": "https://ss3.4sqi.net/img/categories_v2/food/italian_", "suffix": ".png"}, "primary": true}], "photos": {"count": 0, "groups": []}}, "referralId": "e-0-562e171e498eb89ee7be2afa-4"}, {"reasons": {"count": 0, "items": [{"summary": "This spot is popular", "type": "general", "reasonName": "globalInteractionReason"}]}, "venue": {"id": "5a69353a3ba7676e2d5fd010", "name": "Pasir Ris Central Hawker Centre", "location": {"address": "110 Pasir Ris Central", "lat": 1.3733275323762193, "lng": 103.95173519122831, "labeledLatLngs": [{"label": "display", "lat": 1.3733275323762193, "lng": 103.95173519122831}], "distance": 277, "postalCode": "519641", "cc": "SG", "neighborhood": "Pasir Ris", "city": "Kampong Pasir Ris", "country": "Singapore", "formattedAddress": ["110 Pasir Ris Central", "519641", "Singapore"]}, "categories": [{"id": "4bf58dd8d48988d120951735", "name": "Food Court", "pluralName": "Food Courts", "shortName": "Food Court", "icon": {"prefix": "https://ss3.4sqi.net/img/categories_v2/shops/food_foodcourt_", "suffix": ".png"}, "primary": true}], "photos": {"count": 0, "groups": []}}, "referralId": "e-0-5a69353a3ba7676e2d5fd010-5"}, {"reasons": {"count": 0, "items": [{"summary": "This spot is popular", "type": "general", "reasonName": "globalInteractionReason"}]}, "venue": {"id": "563c8edacd1044ad65f80a6b", "name": "Starbucks", "location": {"address": "White Sands", "crossStreet": "1 Pasir Ris Central Street 3", "lat": 1.3725183953673978, "lng": 103.94944983362899, "labeledLatLngs": [{"label": "display", "lat": 1.3725183953673978, "lng": 103.94944983362899}], "distance": 61, "postalCode": "518457", "cc": "SG", "city": "Singapore", "country": "Singapore", "formattedAddress": ["White Sands (1 Pasir Ris Central Street 3)", "518457", "Singapore"]}, "categories": [{"id": "4bf58dd8d48988d1e0931735", "name": "Coffee Shop", "pluralName": "Coffee Shops", "shortName": "Coffee Shop", "icon": {"prefix": "https://ss3.4sqi.net/img/categories_v2/food/coffeeshop_", "suffix": ".png"}, "primary": true}], "photos": {"count": 0, "groups": []}}, "referralId": "e-0-563c8edacd1044ad65f80a6b-6"}, {"reasons": {"count": 0, "items": [{"summary": "This spot is popular", "type": "general", "reasonName": "globalInteractionReason"}]}, "venue": {"id": "56ece0eb498e283a8a8eb1a1", "name": "Subway", "location": {"address": "1 Pasir Ris Central #03-03 White Sands", "lat": 1.37264, "lng": 103.950119, "labeledLatLngs": [{"label": "display", "lat": 1.37264, "lng": 103.950119}], "distance": 105, "postalCode": "518457", "cc": "SG", "country": "Singapore", "formattedAddress": ["1 Pasir Ris Central #03-03 White Sands", "518457", "Singapore"]}, "categories": [{"id": "4bf58dd8d48988d1c5941735", "name": "Sandwich Place", "pluralName": "Sandwich Places", "shortName": "Sandwiches", "icon": {"prefix": "https://ss3.4sqi.net/img/categories_v2/food/deli_", "suffix": ".png"}, "primary": true}], "photos": {"count": 0, "groups": []}}, "referralId": "e-0-56ece0eb498e283a8a8eb1a1-7"}, {"reasons": {"count": 0, "items": [{"summary": "This spot is popular", "type": "general", "reasonName": "globalInteractionReason"}]}, "venue": {"id": "4e9f047dbe7b048b34b5c06b", "name": "McDonald's", "location": {"address": "Pasir Ris Sports & Recreation Centre", "crossStreet": "120 Pasir Ris Central", "lat": 1.3742861231258763, "lng": 103.95146264641716, "labeledLatLngs": [{"label": "display", "lat": 1.3742861231258763, "lng": 103.95146264641716}], "distance": 282, "postalCode": "519640", "cc": "SG", "city": "Singapore", "country": "Singapore", "formattedAddress": ["Pasir Ris Sports & Recreation Centre (120 Pasir Ris Central)", "519640", "Singapore"]}, "categories": [{"id": "4bf58dd8d48988d16e941735", "name": "Fast Food Restaurant", "pluralName": "Fast Food Restaurants", "shortName": "Fast Food", "icon": {"prefix": "https://ss3.4sqi.net/img/categories_v2/food/fastfood_", "suffix": ".png"}, "primary": true}], "photos": {"count": 0, "groups": []}}, "referralId": "e-0-4e9f047dbe7b048b34b5c06b-8"}, {"reasons": {"count": 0, "items": [{"summary": "This spot is popular", "type": "general", "reasonName": "globalInteractionReason"}]}, "venue": {"id": "4b058818f964a520bdb122e3", "name": "White Sands Shopping Centre", "location": {"address": "1 Pasir Ris Central Street 3", "crossStreet": "next to Pasir Ris MRT station", "lat": 1.3724327567675692, "lng": 103.94948394638837, "labeledLatLngs": [{"label": "display", "lat": 1.3724327567675692, "lng": 103.94948394638837}], "distance": 71, "postalCode": "518457", "cc": "SG", "city": "Singapore", "country": "Singapore", "formattedAddress": ["1 Pasir Ris Central Street 3 (next to Pasir Ris MRT station)", "518457", "Singapore"]}, "categories": [{"id": "4bf58dd8d48988d1fd941735", "name": "Shopping Mall", "pluralName": "Shopping Malls", "shortName": "Mall", "icon": {"prefix": "https://ss3.4sqi.net/img/categories_v2/shops/mall_", "suffix": ".png"}, "primary": true}], "photos": {"count": 0, "groups": []}, "venuePage": {"id": "46441670"}}, "referralId": "e-0-4b058818f964a520bdb122e3-9"}, {"reasons": {"count": 0, "items": [{"summary": "This spot is popular", "type": "general", "reasonName": "globalInteractionReason"}]}, "venue": {"id": "4e0c18041838fa426ac54376", "name": "Pasir Ris Sports & Recreation Centre", "location": {"address": "120 Pasir Ris Central", "crossStreet": "near Pasir Ris Bus Interchange & MRT", "lat": 1.3741177894556795, "lng": 103.95151232628591, "labeledLatLngs": [{"label": "display", "lat": 1.3741177894556795, "lng": 103.95151232628591}], "distance": 278, "postalCode": "519640", "cc": "SG", "city": "Singapore", "country": "Singapore", "formattedAddress": ["120 Pasir Ris Central (near Pasir Ris Bus Interchange & MRT)", "519640", "Singapore"]}, "categories": [{"id": "52e81612bcbc57f1066b7a26", "name": "Recreation Center", "pluralName": "Recreation Centers", "shortName": "Recreation Center", "icon": {"prefix": "https://ss3.4sqi.net/img/categories_v2/shops/sports_outdoors_", "suffix": ".png"}, "primary": true}], "photos": {"count": 0, "groups": []}}, "referralId": "e-0-4e0c18041838fa426ac54376-10"}, {"reasons": {"count": 0, "items": [{"summary": "This spot is popular", "type": "general", "reasonName": "globalInteractionReason"}]}, "venue": {"id": "5540d4bb498e9b06b12bba88", "name": "Cookhouse by Koufu", "location": {"address": "Level 3, White Sands", "crossStreet": "1 Pasir Ris Central St 3", "lat": 1.372647648550216, "lng": 103.95004698131314, "labeledLatLngs": [{"label": "display", "lat": 1.372647648550216, "lng": 103.95004698131314}], "distance": 97, "cc": "SG", "city": "Singapore", "country": "Singapore", "formattedAddress": ["Level 3, White Sands (1 Pasir Ris Central St 3)", "Singapore"]}, "categories": [{"id": "4bf58dd8d48988d120951735", "name": "Food Court", "pluralName": "Food Courts", "shortName": "Food Court", "icon": {"prefix": "https://ss3.4sqi.net/img/categories_v2/shops/food_foodcourt_", "suffix": ".png"}, "primary": true}], "photos": {"count": 0, "groups": []}}, "referralId": "e-0-5540d4bb498e9b06b12bba88-11"}, {"reasons": {"count": 0, "items": [{"summary": "This spot is popular", "type": "general", "reasonName": "globalInteractionReason"}]}, "venue": {"id": "4b163a0ff964a520b1b723e3", "name": "KFC", "location": {"address": "#01-14/15, White Sands", "crossStreet": "1 Pasir Ris Central St 3", "lat": 1.3725176995810868, "lng": 103.95007884366613, "labeledLatLngs": [{"label": "display", "lat": 1.3725176995810868, "lng": 103.95007884366613}], "distance": 108, "postalCode": "518457", "cc": "SG", "city": "Singapore", "country": "Singapore", "formattedAddress": ["#01-14/15, White Sands (1 Pasir Ris Central St 3)", "518457", "Singapore"]}, "categories": [{"id": "4bf58dd8d48988d16e941735", "name": "Fast Food Restaurant", "pluralName": "Fast Food Restaurants", "shortName": "Fast Food", "icon": {"prefix": "https://ss3.4sqi.net/img/categories_v2/food/fastfood_", "suffix": ".png"}, "primary": true}], "photos": {"count": 0, "groups": []}}, "referralId": "e-0-4b163a0ff964a520b1b723e3-12"}, {"reasons": {"count": 0, "items": [{"summary": "This spot is popular", "type": "general", "reasonName": "globalInteractionReason"}]}, "venue": {"id": "4c9c314b9c48236a4d274cee", "name": "Arches Hair Spa", "location": {"address": "White Sands Shopping Centre", "crossStreet": "#04-14, 1 Pasir Ris Central St 3", "lat": 1.372455312131258, "lng": 103.94950541810685, "labeledLatLngs": [{"label": "display", "lat": 1.372455312131258, "lng": 103.94950541810685}], "distance": 69, "postalCode": "518457", "cc": "SG", "city": "Singapore", "country": "Singapore", "formattedAddress": ["White Sands Shopping Centre (#04-14, 1 Pasir Ris Central St 3)", "518457", "Singapore"]}, "categories": [{"id": "4bf58dd8d48988d110951735", "name": "Salon / Barbershop", "pluralName": "Salons / Barbershops", "shortName": "Salon / Barbershop", "icon": {"prefix": "https://ss3.4sqi.net/img/categories_v2/shops/salon_barber_", "suffix": ".png"}, "primary": true}], "photos": {"count": 0, "groups": []}}, "referralId": "e-0-4c9c314b9c48236a4d274cee-13"}, {"reasons": {"count": 0, "items": [{"summary": "This spot is popular", "type": "general", "reasonName": "globalInteractionReason"}]}, "venue": {"id": "4e8dbffddab404822e2c5f6e", "name": "Pastamania", "location": {"address": "Pasir Ris Sports & Recreation Center", "lat": 1.3739945338968895, "lng": 103.95184507422461, "labeledLatLngs": [{"label": "display", "lat": 1.3739945338968895, "lng": 103.95184507422461}], "distance": 307, "postalCode": "519640", "cc": "SG", "country": "Singapore", "formattedAddress": ["Pasir Ris Sports & Recreation Center", "519640", "Singapore"]}, "categories": [{"id": "4bf58dd8d48988d110941735", "name": "Italian Restaurant", "pluralName": "Italian Restaurants", "shortName": "Italian", "icon": {"prefix": "https://ss3.4sqi.net/img/categories_v2/food/italian_", "suffix": ".png"}, "primary": true}], "photos": {"count": 0, "groups": []}}, "referralId": "e-0-4e8dbffddab404822e2c5f6e-14"}, {"reasons": {"count": 0, "items": [{"summary": "This spot is popular", "type": "general", "reasonName": "globalInteractionReason"}]}, "venue": {"id": "4c11d122d41e76b02722320d", "name": "Ananas Cafe", "location": {"address": "#01-02/05, Pasir Ris MRT Station", "crossStreet": "10 Pasir Ris Central", "lat": 1.3726060545143997, "lng": 103.94938930981033, "labeledLatLngs": [{"label": "display", "lat": 1.3726060545143997, "lng": 103.94938930981033}], "distance": 49, "postalCode": "519634", "cc": "SG", "city": "Singapore", "country": "Singapore", "formattedAddress": ["#01-02/05, Pasir Ris MRT Station (10 Pasir Ris Central)", "519634", "Singapore"]}, "categories": [{"id": "4bf58dd8d48988d142941735", "name": "Asian Restaurant", "pluralName": "Asian Restaurants", "shortName": "Asian", "icon": {"prefix": "https://ss3.4sqi.net/img/categories_v2/food/asian_", "suffix": ".png"}, "primary": true}], "photos": {"count": 0, "groups": []}}, "referralId": "e-0-4c11d122d41e76b02722320d-15"}, {"reasons": {"count": 0, "items": [{"summary": "This spot is popular", "type": "general", "reasonName": "globalInteractionReason"}]}, "venue": {"id": "5a880658eaf49a4b944492ee", "name": "Fareground", "location": {"address": "Level 2 Pasir Ris Central Hawker Centre", "lat": 1.3733527347416468, "lng": 103.95169342310203, "labeledLatLngs": [{"label": "display", "lat": 1.3733527347416468, "lng": 103.95169342310203}], "distance": 273, "postalCode": "519641", "cc": "SG", "city": "Kampong Pasir Ris", "country": "Singapore", "formattedAddress": ["Level 2 Pasir Ris Central Hawker Centre", "519641", "Singapore"]}, "categories": [{"id": "4bf58dd8d48988d120951735", "name": "Food Court", "pluralName": "Food Courts", "shortName": "Food Court", "icon": {"prefix": "https://ss3.4sqi.net/img/categories_v2/shops/food_foodcourt_", "suffix": ".png"}, "primary": true}], "photos": {"count": 0, "groups": []}}, "referralId": "e-0-5a880658eaf49a4b944492ee-16"}, {"reasons": {"count": 0, "items": [{"summary": "This spot is popular", "type": "general", "reasonName": "globalInteractionReason"}]}, "venue": {"id": "555d72f6498e8d4117358471", "name": "Sushi Express", "location": {"address": "White Sands Shopping Mall", "lat": 1.3725145692210778, "lng": 103.94994879519133, "labeledLatLngs": [{"label": "display", "lat": 1.3725145692210778, "lng": 103.94994879519133}], "distance": 96, "cc": "SG", "city": "Singapore", "country": "Singapore", "formattedAddress": ["White Sands Shopping Mall", "Singapore"]}, "categories": [{"id": "4bf58dd8d48988d1d2941735", "name": "Sushi Restaurant", "pluralName": "Sushi Restaurants", "shortName": "Sushi", "icon": {"prefix": "https://ss3.4sqi.net/img/categories_v2/food/sushi_", "suffix": ".png"}, "primary": true}], "photos": {"count": 0, "groups": []}}, "referralId": "e-0-555d72f6498e8d4117358471-17"}, {"reasons": {"count": 0, "items": [{"summary": "This spot is popular", "type": "general", "reasonName": "globalInteractionReason"}]}, "venue": {"id": "4c500eb31886c9b600610a28", "name": "NTUC FairPrice", "location": {"address": "#B1-10, White Sands Shopping Centre", "crossStreet": "1 Pasir Ris Central St 3", "lat": 1.3725479107734047, "lng": 103.94948574239149, "labeledLatLngs": [{"label": "display", "lat": 1.3725479107734047, "lng": 103.94948574239149}], "distance": 59, "postalCode": "518457", "cc": "SG", "city": "Singapore", "country": "Singapore", "formattedAddress": ["#B1-10, White Sands Shopping Centre (1 Pasir Ris Central St 3)", "518457", "Singapore"]}, "categories": [{"id": "52f2ab2ebcbc57f1066b8b46", "name": "Supermarket", "pluralName": "Supermarkets", "shortName": "Supermarket", "icon": {"prefix": "https://ss3.4sqi.net/img/categories_v2/shops/food_grocery_", "suffix": ".png"}, "primary": true}], "photos": {"count": 0, "groups": []}}, "referralId": "e-0-4c500eb31886c9b600610a28-18"}, {"reasons": {"count": 0, "items": [{"summary": "This spot is popular", "type": "general", "reasonName": "globalInteractionReason"}]}, "venue": {"id": "4b6549dff964a52006ec2ae3", "name": "Ya Kun Kaya Toast \u4e9e\u5764", "location": {"address": "#B1-20/21 White Sands Shopping Centre", "crossStreet": "1 Pasir Ris Central St 3", "lat": 1.3724771942243048, "lng": 103.95004195122605, "labeledLatLngs": [{"label": "display", "lat": 1.3724771942243048, "lng": 103.95004195122605}], "distance": 107, "postalCode": "518487", "cc": "SG", "city": "Singapore", "country": "Singapore", "formattedAddress": ["#B1-20/21 White Sands Shopping Centre (1 Pasir Ris Central St 3)", "518487", "Singapore"]}, "categories": [{"id": "4bf58dd8d48988d1e0931735", "name": "Coffee Shop", "pluralName": "Coffee Shops", "shortName": "Coffee Shop", "icon": {"prefix": "https://ss3.4sqi.net/img/categories_v2/food/coffeeshop_", "suffix": ".png"}, "primary": true}], "photos": {"count": 0, "groups": []}}, "referralId": "e-0-4b6549dff964a52006ec2ae3-19"}, {"reasons": {"count": 0, "items": [{"summary": "This spot is popular", "type": "general", "reasonName": "globalInteractionReason"}]}, "venue": {"id": "4c8f9221b3bcb60cf6b56227", "name": "McDonald's", "location": {"address": "#01/02-29/30/13/14 White Sands", "crossStreet": "1 Pasir Ris Central St 3", "lat": 1.3724321294542305, "lng": 103.94936916075831, "labeledLatLngs": [{"label": "display", "lat": 1.3724321294542305, "lng": 103.94936916075831}], "distance": 67, "postalCode": "518457", "cc": "SG", "city": "Singapore", "country": "Singapore", "formattedAddress": ["#01/02-29/30/13/14 White Sands (1 Pasir Ris Central St 3)", "518457", "Singapore"]}, "categories": [{"id": "4bf58dd8d48988d16e941735", "name": "Fast Food Restaurant", "pluralName": "Fast Food Restaurants", "shortName": "Fast Food", "icon": {"prefix": "https://ss3.4sqi.net/img/categories_v2/food/fastfood_", "suffix": ".png"}, "primary": true}], "photos": {"count": 0, "groups": []}}, "referralId": "e-0-4c8f9221b3bcb60cf6b56227-20"}, {"reasons": {"count": 0, "items": [{"summary": "This spot is popular", "type": "general", "reasonName": "globalInteractionReason"}]}, "venue": {"id": "59abf81967a9fe481eb5efbe", "name": "Nine Fresh (\u4e5d\u9c9c) Desserts Taiwan", "location": {"address": "1 Pasir Ris Central Street 3", "crossStreet": "#02-K7", "lat": 1.3723967, "lng": 103.94962, "labeledLatLngs": [{"label": "display", "lat": 1.3723967, "lng": 103.94962}], "distance": 81, "postalCode": "518457", "cc": "SG", "country": "Singapore", "formattedAddress": ["1 Pasir Ris Central Street 3 (#02-K7)", "518457", "Singapore"]}, "categories": [{"id": "4bf58dd8d48988d1d0941735", "name": "Dessert Shop", "pluralName": "Dessert Shops", "shortName": "Desserts", "icon": {"prefix": "https://ss3.4sqi.net/img/categories_v2/food/dessert_", "suffix": ".png"}, "primary": true}], "photos": {"count": 0, "groups": []}}, "referralId": "e-0-59abf81967a9fe481eb5efbe-21"}, {"reasons": {"count": 0, "items": [{"summary": "This spot is popular", "type": "general", "reasonName": "globalInteractionReason"}]}, "venue": {"id": "4c2495a8136d20a173fee161", "name": "Bus Stop 77321 (aft Pasir Ris Street 53)", "location": {"address": "Pasir Ris Central", "lat": 1.37321831714793, "lng": 103.94829556268216, "labeledLatLngs": [{"label": "display", "lat": 1.37321831714793, "lng": 103.94829556268216}], "distance": 108, "cc": "SG", "city": "Singapore", "country": "Singapore", "formattedAddress": ["Pasir Ris Central", "Singapore"]}, "categories": [{"id": "4bf58dd8d48988d1fe931735", "name": "Bus Station", "pluralName": "Bus Stations", "shortName": "Bus Station", "icon": {"prefix": "https://ss3.4sqi.net/img/categories_v2/travel/busstation_", "suffix": ".png"}, "primary": true}], "photos": {"count": 0, "groups": []}}, "referralId": "e-0-4c2495a8136d20a173fee161-22"}, {"reasons": {"count": 0, "items": [{"summary": "This spot is popular", "type": "general", "reasonName": "globalInteractionReason"}]}, "venue": {"id": "4cd28dda83e0721e5c8f5797", "name": "Bike Station @ Pasir Ris MRT", "location": {"lat": 1.3718229029344013, "lng": 103.948720709503, "labeledLatLngs": [{"label": "display", "lat": 1.3718229029344013, "lng": 103.948720709503}], "distance": 147, "cc": "SG", "country": "Singapore", "formattedAddress": ["Singapore"]}, "categories": [{"id": "4e4c9077bd41f78e849722f9", "name": "Bike Rental / Bike Share", "pluralName": "Bike Rentals / Bike Shares", "shortName": "Bike", "icon": {"prefix": "https://ss3.4sqi.net/img/categories_v2/shops/bikeshop_", "suffix": ".png"}, "primary": true}], "photos": {"count": 0, "groups": []}}, "referralId": "e-0-4cd28dda83e0721e5c8f5797-23"}, {"reasons": {"count": 0, "items": [{"summary": "This spot is popular", "type": "general", "reasonName": "globalInteractionReason"}]}, "venue": {"id": "4fd2017ae4b096c7d30b9b35", "name": "Shihlin Taiwan Street Snacks", "location": {"address": "#01-18, Pasir Ris MRT Station", "crossStreet": "10 Pasir Ris Central", "lat": 1.3733808883216716, "lng": 103.94968955613908, "labeledLatLngs": [{"label": "display", "lat": 1.3733808883216716, "lng": 103.94968955613908}], "distance": 62, "postalCode": "519634", "cc": "SG", "city": "Singapore", "country": "Singapore", "formattedAddress": ["#01-18, Pasir Ris MRT Station (10 Pasir Ris Central)", "519634", "Singapore"]}, "categories": [{"id": "4bf58dd8d48988d142941735", "name": "Asian Restaurant", "pluralName": "Asian Restaurants", "shortName": "Asian", "icon": {"prefix": "https://ss3.4sqi.net/img/categories_v2/food/asian_", "suffix": ".png"}, "primary": true}], "photos": {"count": 0, "groups": []}}, "referralId": "e-0-4fd2017ae4b096c7d30b9b35-24"}, {"reasons": {"count": 0, "items": [{"summary": "This spot is popular", "type": "general", "reasonName": "globalInteractionReason"}]}, "venue": {"id": "4cee15257db3224bcc1e262e", "name": "Mr Bean", "location": {"address": "#01-01, Pasir Ris MRT Station", "crossStreet": "10 Pasir Ris Central", "lat": 1.372489322892702, "lng": 103.94906632067936, "labeledLatLngs": [{"label": "display", "lat": 1.372489322892702, "lng": 103.94906632067936}], "distance": 63, "postalCode": "519634", "cc": "SG", "city": "Singapore", "country": "Singapore", "formattedAddress": ["#01-01, Pasir Ris MRT Station (10 Pasir Ris Central)", "519634", "Singapore"]}, "categories": [{"id": "4bf58dd8d48988d1c7941735", "name": "Snack Place", "pluralName": "Snack Places", "shortName": "Snacks", "icon": {"prefix": "https://ss3.4sqi.net/img/categories_v2/food/snacks_", "suffix": ".png"}, "primary": true}], "photos": {"count": 0, "groups": []}}, "referralId": "e-0-4cee15257db3224bcc1e262e-25"}, {"reasons": {"count": 0, "items": [{"summary": "This spot is popular", "type": "general", "reasonName": "globalInteractionReason"}]}, "venue": {"id": "4ef86b3b722e3406100a2d06", "name": "Duan Pandan Rice Dumpling", "location": {"address": "Pasir Ris Central Street 3", "lat": 1.3724648190291024, "lng": 103.94976887721796, "labeledLatLngs": [{"label": "display", "lat": 1.3724648190291024, "lng": 103.94976887721796}], "distance": 85, "cc": "SG", "country": "Singapore", "formattedAddress": ["Pasir Ris Central Street 3", "Singapore"]}, "categories": [{"id": "4bf58dd8d48988d108941735", "name": "Dumpling Restaurant", "pluralName": "Dumpling Restaurants", "shortName": "Dumplings", "icon": {"prefix": "https://ss3.4sqi.net/img/categories_v2/food/dumplings_", "suffix": ".png"}, "primary": true}], "photos": {"count": 0, "groups": []}}, "referralId": "e-0-4ef86b3b722e3406100a2d06-26"}, {"reasons": {"count": 0, "items": [{"summary": "This spot is popular", "type": "general", "reasonName": "globalInteractionReason"}]}, "venue": {"id": "4b9cff84f964a520808736e3", "name": "7-Eleven", "location": {"address": "#01-09 Pasir Ris MRT Station", "crossStreet": "10 Pasir Ris Central", "lat": 1.3729968634621161, "lng": 103.94933827762426, "labeledLatLngs": [{"label": "display", "lat": 1.3729968634621161, "lng": 103.94933827762426}], "distance": 10, "postalCode": "519634", "cc": "SG", "city": "Singapore", "country": "Singapore", "formattedAddress": ["#01-09 Pasir Ris MRT Station (10 Pasir Ris Central)", "519634", "Singapore"]}, "categories": [{"id": "4d954b0ea243a5684a65b473", "name": "Convenience Store", "pluralName": "Convenience Stores", "shortName": "Convenience Store", "icon": {"prefix": "https://ss3.4sqi.net/img/categories_v2/shops/conveniencestore_", "suffix": ".png"}, "primary": true}], "photos": {"count": 0, "groups": []}}, "referralId": "e-0-4b9cff84f964a520808736e3-27"}, {"reasons": {"count": 0, "items": [{"summary": "This spot is popular", "type": "general", "reasonName": "globalInteractionReason"}]}, "venue": {"id": "4bd508d36798ef3b79e2628d", "name": "Refresh BODYWORKS family", "location": {"address": "Whitesands Shopping Centre", "crossStreet": "1 Pasir Ris Central #04-11", "lat": 1.3724196530043467, "lng": 103.94951958255236, "labeledLatLngs": [{"label": "display", "lat": 1.3724196530043467, "lng": 103.94951958255236}], "distance": 74, "cc": "SG", "city": "Singapore", "country": "Singapore", "formattedAddress": ["Whitesands Shopping Centre (1 Pasir Ris Central #04-11)", "Singapore"]}, "categories": [{"id": "4bf58dd8d48988d1ed941735", "name": "Spa", "pluralName": "Spas", "shortName": "Spa", "icon": {"prefix": "https://ss3.4sqi.net/img/categories_v2/shops/spa_", "suffix": ".png"}, "primary": true}], "photos": {"count": 0, "groups": []}}, "referralId": "e-0-4bd508d36798ef3b79e2628d-28"}, {"reasons": {"count": 0, "items": [{"summary": "This spot is popular", "type": "general", "reasonName": "globalInteractionReason"}]}, "venue": {"id": "55f38e47498ec17bccb6eb94", "name": "The Old Malaya Cafe", "location": {"address": "White Sands Shopping Centre #B1-K05", "lat": 1.372453035972236, "lng": 103.95006916457301, "labeledLatLngs": [{"label": "display", "lat": 1.372453035972236, "lng": 103.95006916457301}], "distance": 111, "cc": "SG", "country": "Singapore", "formattedAddress": ["White Sands Shopping Centre #B1-K05", "Singapore"]}, "categories": [{"id": "4bf58dd8d48988d16d941735", "name": "Caf\u00e9", "pluralName": "Caf\u00e9s", "shortName": "Caf\u00e9", "icon": {"prefix": "https://ss3.4sqi.net/img/categories_v2/food/cafe_", "suffix": ".png"}, "primary": true}], "photos": {"count": 0, "groups": []}}, "referralId": "e-0-55f38e47498ec17bccb6eb94-29"}, {"reasons": {"count": 0, "items": [{"summary": "This spot is popular", "type": "general", "reasonName": "globalInteractionReason"}]}, "venue": {"id": "4c613eb112e5c9287109214c", "name": "Guardian Pharmacy", "location": {"address": "Whitesands Shopping Center", "lat": 1.372453078422947, "lng": 103.94995497687653, "labeledLatLngs": [{"label": "display", "lat": 1.372453078422947, "lng": 103.94995497687653}], "distance": 101, "cc": "SG", "country": "Singapore", "formattedAddress": ["Whitesands Shopping Center", "Singapore"]}, "categories": [{"id": "4bf58dd8d48988d10f951735", "name": "Pharmacy", "pluralName": "Pharmacies", "shortName": "Pharmacy", "icon": {"prefix": "https://ss3.4sqi.net/img/categories_v2/shops/pharmacy_", "suffix": ".png"}, "primary": true}], "photos": {"count": 0, "groups": []}}, "referralId": "e-0-4c613eb112e5c9287109214c-30"}, {"reasons": {"count": 0, "items": [{"summary": "This spot is popular", "type": "general", "reasonName": "globalInteractionReason"}]}, "venue": {"id": "4e2400e345dd950bb03e7e23", "name": "Pasir Ris SRC Swimming Pool", "location": {"address": "120 Pasir Ris Central", "lat": 1.3743499478743066, "lng": 103.95219385794532, "labeledLatLngs": [{"label": "display", "lat": 1.3743499478743066, "lng": 103.95219385794532}], "distance": 358, "postalCode": "519640", "cc": "SG", "city": "Singapore", "country": "Singapore", "formattedAddress": ["120 Pasir Ris Central", "519640", "Singapore"]}, "categories": [{"id": "4bf58dd8d48988d15e941735", "name": "Pool", "pluralName": "Pools", "shortName": "Pool", "icon": {"prefix": "https://ss3.4sqi.net/img/categories_v2/parks_outdoors/pool_", "suffix": ".png"}, "primary": true}], "photos": {"count": 0, "groups": []}}, "referralId": "e-0-4e2400e345dd950bb03e7e23-31"}, {"reasons": {"count": 0, "items": [{"summary": "This spot is popular", "type": "general", "reasonName": "globalInteractionReason"}]}, "venue": {"id": "555c804c498e3451c2b80e83", "name": "NTUC Foodfare", "location": {"address": "Block 527C", "crossStreet": "Pasir Ris St 51", "lat": 1.3694883433402023, "lng": 103.94830967489486, "labeledLatLngs": [{"label": "display", "lat": 1.3694883433402023, "lng": 103.94830967489486}], "distance": 408, "cc": "SG", "city": "Singapore", "country": "Singapore", "formattedAddress": ["Block 527C (Pasir Ris St 51)", "Singapore"]}, "categories": [{"id": "4bf58dd8d48988d1c4941735", "name": "Restaurant", "pluralName": "Restaurants", "shortName": "Restaurant", "icon": {"prefix": "https://ss3.4sqi.net/img/categories_v2/food/default_", "suffix": ".png"}, "primary": true}], "photos": {"count": 0, "groups": []}}, "referralId": "e-0-555c804c498e3451c2b80e83-32"}, {"reasons": {"count": 0, "items": [{"summary": "This spot is popular", "type": "general", "reasonName": "globalInteractionReason"}]}, "venue": {"id": "4e8dea5e61af7424dac44b80", "name": "PCN Pit Stop", "location": {"address": "Pasir Ris Park Connector", "lat": 1.3747420551516407, "lng": 103.95232983943617, "labeledLatLngs": [{"label": "display", "lat": 1.3747420551516407, "lng": 103.95232983943617}], "distance": 391, "cc": "SG", "city": "Singapore", "country": "Singapore", "formattedAddress": ["Pasir Ris Park Connector", "Singapore"]}, "categories": [{"id": "4e4c9077bd41f78e849722f9", "name": "Bike Rental / Bike Share", "pluralName": "Bike Rentals / Bike Shares", "shortName": "Bike", "icon": {"prefix": "https://ss3.4sqi.net/img/categories_v2/shops/bikeshop_", "suffix": ".png"}, "primary": true}], "photos": {"count": 0, "groups": []}}, "referralId": "e-0-4e8dea5e61af7424dac44b80-33"}, {"reasons": {"count": 0, "items": [{"summary": "This spot is popular", "type": "general", "reasonName": "globalInteractionReason"}]}, "venue": {"id": "4d1ecb3af7a9a143cbc91e9f", "name": "Bus Stop 77139 (Blk 582)", "location": {"address": "Pasir Ris St 52", "lat": 1.3753287960478142, "lng": 103.94633896607193, "labeledLatLngs": [{"label": "display", "lat": 1.3753287960478142, "lng": 103.94633896607193}], "distance": 413, "cc": "SG", "city": "Kampong Pasir Ris", "country": "Singapore", "formattedAddress": ["Pasir Ris St 52", "Singapore"]}, "categories": [{"id": "4bf58dd8d48988d12b951735", "name": "Bus Line", "pluralName": "Bus Lines", "shortName": "Bus", "icon": {"prefix": "https://ss3.4sqi.net/img/categories_v2/travel/busstation_", "suffix": ".png"}, "primary": true}], "photos": {"count": 0, "groups": []}}, "referralId": "e-0-4d1ecb3af7a9a143cbc91e9f-34"}, {"reasons": {"count": 0, "items": [{"summary": "This spot is popular", "type": "general", "reasonName": "globalInteractionReason"}]}, "venue": {"id": "5651c225498e701dbd4d27ef", "name": "Sheng Siong Supermarket", "location": {"address": "Blk 527D Pasir Ris Street 51 #01-01", "lat": 1.369422994485066, "lng": 103.94776886681008, "labeledLatLngs": [{"label": "display", "lat": 1.369422994485066, "lng": 103.94776886681008}], "distance": 434, "postalCode": "514527", "cc": "SG", "country": "Singapore", "formattedAddress": ["Blk 527D Pasir Ris Street 51 #01-01", "514527", "Singapore"]}, "categories": [{"id": "52f2ab2ebcbc57f1066b8b1c", "name": "Fruit & Vegetable Store", "pluralName": "Fruit & Vegetable Stores", "shortName": "Fruit & Vegetable Store", "icon": {"prefix": "https://ss3.4sqi.net/img/categories_v2/shops/food_grocery_", "suffix": ".png"}, "primary": true}], "photos": {"count": 0, "groups": []}}, "referralId": "e-0-5651c225498e701dbd4d27ef-35"}]}]}}