{"meta": {"code": 200, "requestId": "5e70dcc3aba297001b7f5632"}, "response": {"suggestedFilters": {"header": "Tap to show:", "filters": [{"name": "Open now", "key": "openNow"}]}, "headerLocation": "Pasir Ris", "headerFullLocation": "Pasir Ris, Singapore", "headerLocationGranularity": "neighborhood", "totalResults": 34, "suggestedBounds": {"ne": {"lat": 1.3775307045000045, "lng": 103.95374789247897}, "sw": {"lat": 1.3685306954999954, "lng": 103.94476210752104}}, "groups": [{"type": "Recommended Places", "name": "recommended", "items": [{"reasons": {"count": 0, "items": [{"summary": "This spot is popular", "type": "general", "reasonName": "globalInteractionReason"}]}, "venue": {"id": "4e4babf9aeb72792c33c34c0", "name": "ClubFITT Gym", "location": {"address": "Pasir Ris Sports & Recreation Centre", "crossStreet": "120 Pasir Ris Central", "lat": 1.3739678426786983, "lng": 103.95203931473996, "labeledLatLngs": [{"label": "display", "lat": 1.3739678426786983, "lng": 103.95203931473996}], "distance": 326, "postalCode": "519640", "cc": "SG", "city": "Singapore", "country": "Singapore", "formattedAddress": ["Pasir Ris Sports & Recreation Centre (120 Pasir Ris Central)", "519640", "Singapore"]}, "categories": [{"id": "4bf58dd8d48988d176941735", "name": "Gym", "pluralName": "Gyms", "shortName": "Gym", "icon": {"prefix": "https://ss3.4sqi.net/img/categories_v2/building/gym_", "suffix": ".png"}, "primary": true}], "photos": {"count": 0, "groups": []}}, "referralId": "e-0-4e4babf9aeb72792c33c34c0-0"}, {"reasons": {"count": 0, "items": [{"summary": "This spot is popular", "type": "general", "reasonName": "globalInteractionReason"}]}, "venue": {"id": "4bcda86fcc8cd13a74d9c2cf", "name": "Cottage Pies Cafe", "location": {"address": "White Sands Mall", "lat": 1.3729334103957793, "lng": 103.94960792684566, "labeledLatLngs": [{"label": "display", "lat": 1.3729334103957793, "lng": 103.94960792684566}], "distance": 40, "cc": "SG", "neighborhood": "Pasir Ris", "country": "Singapore", "formattedAddress": ["White Sands Mall", "Singapore"]}, "categories": [{"id": "4bf58dd8d48988d16a941735", "name": "Bakery", "pluralName": "Bakeries", "shortName": "Bakery", "icon": {"prefix": "https://ss3.4sqi.net/img/categories_v2/food/bakery_", "suffix": ".png"}, "primary": true}], "photos": {"count": 0, "groups": []}}, "referralId": "e-0-4bcda86fcc8cd13a74d9c2cf-1"}, {"reasons": {"count": 0, "items": [{"summary": "This spot is popular", "type": "general", "reasonName": "globalInteractionReason"}]}, "venue": {"id": "4c330cb0452620a104ea220f", "name": "Subway", "location": {"address": "#03-03, White Sands", "crossStreet": "1 Pasir Ris Central", "lat": 1.372508645293549, "lng": 103.94941999461136, "labeledLatLngs": [{"label": "display", "lat": 1.372508645293549, "lng": 103.94941999461136}], "distance": 60, "postalCode": "518457", "cc": "SG", "city": "Kampong Pasir Ris", "country": "Singapore", "formattedAddress": ["#03-03, White Sands (1 Pasir Ris Central)", "518457", "Singapore"]}, "categories": [{"id": "4bf58dd8d48988d1c5941735", "name": "Sandwich Place", "pluralName": "Sandwich Places", "shortName": "Sandwiches", "icon": {"prefix": "https://ss3.4sqi.net/img/categories_v2/food/deli_", "suffix": ".png"}, "primary": true}], "photos": {"count": 0, "groups": []}}, "referralId": "e-0-4c330cb0452620a104ea220f-2"}, {"reasons": {"count": 0, "items": [{"summary": "This spot is popular", "type": "general", "reasonName": "globalInteractionReason"}]}, "venue": {"id": "4d9ebb4becb12c0fa6305b89", "name": "Pasir Ris Town Park", "location": {"address": "Pasir Ris Central", "crossStreet": "at Pasir Ris Dr 1 & 3", "lat": 1.372644708666043, "lng": 103.95225048065186, "labeledLatLngs": [{"label": "display", "lat": 1.372644708666043, "lng": 103.95225048065186}], "distance": 336, "cc": "SG", "city": "Kampong Pasir Ris", "country": "Singapore", "formattedAddress": ["Pasir Ris Central (at Pasir Ris Dr 1 & 3)", "Singapore"]}, "categories": [{"id": "4bf58dd8d48988d163941735", "name": "Park", "pluralName": "Parks", "shortName": "Park", "icon": {"prefix": "https://ss3.4sqi.net/img/categories_v2/parks_outdoors/park_", "suffix": ".png"}, "primary": true}], "photos": {"count": 0, "groups": []}}, "referralId": "e-0-4d9ebb4becb12c0fa6305b89-3"}, {"reasons": {"count": 0, "items": [{"summary": "This spot is popular", "type": "general", "reasonName": "globalInteractionReason"}]}, "venue": {"id": "562e171e498eb89ee7be2afa", "name": "Saizeriya Ristorante E Caffe", "location": {"address": "White Sands Shopping Centre", "crossStreet": "1 Pasir Ris Central Street 3", "lat": 1.3723782170005063, "lng": 103.94926110383247, "labeledLatLngs": [{"label": "display", "lat": 1.3723782170005063, "lng": 103.94926110383247}], "distance": 72, "postalCode": "518457", "cc": "SG", "city": "Singapore", "country": "Singapore", "formattedAddress": ["White Sands Shopping Centre (1 Pasir Ris Central Street 3)", "518457", "Singapore"]}, "categories": [{"id": "4bf58dd8d48988d110941735", "name": "Italian Restaurant", "pluralName": "Italian Restaurants", "shortName": "Italian", "icon": {"prefix": "https://ss3.4sqi.net/img/categories_v2/food/italian_", "suffix": ".png"}, "primary": true}], "photos": {"count": 0, "groups": []}}, "referralId": "e-0-562e171e498eb89ee7be2afa-4"}, {"reasons": {"count": 0, "items": [{"summary": "This spot is popular", "type": "general", "reasonName": "globalInteractionReason"}]}, "venue": {"id": "5a69353a3ba7676e2d5fd010", "name": "Pasir Ris Central Hawker Centre", "location": {"address": "110 Pasir Ris Central", "lat": 1.3733275323762193, "lng": 103.95173519122831, "labeledLatLngs": [{"label": "display", "lat": 1.3733275323762193, "lng": 103.95173519122831}], "distance": 277, "postalCode": "519641", "cc": "SG", "neighborhood": "Pasir Ris", "city": "Kampong Pasir Ris", "country": "Singapore", "formattedAddress": ["110 Pasir Ris Central", "519641", "Singapore"]}, "categories": [{"id": "4bf58dd8d48988d120951735", "name": "Food Court", "pluralName": "Food Courts", "shortName": "Food Court", "icon": {"prefix": "https://ss3.4sqi.net/img/categories_v2/shops/food_foodcourt_", "suffix": ".png"}, "primary": true}], "photos": {"count": 0, "groups": []}}, "referralId": "e-0-5a69353a3ba7676e2d5fd010-5"}, {"reasons": {"count": 0, "items": [{"summary": "This spot is popular", "type": "general", "reasonName": "globalInteractionReason"}]}, "venue": {"id": "563c8edacd1044ad65f80a6b", "name": "Starbucks", "location": {"address": "White Sands", "crossStreet": "1 Pasir Ris Central Street 3", "lat": 1.3725183953673978, "lng": 103.94944983362899, "labeledLatLngs": [{"label": "display", "lat": 1.3725183953673978, "lng": 103.94944983362899}], "distance": 61, "postalCode": "518457", "cc": "SG", "city": "Singapore", "country": "Singapore", "formattedAddress": ["White Sands (1 Pasir Ris Central Street 3)", "518457", "Singapore"]}, "categories": [{"id": "4bf58dd8d48988d1e0931735", "name": "Coffee Shop", "pluralName": "Coffee Shops", "shortName": "Coffee Shop", "icon": {"prefix": "https://ss3.4sqi.net/img/categories_v2/food/coffeeshop_", "suffix": ".png"}, "primary": true}], "photos": {"count": 0, "groups": []}}, "referralId": "e-0-563c8edacd1044ad65f80a6b-6"}, {"reasons": {"count": 0, "items": [{"summary": "This spot is popular", "type": "general", "reasonName": "globalInteractionReason"}]}, "venue": {"id": "56ece0eb498e283a8a8eb1a1", "name": "Subway", "location": {"address": "1 Pasir Ris Central #03-03 White Sands", "lat": 1.37264, "lng": 103.950119, "labeledLatLngs": [{"label": "display", "lat": 1.37264, "lng": 103.950119}], "distance": 105, "postalCode": "518457", "cc": "SG", "country": "Singapore", "formattedAddress": ["1 Pasir Ris Central #03-03 White Sands", "518457", "Singapore"]}, "categories": [{"id": "4bf58dd8d48988d1c5941735", "name": "Sandwich Place", "pluralName": "Sandwich Places", "shortName": "Sandwiches", "icon": {"prefix": "https://ss3.4sqi.net/img/categories_v2/food/deli_", "suffix": ".png"}, "primary": true}], "photos": {"count": 0, "groups": []}}, "referralId": "e-0-56ece0eb498e283a8a8eb1a1-7"}, {"reasons": {"count": 0, "items": [{"summary": "This spot is popular", "type": "general", "reasonName": "globalInteractionReason"}]}, "venue": {"id": "4e9f047dbe7b048b34b5c06b", "name": "McDonald's", "location": {"address": "Pasir Ris Sports & Recreation Centre", "crossStreet": "120 Pasir Ris Central", "lat": 1.3742861231258763, "lng": 103.95146264641716, "labeledLatLngs": [{"label": "display", "lat": 1.3742861231258763, "lng": 103.95146264641716}], "distance": 282, "postalCode": "519640", "cc": "SG", "city": "Singapore", "country": "Singapore", "formattedAddress": ["Pasir Ris Sports & Recreation Centre (120 Pasir Ris Central)", "519640", "Singapore"]}, "categories": [{"id": "4bf58dd8d48988d16e941735", "name": "Fast Food Restaurant", "pluralName": "Fast Food Restaurants", "shortName": "Fast Food", "icon": {"prefix": "https://ss3.4sqi.net/img/categories_v2/food/fastfood_", "suffix": ".png"}, "primary": true}], "photos": {"count": 0, "groups": []}}, "referralId": "e-0-4e9f047dbe7b048b34b5c06b-8"}, {"reasons": {"count": 0, "items": [{"summary": "This spot is popular", "type": "general", "reasonName": "globalInteractionReason"}]}, "venue": {"id": "4b058818f964a520bdb122e3", "name": "White Sands Shopping Centre", "location": {"address": "1 Pasir Ris Central Street 3", "crossStreet": "next to Pasir Ris MRT station", "lat": 1.3724327567675692, "lng": 103.94948394638837, "labeledLatLngs": [{"label": "display", "lat": 1.3724327567675692, "lng": 103.94948394638837}], "distance": 71, "postalCode": "518457", "cc": "SG", "city": "Singapore", "country": "Singapore", "formattedAddress": ["1 Pasir Ris Central Street 3 (next to Pasir Ris MRT station)", "518457", "Singapore"]}, "categories": [{"id": "4bf58dd8d48988d1fd941735", "name": "Shopping Mall", "pluralName": "Shopping Malls", "shortName": "Mall", "icon": {"prefix": "https://ss3.4sqi.net/img/categories_v2/shops/mall_", "suffix": ".png"}, "primary": true}], "photos": {"count": 0, "groups": []}, "venuePage": {"id": "46441670"}}, "referralId": "e-0-4b058818f964a520bdb122e3-9"}, {"reasons": {"count": 0, "items": [{"summary": "This spot is popular", "type": "general", "reasonName": "globalInteractionReason"}]}, "venue": {"id": "4e0c18041838fa426ac54376", "name": "Pasir Ris Sports & Recreation Centre", "location": {"address": "120 Pasir Ris Central", "crossStreet": "near Pasir Ris Bus Interchange & MRT", "lat": 1.3741177894556795, "lng": 103.95151232628591, "labeledLatLngs": [{"label": "display", "lat": 1.3741177894556795, "lng": 103.95151232628591}], "distance": 278, "postalCode": "519640", "cc": "SG", "city": "Singapore", "country": "Singapore", "formattedAddress": ["120 Pasir Ris Central (near Pasir Ris Bus Interchange & MRT)", "519640", "Singapore"]}, "categories": [{"id": "52e81612bcbc57f1066b7a26", "name": "Recreation Center", "pluralName": "Recreation Centers", "shortName": "Recreation Center", "icon": {"prefix": "https://ss3.4sqi.net/img/categories_v2/shops/sports_outdoors_", "suffix": ".png"}, "primary": true}], "photos": {"count": 0, "groups": []}}, "referralId": "e-0-4e0c18041838fa426ac54376-10"}, {"reasons": {"count": 0, "items": [{"summary": "This spot is popular", "type": "general", "reasonName": "globalInteractionReason"}]}, "venue": {"id": "5540d4bb498e9b06b12bba88", "name": "Cookhouse by Koufu", "location": {"address": "Level 3, White Sands", "crossStreet": "1 Pasir Ris Central St 3", "lat": 1.372647648550216, "lng": 103.95004698131314, "labeledLatLngs": [{"label": "display", "lat": 1.372647648550216, "lng": 103.95004698131314}], "distance": 97, "cc": "SG", "city": "Singapore", "country": "Singapore", "formattedAddress": ["Level 3, White Sands (1 Pasir Ris Central St 3)", "Singapore"]}, "categories": [{"id": "4bf58dd8d48988d120951735", "name": "Food Court", "pluralName": "Food Courts", "shortName": "Food Court", "icon": {"prefix": "https://ss3.4sqi.net/img/categories_v2/shops/food_foodcourt_", "suffix": ".png"}, "primary": true}], "photos": {"count": 0, "groups": []}}, "referralId": "e-0-5540d4bb498e9b06b12bba88-11"}, {"reasons": {"count": 0, "items": [{"summary": "This spot is popular", "type": "general", "reasonName": "globalInteractionReason"}]}, "venue": {"id": "4b163a0ff964a520b1b723e3", "name": "KFC", "location": {"address": "#01-14/15, White Sands", "crossStreet": "1 Pasir Ris Central St 3", "lat": 1.3725176995810868, "lng": 103.95007884366613, "labeledLatLngs": [{"label": "display", "lat": 1.3725176995810868, "lng": 103.95007884366613}], "distance": 108, "postalCode": "518457", "cc": "SG", "city": "Singapore", "country": "Singapore", "formattedAddress": ["#01-14/15, White Sands (1 Pasir Ris Central St 3)", "518457", "Singapore"]}, "categories": [{"id": "4bf58dd8d48988d16e941735", "name": "Fast Food Restaurant", "pluralName": "Fast Food Restaurants", "shortName": "Fast Food", "icon": {"prefix": "https://ss3.4sqi.net/img/categories_v2/food/fastfood_", "suffix": ".png"}, "primary": true}], "photos": {"count": 0, "groups": []}}, "referralId": "e-0-4b163a0ff964a520b1b723e3-12"}, {"reasons": {"count": 0, "items": [{"summary": "This spot is popular", "type": "general", "reasonName": "globalInteractionReason"}]}, "venue": {"id": "4c9c314b9c48236a4d274cee", "name": "Arches Hair Spa", "location": {"address": "White Sands Shopping Centre", "crossStreet": "#04-14, 1 Pasir Ris Central St 3", "lat": 1.372455312131258, "lng": 103.94950541810685, "labeledLatLngs": [{"label": "display", "lat": 1.372455312131258, "lng": 103.94950541810685}], "distance": 69, "postalCode": "518457", "cc": "SG", "city": "Singapore", "country": "Singapore", "formattedAddress": ["White Sands Shopping Centre (#04-14, 1 Pasir Ris Central St 3)", "518457", "Singapore"]}, "categories": [{"id": "4bf58dd8d48988d110951735", "name": "Salon / Barbershop", "pluralName": "Salons / Barbershops", "shortName": "Salon / Barbershop", "icon": {"prefix": "https://ss3.4sqi.net/img/categories_v2/shops/salon_barber_", "suffix": ".png"}, "primary": true}], "photos": {"count": 0, "groups": []}}, "referralId": "e-0-4c9c314b9c48236a4d274cee-13"}, {"reasons": {"count": 0, "items": [{"summary": "This spot is popular", "type": "general", "reasonName": "globalInteractionReason"}]}, "venue": {"id": "4e8dbffddab404822e2c5f6e", "name": "Pastamania", "location": {"address": "Pasir Ris Sports & Recreation Center", "lat": 1.3739945338968895, "lng": 103.95184507422461, "labeledLatLngs": [{"label": "display", "lat": 1.3739945338968895, "lng": 103.95184507422461}], "distance": 307, "postalCode": "519640", "cc": "SG", "country": "Singapore", "formattedAddress": ["Pasir Ris Sports & Recreation Center", "519640", "Singapore"]}, "categories": [{"id": "4bf58dd8d48988d110941735", "name": "Italian Restaurant", "pluralName": "Italian Restaurants", "shortName": "Italian", "icon": {"prefix": "https://ss3.4sqi.net/img/categories_v2/food/italian_", "suffix": ".png"}, "primary": true}], "photos": {"count": 0, "groups": []}}, "referralId": "e-0-4e8dbffddab404822e2c5f6e-14"}, {"reasons": {"count": 0, "items": [{"summary": "This spot is popular", "type": "general", "reasonName": "globalInteractionReason"}]}, "venue": {"id": "4c11d122d41e76b02722320d", "name": "Ananas Cafe", "location": {"address": "#01-02/05, Pasir Ris MRT Station", "crossStreet": "10 Pasir Ris Central", "lat": 1.3726060545143997, "lng": 103.94938930981033, "labeledLatLngs": [{"label": "display", "lat": 1.3726060545143997, "lng": 103.94938930981033}], "distance": 49, "postalCode": "519634", "cc": "SG", "city": "Singapore", "country": "Singapore", "formattedAddress": ["#01-02/05, Pasir Ris MRT Station (10 Pasir Ris Central)", "519634", "Singapore"]}, "categories": [{"id": "4bf58dd8d48988d142941735", "name": "Asian Restaurant", "pluralName": "Asian Restaurants", "shortName": "Asian", "icon": {"prefix": "https://ss3.4sqi.net/img/categories_v2/food/asian_", "suffix": ".png"}, "primary": true}], "photos": {"count": 0, "groups": []}}, "referralId": "e-0-4c11d122d41e76b02722320d-15"}, {"reasons": {"count": 0, "items": [{"summary": "This spot is popular", "type": "general", "reasonName": "globalInteractionReason"}]}, "venue": {"id": "5a880658eaf49a4b944492ee", "name": "Fareground", "location": {"address": "Level 2 Pasir Ris Central Hawker Centre", "lat": 1.3733527347416468, "lng": 103.95169342310203, "labeledLatLngs": [{"label": "display", "lat": 1.3733527347416468, "lng": 103.95169342310203}], "distance": 273, "postalCode": "519641", "cc": "SG", "city": "Kampong Pasir Ris", "country": "Singapore", "formattedAddress": ["Level 2 Pasir Ris Central Hawker Centre", "519641", "Singapore"]}, "categories": [{"id": "4bf58dd8d48988d120951735", "name": "Food Court", "pluralName": "Food Courts", "shortName": "Food Court", "icon": {"prefix": "https://ss3.4sqi.net/img/categories_v2/shops/food_foodcourt_", "suffix": ".png"}, "primary": true}], "photos": {"count": 0, "groups": []}}, "referralId": "e-0-5a880658eaf49a4b944492ee-16"}, {"reasons": {"count": 0, "items": [{"summary": "This spot is popular", "type": "general", "reasonName": "globalInteractionReason"}]}, "venue": {"id": "555d72f6498e8d4117358471", "name": "Sushi Express", "location": {"address": "White Sands Shopping Mall", "lat": 1.3725145692210778, "lng": 103.94994879519133, "labeledLatLngs": [{"label": "display", "lat": 1.3725145692210778, "lng": 103.94994879519133}], "distance": 96, "cc": "SG", "city": "Singapore", "country": "Singapore", "formattedAddress": ["White Sands Shopping Mall", "Singapore"]}, "categories": [{"id": "4bf58dd8d48988d1d2941735", "name": "Sushi Restaurant", "pluralName": "Sushi Restaurants", "shortName": "Sushi", "icon": {"prefix": "https://ss3.4sqi.net/img/categories_v2/food/sushi_", "suffix": ".png"}, "primary": true}], "photos": {"count": 0, "groups": []}}, "referralId": "e-0-555d72f6498e8d4117358471-17"}, {"reasons": {"count": 0, "items": [{"summary": "This spot is popular", "type": "general", "reasonName": "globalInteractionReason"}]}, "venue": {"id": "4c500eb31886c9b600610a28", "name": "NTUC FairPrice", "location": {"address": "#B1-10, White Sands Shopping Centre", "crossStreet": "1 Pasir Ris Central St 3", "lat": 1.3725479107734047, "lng": 103.94948574239149, "labeledLatLngs": [{"label": "display", "lat": 1.3725479107734047, "lng": 103.94948574239149}], "distance": 59, "postalCode": "518457", "cc": "SG", "city": "Singapore", "country": "Singapore", "formattedAddress": ["#B1-10, White Sands Shopping Centre (1 Pasir Ris Central St 3)", "518457", "Singapore"]}, "categories": [{"id": "52f2ab2ebcbc57f1066b8b46", "name": "Supermarket", "pluralName": "Supermarkets", "shortName": "Supermarket", "icon": {"prefix": "https://ss3.4sqi.net/img/categories_v2/shops/food_grocery_", "suffix": ".png"}, "primary": true}], "photos": {"count": 0, "groups": []}}, "referralId": "e-0-4c500eb31886c9b600610a28-18"}, {"reasons": {"count": 0, "items": [{"summary": "This spot is popular", "type": "general", "reasonName": "globalInteractionReason"}]}, "venue": {"id": "4b6549dff964a52006ec2ae3", "name": "Ya Kun Kaya Toast \u4e9e\u5764", "location": {"address": "#B1-20/21 White Sands Shopping Centre", "crossStreet": "1 Pasir Ris Central St 3", "lat": 1.3724771942243048, "lng": 103.95004195122605, "labeledLatLngs": [{"label": "display", "lat": 1.3724771942243048, "lng": 103.95004195122605}], "distance": 107, "postalCode": "518487", "cc": "SG", "city": "Singapore", "country": "Singapore", "formattedAddress": ["#B1-20/21 White Sands Shopping Centre (1 Pasir Ris Central St 3)", "518487", "Singapore"]}, "categories": [{"id": "4bf58dd8d48988d1e0931735", "name": "Coffee Shop", "pluralName": "Coffee Shops", "shortName": "Coffee Shop", "icon": {"prefix": "https://ss3.4sqi.net/img/categories_v2/food/coffeeshop_", "suffix": ".png"}, "primary": true}], "photos": {"count": 0, "groups": []}}, "referralId": "e-0-4b6549dff964a52006ec2ae3-19"}, {"reasons": {"count": 0, "items": [{"summary": "This spot is popular", "type": "general", "reasonName": "globalInteractionReason"}]}, "venue": {"id": "4c8f9221b3bcb60cf6b56227", "name": "McDonald's", "location": {"address": "#01/02-29/30/13/14 White Sands", "crossStreet": "1 Pasir Ris Central St 3", "lat": 1.3724321294542305, "lng": 103.94936916075831, "labeledLatLngs": [{"label": "display", "lat": 1.3724321294542305, "lng": 103.94936916075831}], "distance": 67, "postalCode": "518457", "cc": "SG", "city": "Singapore", "country": "Singapore", "formattedAddress": ["#01/02-29/30/13/14 White Sands (1 Pasir Ris Central St 3)", "518457", "Singapore"]}, "categories": [{"id": "4bf58dd8d48988d16e941735", "name": "Fast Food Restaurant", "pluralName": "Fast Food Restaurants", "shortName": "Fast Food", "icon": {"prefix": "https://ss3.4sqi.net/img/categories_v2/food/fastfood_", "suffix": ".png"}, "primary": true}], "photos": {"count": 0, "groups": []}}, "referralId": "e-0-4c8f9221b3bcb60cf6b56227-20"}, {"reasons": {"count": 0, "items": [{"summary": "This spot is popular", "type": "general", "reasonName": "globalInteractionReason"}]}, "venue": {"id": "56443c8a498eb98e5ac23738", "name": "MOS Burger", "location": {"address": "White Sands Shopping Mall #02-24", "crossStreet": "1 Pasir Ris Central St 3", "lat": 1.3725302818466942, "lng": 103.94942149476381, "labeledLatLngs": [{"label": "display", "lat": 1.3725302818466942, "lng": 103.94942149476381}], "distance": 58, "cc": "SG", "city": "Singapore", "country": "Singapore", "formattedAddress": ["White Sands Shopping Mall #02-24 (1 Pasir Ris Central St 3)", "Singapore"]}, "categories": [{"id": "4bf58dd8d48988d16c941735", "name": "Burger Joint", "pluralName": "Burger Joints", "shortName": "Burgers", "icon": {"prefix": "https://ss3.4sqi.net/img/categories_v2/food/burger_", "suffix": ".png"}, "primary": true}], "photos": {"count": 0, "groups": []}}, "referralId": "e-0-56443c8a498eb98e5ac23738-21"}, {"reasons": {"count": 0, "items": [{"summary": "This spot is popular", "type": "general", "reasonName": "globalInteractionReason"}]}, "venue": {"id": "4d0c2d28be6d6ea800c1fdb4", "name": "Downtown East Shuttle Bus", "location": {"address": "10 Pasir Ris Central", "lat": 1.3724047742936756, "lng": 103.94871929310159, "labeledLatLngs": [{"label": "display", "lat": 1.3724047742936756, "lng": 103.94871929310159}], "distance": 91, "postalCode": "519634", "cc": "SG", "city": "Singapore", "country": "Singapore", "formattedAddress": ["10 Pasir Ris Central", "519634", "Singapore"]}, "categories": [{"id": "4bf58dd8d48988d1fe931735", "name": "Bus Station", "pluralName": "Bus Stations", "shortName": "Bus Station", "icon": {"prefix": "https://ss3.4sqi.net/img/categories_v2/travel/busstation_", "suffix": ".png"}, "primary": true}], "photos": {"count": 0, "groups": []}}, "referralId": "e-0-4d0c2d28be6d6ea800c1fdb4-22"}, {"reasons": {"count": 0, "items": [{"summary": "This spot is popular", "type": "general", "reasonName": "globalInteractionReason"}]}, "venue": {"id": "4b53f059f964a52013af27e3", "name": "Superdog", "location": {"address": "1 Pasir Ris Central St. 3", "crossStreet": "White Sands", "lat": 1.3724749782345915, "lng": 103.94950240439069, "labeledLatLngs": [{"label": "display", "lat": 1.3724749782345915, "lng": 103.94950240439069}], "distance": 67, "postalCode": "518457", "cc": "SG", "city": "Singapore", "country": "Singapore", "formattedAddress": ["1 Pasir Ris Central St. 3 (White Sands)", "518457", "Singapore"]}, "categories": [{"id": "4bf58dd8d48988d16f941735", "name": "Hot Dog Joint", "pluralName": "Hot Dog Joints", "shortName": "Hot Dogs", "icon": {"prefix": "https://ss3.4sqi.net/img/categories_v2/food/hotdog_", "suffix": ".png"}, "primary": true}], "photos": {"count": 0, "groups": []}}, "referralId": "e-0-4b53f059f964a52013af27e3-23"}, {"reasons": {"count": 0, "items": [{"summary": "This spot is popular", "type": "general", "reasonName": "globalInteractionReason"}]}, "venue": {"id": "4d0f62fd6331a093627b5094", "name": "Go-Ahead: Bus 359", "location": {"lat": 1.3716771058200792, "lng": 103.9481711328602, "labeledLatLngs": [{"label": "display", "lat": 1.3716771058200792, "lng": 103.9481711328602}], "distance": 193, "cc": "SG", "city": "Singapore", "country": "Singapore", "formattedAddress": ["Singapore"]}, "categories": [{"id": "4bf58dd8d48988d12b951735", "name": "Bus Line", "pluralName": "Bus Lines", "shortName": "Bus", "icon": {"prefix": "https://ss3.4sqi.net/img/categories_v2/travel/busstation_", "suffix": ".png"}, "primary": true}], "photos": {"count": 0, "groups": []}}, "referralId": "e-0-4d0f62fd6331a093627b5094-24"}, {"reasons": {"count": 0, "items": [{"summary": "This spot is popular", "type": "general", "reasonName": "globalInteractionReason"}]}, "venue": {"id": "4cd28dda83e0721e5c8f5797", "name": "Bike Station @ Pasir Ris MRT", "location": {"lat": 1.3718229029344013, "lng": 103.948720709503, "labeledLatLngs": [{"label": "display", "lat": 1.3718229029344013, "lng": 103.948720709503}], "distance": 147, "cc": "SG", "country": "Singapore", "formattedAddress": ["Singapore"]}, "categories": [{"id": "4e4c9077bd41f78e849722f9", "name": "Bike Rental / Bike Share", "pluralName": "Bike Rentals / Bike Shares", "shortName": "Bike", "icon": {"prefix": "https://ss3.4sqi.net/img/categories_v2/shops/bikeshop_", "suffix": ".png"}, "primary": true}], "photos": {"count": 0, "groups": []}}, "referralId": "e-0-4cd28dda83e0721e5c8f5797-25"}, {"reasons": {"count": 0, "items": [{"summary": "This spot is popular", "type": "general", "reasonName": "globalInteractionReason"}]}, "venue": {"id": "4e1901a6fa76194645974081", "name": "PRC #90 Crew Room", "location": {"address": "1 Pasir Ris Street 3", "lat": 1.3721554430804133, "lng": 103.94952554654445, "labeledLatLngs": [{"label": "display", "lat": 1.3721554430804133, "lng": 103.94952554654445}], "distance": 101, "cc": "SG", "country": "Singapore", "formattedAddress": ["1 Pasir Ris Street 3", "Singapore"]}, "categories": [{"id": "4bf58dd8d48988d128941735", "name": "Cafeteria", "pluralName": "Cafeterias", "shortName": "Cafeteria", "icon": {"prefix": "https://ss3.4sqi.net/img/categories_v2/education/cafeteria_", "suffix": ".png"}, "primary": true}], "photos": {"count": 0, "groups": []}}, "referralId": "e-0-4e1901a6fa76194645974081-26"}, {"reasons": {"count": 0, "items": [{"summary": "This spot is popular", "type": "general", "reasonName": "globalInteractionReason"}]}, "venue": {"id": "4e116e6d52b1655efa4627a3", "name": "McCafe/ Dessert Kiosk", "location": {"address": "1 Pasir Ris Central Street 3 (White Sands)", "lat": 1.3734909138341367, "lng": 103.94928161988315, "labeledLatLngs": [{"label": "display", "lat": 1.3734909138341367, "lng": 103.94928161988315}], "distance": 51, "cc": "SG", "country": "Singapore", "formattedAddress": ["1 Pasir Ris Central Street 3 (White Sands)", "Singapore"]}, "categories": [{"id": "4bf58dd8d48988d16d941735", "name": "Caf\u00e9", "pluralName": "Caf\u00e9s", "shortName": "Caf\u00e9", "icon": {"prefix": "https://ss3.4sqi.net/img/categories_v2/food/cafe_", "suffix": ".png"}, "primary": true}], "photos": {"count": 0, "groups": []}}, "referralId": "e-0-4e116e6d52b1655efa4627a3-27"}, {"reasons": {"count": 0, "items": [{"summary": "This spot is popular", "type": "general", "reasonName": "globalInteractionReason"}]}, "venue": {"id": "5657d7db498e51f6dd9d3fe5", "name": "Gurney Drive Signatures", "location": {"address": "White Sands Shopping Centre", "lat": 1.3723976428367057, "lng": 103.94945725895643, "labeledLatLngs": [{"label": "display", "lat": 1.3723976428367057, "lng": 103.94945725895643}], "distance": 73, "cc": "SG", "country": "Singapore", "formattedAddress": ["White Sands Shopping Centre", "Singapore"]}, "categories": [{"id": "52e81612bcbc57f1066b7a00", "name": "Comfort Food Restaurant", "pluralName": "Comfort Food Restaurants", "shortName": "Comfort Food", "icon": {"prefix": "https://ss3.4sqi.net/img/categories_v2/food/default_", "suffix": ".png"}, "primary": true}], "photos": {"count": 0, "groups": []}}, "referralId": "e-0-5657d7db498e51f6dd9d3fe5-28"}, {"reasons": {"count": 0, "items": [{"summary": "This spot is popular", "type": "general", "reasonName": "globalInteractionReason"}]}, "venue": {"id": "4e2400e345dd950bb03e7e23", "name": "Pasir Ris SRC Swimming Pool", "location": {"address": "120 Pasir Ris Central", "lat": 1.3743499478743066, "lng": 103.95219385794532, "labeledLatLngs": [{"label": "display", "lat": 1.3743499478743066, "lng": 103.95219385794532}], "distance": 358, "postalCode": "519640", "cc": "SG", "city": "Singapore", "country": "Singapore", "formattedAddress": ["120 Pasir Ris Central", "519640", "Singapore"]}, "categories": [{"id": "4bf58dd8d48988d15e941735", "name": "Pool", "pluralName": "Pools", "shortName": "Pool", "icon": {"prefix": "https://ss3.4sqi.net/img/categories_v2/parks_outdoors/pool_", "suffix": ".png"}, "primary": true}], "photos": {"count": 0, "groups": []}}, "referralId": "e-0-4e2400e345dd950bb03e7e23-29"}, {"reasons": {"count": 0, "items": [{"summary": "This spot is popular", "type": "general", "reasonName": "globalInteractionReason"}]}, "venue": {"id": "5a88082cc824ae189803cc94", "name": "Burgernomics", "location": {"address": "#02-03 Pasir Ris Central Hawker Centre", "crossStreet": "110 Pasir Ris Central", "lat": 1.373338, "lng": 103.95142, "labeledLatLngs": [{"label": "display", "lat": 1.373338, "lng": 103.95142}], "distance": 243, "postalCode": "519641", "cc": "SG", "neighborhood": "Pasir Ris", "city": "Kampong Pasir Ris", "country": "Singapore", "formattedAddress": ["#02-03 Pasir Ris Central Hawker Centre (110 Pasir Ris Central)", "519641", "Singapore"]}, "categories": [{"id": "4bf58dd8d48988d16c941735", "name": "Burger Joint", "pluralName": "Burger Joints", "shortName": "Burgers", "icon": {"prefix": "https://ss3.4sqi.net/img/categories_v2/food/burger_", "suffix": ".png"}, "primary": true}], "photos": {"count": 0, "groups": []}}, "referralId": "e-0-5a88082cc824ae189803cc94-30"}, {"reasons": {"count": 0, "items": [{"summary": "This spot is popular", "type": "general", "reasonName": "globalInteractionReason"}]}, "venue": {"id": "4e12ff3ed1647a0fff8e2df6", "name": "Freeman Florist", "location": {"address": "#B1-K6 White Sands Shopping Centre", "crossStreet": "1 Pasir Ris Central St 3", "lat": 1.371876552959074, "lng": 103.94720796258812, "labeledLatLngs": [{"label": "display", "lat": 1.371876552959074, "lng": 103.94720796258812}], "distance": 261, "postalCode": "518457", "cc": "SG", "city": "Singapore", "country": "Singapore", "formattedAddress": ["#B1-K6 White Sands Shopping Centre (1 Pasir Ris Central St 3)", "518457", "Singapore"]}, "categories": [{"id": "4bf58dd8d48988d11b951735", "name": "Flower Shop", "pluralName": "Flower Shops", "shortName": "Flower Shop", "icon": {"prefix": "https://ss3.4sqi.net/img/categories_v2/shops/flowershop_", "suffix": ".png"}, "primary": true}], "photos": {"count": 0, "groups": []}}, "referralId": "e-0-4e12ff3ed1647a0fff8e2df6-31"}, {"reasons": {"count": 0, "items": [{"summary": "This spot is popular", "type": "general", "reasonName": "globalInteractionReason"}]}, "venue": {"id": "555c804c498e3451c2b80e83", "name": "NTUC Foodfare", "location": {"address": "Block 527C", "crossStreet": "Pasir Ris St 51", "lat": 1.3694883433402023, "lng": 103.94830967489486, "labeledLatLngs": [{"label": "display", "lat": 1.3694883433402023, "lng": 103.94830967489486}], "distance": 408, "cc": "SG", "city": "Singapore", "country": "Singapore", "formattedAddress": ["Block 527C (Pasir Ris St 51)", "Singapore"]}, "categories": [{"id": "4bf58dd8d48988d1c4941735", "name": "Restaurant", "pluralName": "Restaurants", "shortName": "Restaurant", "icon": {"prefix": "https://ss3.4sqi.net/img/categories_v2/food/default_", "suffix": ".png"}, "primary": true}], "photos": {"count": 0, "groups": []}}, "referralId": "e-0-555c804c498e3451c2b80e83-32"}, {"reasons": {"count": 0, "items": [{"summary": "This spot is popular", "type": "general", "reasonName": "globalInteractionReason"}]}, "venue": {"id": "4e8dea5e61af7424dac44b80", "name": "PCN Pit Stop", "location": {"address": "Pasir Ris Park Connector", "lat": 1.3747420551516407, "lng": 103.95232983943617, "labeledLatLngs": [{"label": "display", "lat": 1.3747420551516407, "lng": 103.95232983943617}], "distance": 391, "cc": "SG", "city": "Singapore", "country": "Singapore", "formattedAddress": ["Pasir Ris Park Connector", "Singapore"]}, "categories": [{"id": "4e4c9077bd41f78e849722f9", "name": "Bike Rental / Bike Share", "pluralName": "Bike Rentals / Bike Shares", "shortName": "Bike", "icon": {"prefix": "https://ss3.4sqi.net/img/categories_v2/shops/bikeshop_", "suffix": ".png"}, "primary": true}], "photos": {"count": 0, "groups": []}}, "referralId": "e-0-4e8dea5e61af7424dac44b80-33"}]}]}}