{"meta": {"code": 200, "requestId": "5e6ee659760a7f001bc61d96"}, "response": {"headerLocation": "Jurong West", "headerFullLocation": "Jurong West, Singapore", "headerLocationGranularity": "neighborhood", "totalResults": 12, "suggestedBounds": {"ne": {"lat": 1.3420884045000043, "lng": 103.70190322672545}, "sw": {"lat": 1.3330883954999952, "lng": 103.69291757327457}}, "groups": [{"type": "Recommended Places", "name": "recommended", "items": [{"reasons": {"count": 0, "items": [{"summary": "This spot is popular", "type": "general", "reasonName": "globalInteractionReason"}]}, "venue": {"id": "4c90b239238c6dcb9951b955", "name": "Jurong West Swimming Complex", "location": {"address": "Jurong West Sports And Recreation Centre/Stadium", "crossStreet": "20 Jurong West St 93", "lat": 1.338226962073866, "lng": 103.69401165806582, "labeledLatLngs": [{"label": "display", "lat": 1.338226962073866, "lng": 103.69401165806582}], "distance": 384, "postalCode": "648965", "cc": "SG", "city": "Singapore", "country": "Singapore", "formattedAddress": ["Jurong West Sports And Recreation Centre/Stadium (20 Jurong West St 93)", "648965", "Singapore"]}, "categories": [{"id": "4bf58dd8d48988d15e941735", "name": "Pool", "pluralName": "Pools", "shortName": "Pool", "icon": {"prefix": "https://ss3.4sqi.net/img/categories_v2/parks_outdoors/pool_", "suffix": ".png"}, "primary": true}], "photos": {"count": 0, "groups": []}}, "referralId": "e-0-4c90b239238c6dcb9951b955-0"}, {"reasons": {"count": 0, "items": [{"summary": "This spot is popular", "type": "general", "reasonName": "globalInteractionReason"}]}, "venue": {"id": "4bfa4fb58f32ef3b73db04aa", "name": "Jurong West ActiveSg Gym", "location": {"address": "#02-01/04 20 Jurong West Street 93", "lat": 1.3379214307694804, "lng": 103.69451454786707, "labeledLatLngs": [{"label": "display", "lat": 1.3379214307694804, "lng": 103.69451454786707}], "distance": 324, "postalCode": "648965", "cc": "SG", "city": "Singapore", "country": "Singapore", "formattedAddress": ["#02-01/04 20 Jurong West Street 93", "648965", "Singapore"]}, "categories": [{"id": "4bf58dd8d48988d175941735", "name": "Gym / Fitness Center", "pluralName": "Gyms or Fitness Centers", "shortName": "Gym / Fitness", "icon": {"prefix": "https://ss3.4sqi.net/img/categories_v2/building/gym_", "suffix": ".png"}, "primary": true}], "photos": {"count": 0, "groups": []}}, "referralId": "e-0-4bfa4fb58f32ef3b73db04aa-1"}, {"reasons": {"count": 0, "items": [{"summary": "This spot is popular", "type": "general", "reasonName": "globalInteractionReason"}]}, "venue": {"id": "4bcb11ef511f95218ab2b0c7", "name": "McDonald's", "location": {"address": "#01-01/02, Pioneer Mall", "crossStreet": "638 Jurong West St 61", "lat": 1.341657689621912, "lng": 103.69683393353712, "labeledLatLngs": [{"label": "display", "lat": 1.341657689621912, "lng": 103.69683393353712}], "distance": 457, "postalCode": "640638", "cc": "SG", "city": "Singapore", "country": "Singapore", "formattedAddress": ["#01-01/02, Pioneer Mall (638 Jurong West St 61)", "640638", "Singapore"]}, "categories": [{"id": "4bf58dd8d48988d16e941735", "name": "Fast Food Restaurant", "pluralName": "Fast Food Restaurants", "shortName": "Fast Food", "icon": {"prefix": "https://ss3.4sqi.net/img/categories_v2/food/fastfood_", "suffix": ".png"}, "primary": true}], "photos": {"count": 0, "groups": []}}, "referralId": "e-0-4bcb11ef511f95218ab2b0c7-2"}, {"reasons": {"count": 0, "items": [{"summary": "This spot is popular", "type": "general", "reasonName": "globalInteractionReason"}]}, "venue": {"id": "4bd357239854d13aca8dfd4d", "name": "Jurong West Sports and Recreation Centre", "location": {"address": "20 Jurong West St. 93", "lat": 1.3384936555025502, "lng": 103.69487643241882, "labeledLatLngs": [{"label": "display", "lat": 1.3384936555025502, "lng": 103.69487643241882}], "distance": 299, "postalCode": "648965", "cc": "SG", "city": "Singapore", "country": "Singapore", "formattedAddress": ["20 Jurong West St. 93", "648965", "Singapore"]}, "categories": [{"id": "4bf58dd8d48988d184941735", "name": "Stadium", "pluralName": "Stadiums", "shortName": "Stadium", "icon": {"prefix": "https://ss3.4sqi.net/img/categories_v2/arts_entertainment/stadium_", "suffix": ".png"}, "primary": true}], "photos": {"count": 0, "groups": []}}, "referralId": "e-0-4bd357239854d13aca8dfd4d-3"}, {"reasons": {"count": 0, "items": [{"summary": "This spot is popular", "type": "general", "reasonName": "globalInteractionReason"}]}, "venue": {"id": "4cdf7ae9df986ea831a3e216", "name": "Bus Stop 22469 (Blk 653B)", "location": {"address": "Pioneer Road North", "lat": 1.3363699246796976, "lng": 103.69634628295898, "labeledLatLngs": [{"label": "display", "lat": 1.3363699246796976, "lng": 103.69634628295898}], "distance": 180, "cc": "SG", "city": "Singapore", "country": "Singapore", "formattedAddress": ["Pioneer Road North", "Singapore"]}, "categories": [{"id": "4bf58dd8d48988d1fe931735", "name": "Bus Station", "pluralName": "Bus Stations", "shortName": "Bus Station", "icon": {"prefix": "https://ss3.4sqi.net/img/categories_v2/travel/busstation_", "suffix": ".png"}, "primary": true}], "photos": {"count": 0, "groups": []}}, "referralId": "e-0-4cdf7ae9df986ea831a3e216-4"}, {"reasons": {"count": 0, "items": [{"summary": "This spot is popular", "type": "general", "reasonName": "globalInteractionReason"}]}, "venue": {"id": "4b80d54cf964a5204b8e30e3", "name": "Giant Hyper", "location": {"address": "#03-01 Pioneer Mall", "crossStreet": "638 Jurong West Street 61", "lat": 1.3420188306419947, "lng": 103.69708806794748, "labeledLatLngs": [{"label": "display", "lat": 1.3420188306419947, "lng": 103.69708806794748}], "distance": 494, "postalCode": "640638", "cc": "SG", "neighborhood": "Jurong West", "city": "Singapore", "country": "Singapore", "formattedAddress": ["#03-01 Pioneer Mall (638 Jurong West Street 61)", "640638", "Singapore"]}, "categories": [{"id": "52f2ab2ebcbc57f1066b8b46", "name": "Supermarket", "pluralName": "Supermarkets", "shortName": "Supermarket", "icon": {"prefix": "https://ss3.4sqi.net/img/categories_v2/shops/food_grocery_", "suffix": ".png"}, "primary": true}], "photos": {"count": 0, "groups": []}}, "referralId": "e-0-4b80d54cf964a5204b8e30e3-5"}, {"reasons": {"count": 0, "items": [{"summary": "This spot is popular", "type": "general", "reasonName": "globalInteractionReason"}]}, "venue": {"id": "4f5cbf78e4b008b1577d0b0c", "name": "7-Eleven", "location": {"address": "988C Jurong West St 93 #01-645", "lat": 1.3355355093616401, "lng": 103.69525314189463, "labeledLatLngs": [{"label": "display", "lat": 1.3355355093616401, "lng": 103.69525314189463}], "distance": 331, "cc": "SG", "country": "Singapore", "formattedAddress": ["988C Jurong West St 93 #01-645", "Singapore"]}, "categories": [{"id": "4d954b0ea243a5684a65b473", "name": "Convenience Store", "pluralName": "Convenience Stores", "shortName": "Convenience Store", "icon": {"prefix": "https://ss3.4sqi.net/img/categories_v2/shops/conveniencestore_", "suffix": ".png"}, "primary": true}], "photos": {"count": 0, "groups": []}}, "referralId": "e-0-4f5cbf78e4b008b1577d0b0c-6"}, {"reasons": {"count": 0, "items": [{"summary": "This spot is popular", "type": "general", "reasonName": "globalInteractionReason"}]}, "venue": {"id": "4d721ad94ab5224baed0b997", "name": "Playground @ Jurong West Street 61", "location": {"address": "Jurong West Street 61", "lat": 1.3404270995315581, "lng": 103.69920879631431, "labeledLatLngs": [{"label": "display", "lat": 1.3404270995315581, "lng": 103.69920879631431}], "distance": 374, "cc": "SG", "city": "Singapore", "country": "Singapore", "formattedAddress": ["Jurong West Street 61", "Singapore"]}, "categories": [{"id": "4bf58dd8d48988d1e7941735", "name": "Playground", "pluralName": "Playgrounds", "shortName": "Playground", "icon": {"prefix": "https://ss3.4sqi.net/img/categories_v2/parks_outdoors/playground_", "suffix": ".png"}, "primary": true}], "photos": {"count": 0, "groups": []}}, "referralId": "e-0-4d721ad94ab5224baed0b997-7"}, {"reasons": {"count": 0, "items": [{"summary": "This spot is popular", "type": "general", "reasonName": "globalInteractionReason"}]}, "venue": {"id": "4d25ef7cf9406dcb0461908d", "name": "Fitness Corner", "location": {"address": "988 Jurong West St 93", "lat": 1.3356883365536245, "lng": 103.69438725148683, "labeledLatLngs": [{"label": "display", "lat": 1.3356883365536245, "lng": 103.69438725148683}], "distance": 397, "cc": "SG", "country": "Singapore", "formattedAddress": ["988 Jurong West St 93", "Singapore"]}, "categories": [{"id": "4bf58dd8d48988d176941735", "name": "Gym", "pluralName": "Gyms", "shortName": "Gym", "icon": {"prefix": "https://ss3.4sqi.net/img/categories_v2/building/gym_", "suffix": ".png"}, "primary": true}], "photos": {"count": 0, "groups": []}}, "referralId": "e-0-4d25ef7cf9406dcb0461908d-8"}, {"reasons": {"count": 0, "items": [{"summary": "This spot is popular", "type": "general", "reasonName": "globalInteractionReason"}]}, "venue": {"id": "4b1287e7f964a520868a23e3", "name": "Pioneer Mall", "location": {"address": "638 Jurong West St 61", "lat": 1.3418449706723092, "lng": 103.69698627383572, "labeledLatLngs": [{"label": "display", "lat": 1.3418449706723092, "lng": 103.69698627383572}], "distance": 476, "postalCode": "640638", "cc": "SG", "city": "Singapore", "country": "Singapore", "formattedAddress": ["638 Jurong West St 61", "640638", "Singapore"]}, "categories": [{"id": "4bf58dd8d48988d1fd941735", "name": "Shopping Mall", "pluralName": "Shopping Malls", "shortName": "Mall", "icon": {"prefix": "https://ss3.4sqi.net/img/categories_v2/shops/mall_", "suffix": ".png"}, "primary": true}], "photos": {"count": 0, "groups": []}}, "referralId": "e-0-4b1287e7f964a520868a23e3-9"}, {"reasons": {"count": 0, "items": [{"summary": "This spot is popular", "type": "general", "reasonName": "globalInteractionReason"}]}, "venue": {"id": "5a40c907364d9727066c93f0", "name": "Yang Ming Yuan Nursery", "location": {"address": "11 Jurong West Street 93", "lat": 1.336119, "lng": 103.693798, "labeledLatLngs": [{"label": "display", "lat": 1.336119, "lng": 103.693798}], "distance": 434, "postalCode": "648968", "cc": "SG", "city": "11 Jurong West Street 93", "state": "Singapore", "country": "Singapore", "formattedAddress": ["11 Jurong West Street 93", "648968", "Singapore"]}, "categories": [{"id": "4bf58dd8d48988d11b951735", "name": "Flower Shop", "pluralName": "Flower Shops", "shortName": "Flower Shop", "icon": {"prefix": "https://ss3.4sqi.net/img/categories_v2/shops/flowershop_", "suffix": ".png"}, "primary": true}], "photos": {"count": 0, "groups": []}}, "referralId": "e-0-5a40c907364d9727066c93f0-10"}, {"reasons": {"count": 0, "items": [{"summary": "This spot is popular", "type": "general", "reasonName": "globalInteractionReason"}]}, "venue": {"id": "4ba87e87f964a52051dd39e3", "name": "Watsons", "location": {"address": "#01-09/10, Pioneer Mall", "crossStreet": "638 Jurong West St. 61", "lat": 1.341903912323986, "lng": 103.69698061860959, "labeledLatLngs": [{"label": "display", "lat": 1.341903912323986, "lng": 103.69698061860959}], "distance": 482, "postalCode": "640638", "cc": "SG", "city": "Singapore", "country": "Singapore", "formattedAddress": ["#01-09/10, Pioneer Mall (638 Jurong West St. 61)", "640638", "Singapore"]}, "categories": [{"id": "4bf58dd8d48988d10f951735", "name": "Pharmacy", "pluralName": "Pharmacies", "shortName": "Pharmacy", "icon": {"prefix": "https://ss3.4sqi.net/img/categories_v2/shops/pharmacy_", "suffix": ".png"}, "primary": true}], "photos": {"count": 0, "groups": []}}, "referralId": "e-0-4ba87e87f964a52051dd39e3-11"}]}]}}