{"meta": {"code": 200, "requestId": "5e70de00542890001b68b422"}, "response": {"suggestedFilters": {"header": "Tap to show:", "filters": [{"name": "Open now", "key": "openNow"}]}, "headerLocation": "Jurong West", "headerFullLocation": "Jurong West, Singapore", "headerLocationGranularity": "neighborhood", "totalResults": 13, "suggestedBounds": {"ne": {"lat": 1.3420884045000043, "lng": 103.70190322672545}, "sw": {"lat": 1.3330883954999952, "lng": 103.69291757327457}}, "groups": [{"type": "Recommended Places", "name": "recommended", "items": [{"reasons": {"count": 0, "items": [{"summary": "This spot is popular", "type": "general", "reasonName": "globalInteractionReason"}]}, "venue": {"id": "4c90b239238c6dcb9951b955", "name": "Jurong West Swimming Complex", "location": {"address": "Jurong West Sports And Recreation Centre/Stadium", "crossStreet": "20 Jurong West St 93", "lat": 1.338226962073866, "lng": 103.69401165806582, "labeledLatLngs": [{"label": "display", "lat": 1.338226962073866, "lng": 103.69401165806582}], "distance": 384, "postalCode": "648965", "cc": "SG", "city": "Singapore", "country": "Singapore", "formattedAddress": ["Jurong West Sports And Recreation Centre/Stadium (20 Jurong West St 93)", "648965", "Singapore"]}, "categories": [{"id": "4bf58dd8d48988d15e941735", "name": "Pool", "pluralName": "Pools", "shortName": "Pool", "icon": {"prefix": "https://ss3.4sqi.net/img/categories_v2/parks_outdoors/pool_", "suffix": ".png"}, "primary": true}], "photos": {"count": 0, "groups": []}}, "referralId": "e-0-4c90b239238c6dcb9951b955-0"}, {"reasons": {"count": 0, "items": [{"summary": "This spot is popular", "type": "general", "reasonName": "globalInteractionReason"}]}, "venue": {"id": "4bfa4fb58f32ef3b73db04aa", "name": "Jurong West ActiveSg Gym", "location": {"address": "#02-01/04 20 Jurong West Street 93", "lat": 1.3379214307694804, "lng": 103.69451454786707, "labeledLatLngs": [{"label": "display", "lat": 1.3379214307694804, "lng": 103.69451454786707}], "distance": 324, "postalCode": "648965", "cc": "SG", "city": "Singapore", "country": "Singapore", "formattedAddress": ["#02-01/04 20 Jurong West Street 93", "648965", "Singapore"]}, "categories": [{"id": "4bf58dd8d48988d175941735", "name": "Gym / Fitness Center", "pluralName": "Gyms or Fitness Centers", "shortName": "Gym / Fitness", "icon": {"prefix": "https://ss3.4sqi.net/img/categories_v2/building/gym_", "suffix": ".png"}, "primary": true}], "photos": {"count": 0, "groups": []}}, "referralId": "e-0-4bfa4fb58f32ef3b73db04aa-1"}, {"reasons": {"count": 0, "items": [{"summary": "This spot is popular", "type": "general", "reasonName": "globalInteractionReason"}]}, "venue": {"id": "4bcb11ef511f95218ab2b0c7", "name": "McDonald's", "location": {"address": "#01-01/02, Pioneer Mall", "crossStreet": "638 Jurong West St 61", "lat": 1.341657689621912, "lng": 103.69683393353712, "labeledLatLngs": [{"label": "display", "lat": 1.341657689621912, "lng": 103.69683393353712}], "distance": 457, "postalCode": "640638", "cc": "SG", "city": "Singapore", "country": "Singapore", "formattedAddress": ["#01-01/02, Pioneer Mall (638 Jurong West St 61)", "640638", "Singapore"]}, "categories": [{"id": "4bf58dd8d48988d16e941735", "name": "Fast Food Restaurant", "pluralName": "Fast Food Restaurants", "shortName": "Fast Food", "icon": {"prefix": "https://ss3.4sqi.net/img/categories_v2/food/fastfood_", "suffix": ".png"}, "primary": true}], "photos": {"count": 0, "groups": []}}, "referralId": "e-0-4bcb11ef511f95218ab2b0c7-2"}, {"reasons": {"count": 0, "items": [{"summary": "This spot is popular", "type": "general", "reasonName": "globalInteractionReason"}]}, "venue": {"id": "4bd357239854d13aca8dfd4d", "name": "Jurong West Sports and Recreation Centre", "location": {"address": "20 Jurong West St. 93", "lat": 1.3384936555025502, "lng": 103.69487643241882, "labeledLatLngs": [{"label": "display", "lat": 1.3384936555025502, "lng": 103.69487643241882}], "distance": 299, "postalCode": "648965", "cc": "SG", "city": "Singapore", "country": "Singapore", "formattedAddress": ["20 Jurong West St. 93", "648965", "Singapore"]}, "categories": [{"id": "4bf58dd8d48988d184941735", "name": "Stadium", "pluralName": "Stadiums", "shortName": "Stadium", "icon": {"prefix": "https://ss3.4sqi.net/img/categories_v2/arts_entertainment/stadium_", "suffix": ".png"}, "primary": true}], "photos": {"count": 0, "groups": []}}, "referralId": "e-0-4bd357239854d13aca8dfd4d-3"}, {"reasons": {"count": 0, "items": [{"summary": "This spot is popular", "type": "general", "reasonName": "globalInteractionReason"}]}, "venue": {"id": "4ce86a37baa6a1cd27eb2d6c", "name": "Dumplings Galore", "location": {"lat": 1.3361976169579253, "lng": 103.69834919034426, "labeledLatLngs": [{"label": "display", "lat": 1.3361976169579253, "lng": 103.69834919034426}], "distance": 186, "cc": "SG", "country": "Singapore", "formattedAddress": ["Singapore"]}, "categories": [{"id": "4bf58dd8d48988d108941735", "name": "Dumpling Restaurant", "pluralName": "Dumpling Restaurants", "shortName": "Dumplings", "icon": {"prefix": "https://ss3.4sqi.net/img/categories_v2/food/dumplings_", "suffix": ".png"}, "primary": true}], "photos": {"count": 0, "groups": []}}, "referralId": "e-0-4ce86a37baa6a1cd27eb2d6c-4"}, {"reasons": {"count": 0, "items": [{"summary": "This spot is popular", "type": "general", "reasonName": "globalInteractionReason"}]}, "venue": {"id": "4ce343c922bef04dd3dcd2f8", "name": "CyberActive", "location": {"address": "B1-15 Jurong Point (JP2)", "crossStreet": "1 Jurong West Central 2", "lat": 1.3364453785387154, "lng": 103.69860956931917, "labeledLatLngs": [{"label": "display", "lat": 1.3364453785387154, "lng": 103.69860956931917}], "distance": 184, "postalCode": "648886", "cc": "SG", "city": "Singapore", "country": "Singapore", "formattedAddress": ["B1-15 Jurong Point (JP2) (1 Jurong West Central 2)", "648886", "Singapore"]}, "categories": [{"id": "4bf58dd8d48988d122951735", "name": "Electronics Store", "pluralName": "Electronics Stores", "shortName": "Electronics", "icon": {"prefix": "https://ss3.4sqi.net/img/categories_v2/shops/technology_", "suffix": ".png"}, "primary": true}], "photos": {"count": 0, "groups": []}}, "referralId": "e-0-4ce343c922bef04dd3dcd2f8-5"}, {"reasons": {"count": 0, "items": [{"summary": "This spot is popular", "type": "general", "reasonName": "globalInteractionReason"}]}, "venue": {"id": "4eacc702b6343396877d5403", "name": "Umisushi", "location": {"address": "Pioneer MRT Station, 31 Jurong West Street 63", "lat": 1.3375410723152368, "lng": 103.69724075926106, "labeledLatLngs": [{"label": "display", "lat": 1.3375410723152368, "lng": 103.69724075926106}], "distance": 19, "postalCode": "648310", "cc": "SG", "country": "Singapore", "formattedAddress": ["Pioneer MRT Station, 31 Jurong West Street 63", "648310", "Singapore"]}, "categories": [{"id": "4bf58dd8d48988d1d2941735", "name": "Sushi Restaurant", "pluralName": "Sushi Restaurants", "shortName": "Sushi", "icon": {"prefix": "https://ss3.4sqi.net/img/categories_v2/food/sushi_", "suffix": ".png"}, "primary": true}], "photos": {"count": 0, "groups": []}}, "referralId": "e-0-4eacc702b6343396877d5403-6"}, {"reasons": {"count": 0, "items": [{"summary": "This spot is popular", "type": "general", "reasonName": "globalInteractionReason"}]}, "venue": {"id": "4b80d54cf964a5204b8e30e3", "name": "Giant Hyper", "location": {"address": "#03-01 Pioneer Mall", "crossStreet": "638 Jurong West Street 61", "lat": 1.3420188306419947, "lng": 103.69708806794748, "labeledLatLngs": [{"label": "display", "lat": 1.3420188306419947, "lng": 103.69708806794748}], "distance": 494, "postalCode": "640638", "cc": "SG", "neighborhood": "Jurong West", "city": "Singapore", "country": "Singapore", "formattedAddress": ["#03-01 Pioneer Mall (638 Jurong West Street 61)", "640638", "Singapore"]}, "categories": [{"id": "52f2ab2ebcbc57f1066b8b46", "name": "Supermarket", "pluralName": "Supermarkets", "shortName": "Supermarket", "icon": {"prefix": "https://ss3.4sqi.net/img/categories_v2/shops/food_grocery_", "suffix": ".png"}, "primary": true}], "photos": {"count": 0, "groups": []}}, "referralId": "e-0-4b80d54cf964a5204b8e30e3-7"}, {"reasons": {"count": 0, "items": [{"summary": "This spot is popular", "type": "general", "reasonName": "globalInteractionReason"}]}, "venue": {"id": "5498eed3498eec3345f21b3a", "name": "Kim San Leng \u91d1\u5c71\u5dba", "location": {"address": "Pioneer Junction", "lat": 1.334112259274826, "lng": 103.69691590645569, "labeledLatLngs": [{"label": "display", "lat": 1.334112259274826, "lng": 103.69691590645569}], "distance": 390, "cc": "SG", "country": "Singapore", "formattedAddress": ["Pioneer Junction", "Singapore"]}, "categories": [{"id": "4bf58dd8d48988d1e0931735", "name": "Coffee Shop", "pluralName": "Coffee Shops", "shortName": "Coffee Shop", "icon": {"prefix": "https://ss3.4sqi.net/img/categories_v2/food/coffeeshop_", "suffix": ".png"}, "primary": true}], "photos": {"count": 0, "groups": []}}, "referralId": "e-0-5498eed3498eec3345f21b3a-8"}, {"reasons": {"count": 0, "items": [{"summary": "This spot is popular", "type": "general", "reasonName": "globalInteractionReason"}]}, "venue": {"id": "4d0340b20e49721e90e3697f", "name": "Jurong West SSC", "location": {"lat": 1.3384101680959677, "lng": 103.69372324828629, "labeledLatLngs": [{"label": "display", "lat": 1.3384101680959677, "lng": 103.69372324828629}], "distance": 420, "postalCode": "648965", "cc": "SG", "country": "Singapore", "formattedAddress": ["648965", "Singapore"]}, "categories": [{"id": "4bf58dd8d48988d184941735", "name": "Stadium", "pluralName": "Stadiums", "shortName": "Stadium", "icon": {"prefix": "https://ss3.4sqi.net/img/categories_v2/arts_entertainment/stadium_", "suffix": ".png"}, "primary": true}], "photos": {"count": 0, "groups": []}}, "referralId": "e-0-4d0340b20e49721e90e3697f-9"}, {"reasons": {"count": 0, "items": [{"summary": "This spot is popular", "type": "general", "reasonName": "globalInteractionReason"}]}, "venue": {"id": "4b1287e7f964a520868a23e3", "name": "Pioneer Mall", "location": {"address": "638 Jurong West St 61", "lat": 1.3418449706723092, "lng": 103.69698627383572, "labeledLatLngs": [{"label": "display", "lat": 1.3418449706723092, "lng": 103.69698627383572}], "distance": 476, "postalCode": "640638", "cc": "SG", "city": "Singapore", "country": "Singapore", "formattedAddress": ["638 Jurong West St 61", "640638", "Singapore"]}, "categories": [{"id": "4bf58dd8d48988d1fd941735", "name": "Shopping Mall", "pluralName": "Shopping Malls", "shortName": "Mall", "icon": {"prefix": "https://ss3.4sqi.net/img/categories_v2/shops/mall_", "suffix": ".png"}, "primary": true}], "photos": {"count": 0, "groups": []}}, "referralId": "e-0-4b1287e7f964a520868a23e3-10"}, {"reasons": {"count": 0, "items": [{"summary": "This spot is popular", "type": "general", "reasonName": "globalInteractionReason"}]}, "venue": {"id": "5a40c907364d9727066c93f0", "name": "Yang Ming Yuan Nursery", "location": {"address": "11 Jurong West Street 93", "lat": 1.336119, "lng": 103.693798, "labeledLatLngs": [{"label": "display", "lat": 1.336119, "lng": 103.693798}], "distance": 434, "postalCode": "648968", "cc": "SG", "city": "11 Jurong West Street 93", "state": "Singapore", "country": "Singapore", "formattedAddress": ["11 Jurong West Street 93", "648968", "Singapore"]}, "categories": [{"id": "4bf58dd8d48988d11b951735", "name": "Flower Shop", "pluralName": "Flower Shops", "shortName": "Flower Shop", "icon": {"prefix": "https://ss3.4sqi.net/img/categories_v2/shops/flowershop_", "suffix": ".png"}, "primary": true}], "photos": {"count": 0, "groups": []}}, "referralId": "e-0-5a40c907364d9727066c93f0-11"}, {"reasons": {"count": 0, "items": [{"summary": "This spot is popular", "type": "general", "reasonName": "globalInteractionReason"}]}, "venue": {"id": "4cf449be6c29236adc7775a2", "name": "Juz Bread @ Pioneer Mall", "location": {"address": "638/638A Jurong West Street 61", "crossStreet": "#01-08", "lat": 1.341753742363355, "lng": 103.69644337322138, "labeledLatLngs": [{"label": "display", "lat": 1.341753742363355, "lng": 103.69644337322138}], "distance": 476, "cc": "SG", "city": "Singapore", "country": "Singapore", "formattedAddress": ["638/638A Jurong West Street 61 (#01-08)", "Singapore"]}, "categories": [{"id": "4bf58dd8d48988d16a941735", "name": "Bakery", "pluralName": "Bakeries", "shortName": "Bakery", "icon": {"prefix": "https://ss3.4sqi.net/img/categories_v2/food/bakery_", "suffix": ".png"}, "primary": true}], "photos": {"count": 0, "groups": []}}, "referralId": "e-0-4cf449be6c29236adc7775a2-12"}]}]}}