{"meta": {"code": 200, "requestId": "5e6e411cb1cac00025fe2b62"}, "response": {"suggestedFilters": {"header": "Tap to show:", "filters": [{"name": "Open now", "key": "openNow"}]}, "headerLocation": "Central Region", "headerFullLocation": "Central Region, Singapore", "headerLocationGranularity": "neighborhood", "totalResults": 25, "suggestedBounds": {"ne": {"lat": 1.3128982045000046, "lng": 103.89064167386343}, "sw": {"lat": 1.3038981954999955, "lng": 103.88165612613659}}, "groups": [{"type": "Recommended Places", "name": "recommended", "items": [{"reasons": {"count": 0, "items": [{"summary": "This spot is popular", "type": "general", "reasonName": "globalInteractionReason"}]}, "venue": {"id": "4b0bcea6f964a520c93323e3", "name": "Old Airport Road Food Centre", "location": {"address": "51 Old Airport Rd", "lat": 1.3079591130216996, "lng": 103.88573767513394, "distance": 66, "postalCode": "390051", "cc": "SG", "city": "Singapore", "country": "Singapore", "formattedAddress": ["51 Old Airport Rd", "390051", "Singapore"]}, "categories": [{"id": "4bf58dd8d48988d120951735", "name": "Food Court", "pluralName": "Food Courts", "shortName": "Food Court", "icon": {"prefix": "https://ss3.4sqi.net/img/categories_v2/shops/food_foodcourt_", "suffix": ".png"}, "primary": true}], "photos": {"count": 0, "groups": []}}, "referralId": "e-0-4b0bcea6f964a520c93323e3-0"}, {"reasons": {"count": 0, "items": [{"summary": "This spot is popular", "type": "general", "reasonName": "globalInteractionReason"}]}, "venue": {"id": "55f4dd9e498e10746318f157", "name": "Roast Paradise", "location": {"address": "#01-121, Old Airport Road Hawker Center", "crossStreet": "51 Old Airport Road", "lat": 1.3082801577255654, "lng": 103.88617441792168, "labeledLatLngs": [{"label": "display", "lat": 1.3082801577255654, "lng": 103.88617441792168}], "distance": 13, "postalCode": "390051", "cc": "SG", "city": "Singapore", "country": "Singapore", "formattedAddress": ["#01-121, Old Airport Road Hawker Center (51 Old Airport Road)", "390051", "Singapore"]}, "categories": [{"id": "4bf58dd8d48988d1df931735", "name": "BBQ Joint", "pluralName": "BBQ Joints", "shortName": "BBQ", "icon": {"prefix": "https://ss3.4sqi.net/img/categories_v2/food/bbqalt_", "suffix": ".png"}, "primary": true}], "photos": {"count": 0, "groups": []}}, "referralId": "e-0-55f4dd9e498e10746318f157-1"}, {"reasons": {"count": 0, "items": [{"summary": "This spot is popular", "type": "general", "reasonName": "globalInteractionReason"}]}, "venue": {"id": "574d85f2498e7d609f1a1034", "name": "Canton Jumbo \u5ee3\u4e1c\u73cd\u5bf3", "location": {"address": "13 Old Airport Rd", "lat": 1.3072203, "lng": 103.88356, "labeledLatLngs": [{"label": "display", "lat": 1.3072203, "lng": 103.88356}], "distance": 316, "cc": "SG", "city": "Singapore", "country": "Singapore", "formattedAddress": ["13 Old Airport Rd", "Singapore"]}, "categories": [{"id": "52af3a7c3cf9994f4e043bed", "name": "Cantonese Restaurant", "pluralName": "Cantonese Restaurants", "shortName": "Cantonese", "icon": {"prefix": "https://ss3.4sqi.net/img/categories_v2/food/asian_", "suffix": ".png"}, "primary": true}], "photos": {"count": 0, "groups": []}}, "referralId": "e-0-574d85f2498e7d609f1a1034-2"}, {"reasons": {"count": 0, "items": [{"summary": "This spot is popular", "type": "general", "reasonName": "globalInteractionReason"}]}, "venue": {"id": "57d20050498ec7f2c292a0ee", "name": "OAR Seafood Soup", "location": {"address": "#01-122 Old Airport Road Food Centre", "crossStreet": "51 Old Airport Rd", "lat": 1.308255, "lng": 103.885791, "labeledLatLngs": [{"label": "display", "lat": 1.308255, "lng": 103.885791}], "distance": 42, "postalCode": "390051", "cc": "SG", "neighborhood": "Central Region", "city": "Mountbatten", "state": "Singapore", "country": "Singapore", "formattedAddress": ["#01-122 Old Airport Road Food Centre (51 Old Airport Rd)", "390051", "Singapore"]}, "categories": [{"id": "4bf58dd8d48988d1ce941735", "name": "Seafood Restaurant", "pluralName": "Seafood Restaurants", "shortName": "Seafood", "icon": {"prefix": "https://ss3.4sqi.net/img/categories_v2/food/seafood_", "suffix": ".png"}, "primary": true}], "photos": {"count": 0, "groups": []}}, "referralId": "e-0-57d20050498ec7f2c292a0ee-3"}, {"reasons": {"count": 0, "items": [{"summary": "This spot is popular", "type": "general", "reasonName": "globalInteractionReason"}]}, "venue": {"id": "4c80e99d74d7b60cb64e71d8", "name": "Fatt Choy Mui Seafood Restaurant", "location": {"address": "34 Cassia Cres", "lat": 1.30932, "lng": 103.88465, "labeledLatLngs": [{"label": "display", "lat": 1.30932, "lng": 103.88465}], "distance": 195, "postalCode": "390034", "cc": "SG", "neighborhood": "Central Region", "city": "Singapore", "country": "Singapore", "formattedAddress": ["34 Cassia Cres", "390034", "Singapore"]}, "categories": [{"id": "4bf58dd8d48988d145941735", "name": "Chinese Restaurant", "pluralName": "Chinese Restaurants", "shortName": "Chinese", "icon": {"prefix": "https://ss3.4sqi.net/img/categories_v2/food/asian_", "suffix": ".png"}, "primary": true}], "photos": {"count": 0, "groups": []}}, "referralId": "e-0-4c80e99d74d7b60cb64e71d8-4"}, {"reasons": {"count": 0, "items": [{"summary": "This spot is popular", "type": "general", "reasonName": "globalInteractionReason"}]}, "venue": {"id": "4c87a29ad92ea093eea37772", "name": "Albert Street Prawn Noodle", "location": {"address": "#01-10 Old Airport Road Food Centre", "crossStreet": "51 Old Airport Road", "lat": 1.3077494463655703, "lng": 103.88558369150584, "labeledLatLngs": [{"label": "display", "lat": 1.3077494463655703, "lng": 103.88558369150584}], "distance": 95, "postalCode": "390051", "cc": "SG", "neighborhood": "Central Region", "city": "Singapore", "country": "Singapore", "formattedAddress": ["#01-10 Old Airport Road Food Centre (51 Old Airport Road)", "390051", "Singapore"]}, "categories": [{"id": "4bf58dd8d48988d142941735", "name": "Asian Restaurant", "pluralName": "Asian Restaurants", "shortName": "Asian", "icon": {"prefix": "https://ss3.4sqi.net/img/categories_v2/food/asian_", "suffix": ".png"}, "primary": true}], "photos": {"count": 0, "groups": []}}, "referralId": "e-0-4c87a29ad92ea093eea37772-5"}, {"reasons": {"count": 0, "items": [{"summary": "This spot is popular", "type": "general", "reasonName": "globalInteractionReason"}]}, "venue": {"id": "52b04966498e58f8815d0b04", "name": "Yoga Inc.", "location": {"address": "100 Guillemard Road #01-08", "lat": 1.30813060895144, "lng": 103.88230225296546, "labeledLatLngs": [{"label": "display", "lat": 1.30813060895144, "lng": 103.88230225296546}], "distance": 429, "postalCode": "399718", "cc": "SG", "city": "Singapore", "country": "Singapore", "formattedAddress": ["100 Guillemard Road #01-08", "399718", "Singapore"]}, "categories": [{"id": "4bf58dd8d48988d102941735", "name": "Yoga Studio", "pluralName": "Yoga Studios", "shortName": "Yoga Studio", "icon": {"prefix": "https://ss3.4sqi.net/img/categories_v2/shops/gym_yogastudio_", "suffix": ".png"}, "primary": true}], "photos": {"count": 0, "groups": []}}, "referralId": "e-0-52b04966498e58f8815d0b04-6"}, {"reasons": {"count": 0, "items": [{"summary": "This spot is popular", "type": "general", "reasonName": "globalInteractionReason"}]}, "venue": {"id": "4bd43129462cb713a2d3df07", "name": "Lai Huat Seafood Restaurant \u6765\u53d1\u6d77\u9c9c\u83dc\u9986", "location": {"address": "387, Guillemard Road", "crossStreet": "Lorong 34 Geylang", "lat": 1.3119595636204764, "lng": 103.88809006771774, "labeledLatLngs": [{"label": "display", "lat": 1.3119595636204764, "lng": 103.88809006771774}], "distance": 451, "cc": "SG", "city": "Singapore", "country": "Singapore", "formattedAddress": ["387, Guillemard Road (Lorong 34 Geylang)", "Singapore"]}, "categories": [{"id": "4bf58dd8d48988d1ce941735", "name": "Seafood Restaurant", "pluralName": "Seafood Restaurants", "shortName": "Seafood", "icon": {"prefix": "https://ss3.4sqi.net/img/categories_v2/food/seafood_", "suffix": ".png"}, "primary": true}], "photos": {"count": 0, "groups": []}}, "referralId": "e-0-4bd43129462cb713a2d3df07-7"}, {"reasons": {"count": 0, "items": [{"summary": "This spot is popular", "type": "general", "reasonName": "globalInteractionReason"}]}, "venue": {"id": "4ca7dfadb0b8236a2e1eaee6", "name": "Xin Mei Xiang Lor Mee", "location": {"address": "#01-116 Old Airport Rd. Market & Food Centre", "crossStreet": "51 Old Airport Rd.", "lat": 1.3083727, "lng": 103.886086, "labeledLatLngs": [{"label": "display", "lat": 1.3083727, "lng": 103.886086}], "distance": 7, "postalCode": "390051", "cc": "SG", "neighborhood": "Central Region", "city": "Singapore", "country": "Singapore", "formattedAddress": ["#01-116 Old Airport Rd. Market & Food Centre (51 Old Airport Rd.)", "390051", "Singapore"]}, "categories": [{"id": "4bf58dd8d48988d1d1941735", "name": "Noodle House", "pluralName": "Noodle Houses", "shortName": "Noodles", "icon": {"prefix": "https://ss3.4sqi.net/img/categories_v2/food/ramen_", "suffix": ".png"}, "primary": true}], "photos": {"count": 0, "groups": []}}, "referralId": "e-0-4ca7dfadb0b8236a2e1eaee6-8"}, {"reasons": {"count": 0, "items": [{"summary": "This spot is popular", "type": "general", "reasonName": "globalInteractionReason"}]}, "venue": {"id": "4c5a1733ec2520a150d75012", "name": "Whitley Rd Big Prawn Noodle", "location": {"address": "#01-98, Old Airport Road Market & Food Centre", "crossStreet": "51 Old Airport Road", "lat": 1.3079048749971802, "lng": 103.8858216978231, "labeledLatLngs": [{"label": "display", "lat": 1.3079048749971802, "lng": 103.8858216978231}], "distance": 65, "cc": "SG", "city": "Singapore", "country": "Singapore", "formattedAddress": ["#01-98, Old Airport Road Market & Food Centre (51 Old Airport Road)", "Singapore"]}, "categories": [{"id": "4bf58dd8d48988d142941735", "name": "Asian Restaurant", "pluralName": "Asian Restaurants", "shortName": "Asian", "icon": {"prefix": "https://ss3.4sqi.net/img/categories_v2/food/asian_", "suffix": ".png"}, "primary": true}], "photos": {"count": 0, "groups": []}}, "referralId": "e-0-4c5a1733ec2520a150d75012-9"}, {"reasons": {"count": 0, "items": [{"summary": "This spot is popular", "type": "general", "reasonName": "globalInteractionReason"}]}, "venue": {"id": "4b13e1a8f964a5200f9a23e3", "name": "Tanjong Rhu Pau & Confectionery", "location": {"address": "389 Guillemard Rd", "lat": 1.3118396287235783, "lng": 103.88816177845001, "labeledLatLngs": [{"label": "display", "lat": 1.3118396287235783, "lng": 103.88816177845001}], "distance": 443, "postalCode": "399788", "cc": "SG", "city": "Singapore", "country": "Singapore", "formattedAddress": ["389 Guillemard Rd", "399788", "Singapore"]}, "categories": [{"id": "4bf58dd8d48988d1f5931735", "name": "Dim Sum Restaurant", "pluralName": "Dim Sum Restaurants", "shortName": "Dim Sum", "icon": {"prefix": "https://ss3.4sqi.net/img/categories_v2/food/dimsum_", "suffix": ".png"}, "primary": true}], "photos": {"count": 0, "groups": []}}, "referralId": "e-0-4b13e1a8f964a5200f9a23e3-10"}, {"reasons": {"count": 0, "items": [{"summary": "This spot is popular", "type": "general", "reasonName": "globalInteractionReason"}]}, "venue": {"id": "51760298f13676e80577121c", "name": "The Tuckshop", "location": {"address": "Guillemard Road 403", "crossStreet": "At Lorong 36 Geylang", "lat": 1.31199, "lng": 103.88855, "labeledLatLngs": [{"label": "display", "lat": 1.31199, "lng": 103.88855}], "distance": 480, "postalCode": "399795", "cc": "SG", "city": "Singapore", "country": "Singapore", "formattedAddress": ["Guillemard Road 403 (At Lorong 36 Geylang)", "399795", "Singapore"]}, "categories": [{"id": "4bf58dd8d48988d116941735", "name": "Bar", "pluralName": "Bars", "shortName": "Bar", "icon": {"prefix": "https://ss3.4sqi.net/img/categories_v2/nightlife/pub_", "suffix": ".png"}, "primary": true}], "photos": {"count": 0, "groups": []}, "venuePage": {"id": "54280415"}}, "referralId": "e-0-51760298f13676e80577121c-11"}, {"reasons": {"count": 0, "items": [{"summary": "This spot is popular", "type": "general", "reasonName": "globalInteractionReason"}]}, "venue": {"id": "52a945c411d2c6d9b10b2c3a", "name": "Ju Shin Jung", "location": {"address": "102 Guillemard Road #01-01", "lat": 1.3103925910612888, "lng": 103.88230195439044, "labeledLatLngs": [{"label": "display", "lat": 1.3103925910612888, "lng": 103.88230195439044}], "distance": 482, "postalCode": "399719", "cc": "SG", "country": "Singapore", "formattedAddress": ["102 Guillemard Road #01-01", "399719", "Singapore"]}, "categories": [{"id": "4bf58dd8d48988d113941735", "name": "Korean Restaurant", "pluralName": "Korean Restaurants", "shortName": "Korean", "icon": {"prefix": "https://ss3.4sqi.net/img/categories_v2/food/korean_", "suffix": ".png"}, "primary": true}], "photos": {"count": 0, "groups": []}}, "referralId": "e-0-52a945c411d2c6d9b10b2c3a-12"}, {"reasons": {"count": 0, "items": [{"summary": "This spot is popular", "type": "general", "reasonName": "globalInteractionReason"}]}, "venue": {"id": "5303506d498ebaedcacca724", "name": "Yi Ji Fried Hokkien Prawn Mee", "location": {"address": "#01-99 Old Airport Road Market & Hawker Centre", "crossStreet": "51 Old Airport Rd", "lat": 1.3079397033969513, "lng": 103.88580537554361, "labeledLatLngs": [{"label": "display", "lat": 1.3079397033969513, "lng": 103.88580537554361}], "distance": 63, "postalCode": "390051", "cc": "SG", "neighborhood": "Central Region", "country": "Singapore", "formattedAddress": ["#01-99 Old Airport Road Market & Hawker Centre (51 Old Airport Rd)", "390051", "Singapore"]}, "categories": [{"id": "4bf58dd8d48988d1d1941735", "name": "Noodle House", "pluralName": "Noodle Houses", "shortName": "Noodles", "icon": {"prefix": "https://ss3.4sqi.net/img/categories_v2/food/ramen_", "suffix": ".png"}, "primary": true}], "photos": {"count": 0, "groups": []}}, "referralId": "e-0-5303506d498ebaedcacca724-13"}, {"reasons": {"count": 0, "items": [{"summary": "This spot is popular", "type": "general", "reasonName": "globalInteractionReason"}]}, "venue": {"id": "53a2dba6498e7f54819d38a0", "name": "Sweet Garden Dessert Caf\u00e9", "location": {"address": "#01-50, 32 Cassia Crescent", "lat": 1.3097450456480348, "lng": 103.88408987851021, "labeledLatLngs": [{"label": "display", "lat": 1.3097450456480348, "lng": 103.88408987851021}], "distance": 273, "postalCode": "390032", "cc": "SG", "city": "Singapore", "country": "Singapore", "formattedAddress": ["#01-50, 32 Cassia Crescent", "390032", "Singapore"]}, "categories": [{"id": "4bf58dd8d48988d1d0941735", "name": "Dessert Shop", "pluralName": "Dessert Shops", "shortName": "Desserts", "icon": {"prefix": "https://ss3.4sqi.net/img/categories_v2/food/dessert_", "suffix": ".png"}, "primary": true}], "photos": {"count": 0, "groups": []}}, "referralId": "e-0-53a2dba6498e7f54819d38a0-14"}, {"reasons": {"count": 0, "items": [{"summary": "This spot is popular", "type": "general", "reasonName": "globalInteractionReason"}]}, "venue": {"id": "4c1367c182a3c9b69565fbf8", "name": "Lao Fu Zi Fried Kway Teow \u8001\u592b\u5b50\u7092\u7cbf\u6761", "location": {"address": "#01-12 Old Airport Road Market & Food Centre", "crossStreet": "51 Old Airport Road", "lat": 1.3078346357170438, "lng": 103.8856195721948, "labeledLatLngs": [{"label": "display", "lat": 1.3078346357170438, "lng": 103.8856195721948}], "distance": 86, "postalCode": "390051", "cc": "SG", "city": "Singapore", "country": "Singapore", "formattedAddress": ["#01-12 Old Airport Road Market & Food Centre (51 Old Airport Road)", "390051", "Singapore"]}, "categories": [{"id": "4bf58dd8d48988d145941735", "name": "Chinese Restaurant", "pluralName": "Chinese Restaurants", "shortName": "Chinese", "icon": {"prefix": "https://ss3.4sqi.net/img/categories_v2/food/asian_", "suffix": ".png"}, "primary": true}], "photos": {"count": 0, "groups": []}}, "referralId": "e-0-4c1367c182a3c9b69565fbf8-15"}, {"reasons": {"count": 0, "items": [{"summary": "This spot is popular", "type": "general", "reasonName": "globalInteractionReason"}]}, "venue": {"id": "5185de4a498e0b26389e9aa4", "name": "Ru Ji Kitchen", "location": {"address": "Block 51, #01-37, Old Airport Road Food Centre", "lat": 1.3080091874574482, "lng": 103.88538395060013, "labeledLatLngs": [{"label": "display", "lat": 1.3080091874574482, "lng": 103.88538395060013}], "distance": 95, "cc": "SG", "country": "Singapore", "formattedAddress": ["Block 51, #01-37, Old Airport Road Food Centre", "Singapore"]}, "categories": [{"id": "4bf58dd8d48988d1d1941735", "name": "Noodle House", "pluralName": "Noodle Houses", "shortName": "Noodles", "icon": {"prefix": "https://ss3.4sqi.net/img/categories_v2/food/ramen_", "suffix": ".png"}, "primary": true}], "photos": {"count": 0, "groups": []}}, "referralId": "e-0-5185de4a498e0b26389e9aa4-16"}, {"reasons": {"count": 0, "items": [{"summary": "This spot is popular", "type": "general", "reasonName": "globalInteractionReason"}]}, "venue": {"id": "4bb039e8f964a5203e3d3ce3", "name": "G.Spa", "location": {"address": "102 Guillemard Rd #02-02", "crossStreet": "Guillimard Village", "lat": 1.3100681917398054, "lng": 103.88239034780673, "labeledLatLngs": [{"label": "display", "lat": 1.3100681917398054, "lng": 103.88239034780673}], "distance": 457, "postalCode": "399719", "cc": "SG", "city": "Singapore", "country": "Singapore", "formattedAddress": ["102 Guillemard Rd #02-02 (Guillimard Village)", "399719", "Singapore"]}, "categories": [{"id": "4bf58dd8d48988d1ed941735", "name": "Spa", "pluralName": "Spas", "shortName": "Spa", "icon": {"prefix": "https://ss3.4sqi.net/img/categories_v2/shops/spa_", "suffix": ".png"}, "primary": true}], "photos": {"count": 0, "groups": []}}, "referralId": "e-0-4bb039e8f964a5203e3d3ce3-17"}, {"reasons": {"count": 0, "items": [{"summary": "This spot is popular", "type": "general", "reasonName": "globalInteractionReason"}]}, "venue": {"id": "4d3ce5b18edf37041b00b5a5", "name": "Kallang Estate Fresh Market & Food Centre", "location": {"address": "Blk 17 Old Airport Road", "lat": 1.3071406638549785, "lng": 103.88381419256297, "labeledLatLngs": [{"label": "display", "lat": 1.3071406638549785, "lng": 103.88381419256297}], "distance": 295, "cc": "SG", "city": "Singapore", "country": "Singapore", "formattedAddress": ["Blk 17 Old Airport Road", "Singapore"]}, "categories": [{"id": "4bf58dd8d48988d120951735", "name": "Food Court", "pluralName": "Food Courts", "shortName": "Food Court", "icon": {"prefix": "https://ss3.4sqi.net/img/categories_v2/shops/food_foodcourt_", "suffix": ".png"}, "primary": true}], "photos": {"count": 0, "groups": []}}, "referralId": "e-0-4d3ce5b18edf37041b00b5a5-18"}, {"reasons": {"count": 0, "items": [{"summary": "This spot is popular", "type": "general", "reasonName": "globalInteractionReason"}]}, "venue": {"id": "4edae7a502d5244e3124b4e4", "name": "Tiong Bahru Lor Mee", "location": {"address": "#01-124, Old Airport Road Market & Food Centre", "crossStreet": "Old Airport Rd.", "lat": 1.308139185573914, "lng": 103.8859755276146, "labeledLatLngs": [{"label": "display", "lat": 1.308139185573914, "lng": 103.8859755276146}], "distance": 34, "cc": "SG", "neighborhood": "Central Region", "city": "Singapore", "country": "Singapore", "formattedAddress": ["#01-124, Old Airport Road Market & Food Centre (Old Airport Rd.)", "Singapore"]}, "categories": [{"id": "4bf58dd8d48988d1d1941735", "name": "Noodle House", "pluralName": "Noodle Houses", "shortName": "Noodles", "icon": {"prefix": "https://ss3.4sqi.net/img/categories_v2/food/ramen_", "suffix": ".png"}, "primary": true}], "photos": {"count": 0, "groups": []}}, "referralId": "e-0-4edae7a502d5244e3124b4e4-19"}, {"reasons": {"count": 0, "items": [{"summary": "This spot is popular", "type": "general", "reasonName": "globalInteractionReason"}]}, "venue": {"id": "53c3c295498e5f21095dab00", "name": "Bing Go Jung Korean Dessert House", "location": {"address": "102 Guillemard Rd #01-01", "lat": 1.3103859941502356, "lng": 103.8822924311362, "labeledLatLngs": [{"label": "display", "lat": 1.3103859941502356, "lng": 103.8822924311362}], "distance": 482, "cc": "SG", "city": "Singapore", "country": "Singapore", "formattedAddress": ["102 Guillemard Rd #01-01", "Singapore"]}, "categories": [{"id": "4bf58dd8d48988d1d0941735", "name": "Dessert Shop", "pluralName": "Dessert Shops", "shortName": "Desserts", "icon": {"prefix": "https://ss3.4sqi.net/img/categories_v2/food/dessert_", "suffix": ".png"}, "primary": true}], "photos": {"count": 0, "groups": []}}, "referralId": "e-0-53c3c295498e5f21095dab00-20"}, {"reasons": {"count": 0, "items": [{"summary": "This spot is popular", "type": "general", "reasonName": "globalInteractionReason"}]}, "venue": {"id": "4ca86f7614c3370481d3d33b", "name": "NTUC FairPrice", "location": {"address": "41 Jalan Tiga #01-05", "crossStreet": "Old Airport Rd.", "lat": 1.3075648958558617, "lng": 103.88475585360601, "labeledLatLngs": [{"label": "display", "lat": 1.3075648958558617, "lng": 103.88475585360601}], "distance": 180, "postalCode": "390041", "cc": "SG", "city": "Singapore", "country": "Singapore", "formattedAddress": ["41 Jalan Tiga #01-05 (Old Airport Rd.)", "390041", "Singapore"]}, "categories": [{"id": "52f2ab2ebcbc57f1066b8b46", "name": "Supermarket", "pluralName": "Supermarkets", "shortName": "Supermarket", "icon": {"prefix": "https://ss3.4sqi.net/img/categories_v2/shops/food_grocery_", "suffix": ".png"}, "primary": true}], "photos": {"count": 0, "groups": []}}, "referralId": "e-0-4ca86f7614c3370481d3d33b-21"}, {"reasons": {"count": 0, "items": [{"summary": "This spot is popular", "type": "general", "reasonName": "globalInteractionReason"}]}, "venue": {"id": "4cf612240a71224bdce21b93", "name": "Dakota Residences Swimming Pool", "location": {"address": "Dakota Residences", "lat": 1.3065557155637864, "lng": 103.8872230052948, "labeledLatLngs": [{"label": "display", "lat": 1.3065557155637864, "lng": 103.8872230052948}], "distance": 237, "postalCode": "399936", "cc": "SG", "neighborhood": "Central Region", "city": "Mountbatten", "state": "Singapore", "country": "Singapore", "formattedAddress": ["Dakota Residences", "399936", "Singapore"]}, "categories": [{"id": "4bf58dd8d48988d15e941735", "name": "Pool", "pluralName": "Pools", "shortName": "Pool", "icon": {"prefix": "https://ss3.4sqi.net/img/categories_v2/parks_outdoors/pool_", "suffix": ".png"}, "primary": true}], "photos": {"count": 0, "groups": []}}, "referralId": "e-0-4cf612240a71224bdce21b93-22"}, {"reasons": {"count": 0, "items": [{"summary": "This spot is popular", "type": "general", "reasonName": "globalInteractionReason"}]}, "venue": {"id": "4e3b570bae6045423649ba72", "name": "\u5927\u80a5\u9b5a\u3623\u8089\u811e\u9762", "location": {"address": "Blk 17, Old Airport Road, Stall 14", "crossStreet": "#01-14", "lat": 1.307251, "lng": 103.88393, "labeledLatLngs": [{"label": "display", "lat": 1.307251, "lng": 103.88393}], "distance": 278, "cc": "SG", "neighborhood": "Central Region", "city": "Singapore", "country": "Singapore", "formattedAddress": ["Blk 17, Old Airport Road, Stall 14 (#01-14)", "Singapore"]}, "categories": [{"id": "4bf58dd8d48988d1d1941735", "name": "Noodle House", "pluralName": "Noodle Houses", "shortName": "Noodles", "icon": {"prefix": "https://ss3.4sqi.net/img/categories_v2/food/ramen_", "suffix": ".png"}, "primary": true}], "photos": {"count": 0, "groups": []}}, "referralId": "e-0-4e3b570bae6045423649ba72-23"}, {"reasons": {"count": 0, "items": [{"summary": "This spot is popular", "type": "general", "reasonName": "globalInteractionReason"}]}, "venue": {"id": "4ef9538e1081d088d8d4c46e", "name": "The Camera Library", "location": {"address": "Blk 5 Pine Close", "lat": 1.306583871436063, "lng": 103.88258010149002, "labeledLatLngs": [{"label": "display", "lat": 1.306583871436063, "lng": 103.88258010149002}], "distance": 445, "postalCode": "391005", "cc": "SG", "city": "Singapore", "country": "Singapore", "formattedAddress": ["Blk 5 Pine Close", "391005", "Singapore"]}, "categories": [{"id": "4eb1bdf03b7b55596b4a7491", "name": "Camera Store", "pluralName": "Camera Stores", "shortName": "Camera Store", "icon": {"prefix": "https://ss3.4sqi.net/img/categories_v2/shops/camerastore_", "suffix": ".png"}, "primary": true}], "photos": {"count": 0, "groups": []}}, "referralId": "e-0-4ef9538e1081d088d8d4c46e-24"}]}]}}