{"meta": {"code": 200, "requestId": "5e6ee6bb1e152c001b433ae8"}, "response": {"suggestedFilters": {"header": "Tap to show:", "filters": [{"name": "Open now", "key": "openNow"}]}, "headerLocation": "Sembawang", "headerFullLocation": "Sembawang, Singapore", "headerLocationGranularity": "neighborhood", "totalResults": 17, "suggestedBounds": {"ne": {"lat": 1.4535928045000046, "lng": 103.82454853940207}, "sw": {"lat": 1.4445927954999955, "lng": 103.81556246059795}}, "groups": [{"type": "Recommended Places", "name": "recommended", "items": [{"reasons": {"count": 0, "items": [{"summary": "This spot is popular", "type": "general", "reasonName": "globalInteractionReason"}]}, "venue": {"id": "567d4285498ef1df28cfb57b", "name": "Starbucks", "location": {"address": "#01-22, Sun Plaza", "crossStreet": "30 Sembawang Drive", "lat": 1.4481281132935184, "lng": 103.81965198217407, "labeledLatLngs": [{"label": "display", "lat": 1.4481281132935184, "lng": 103.81965198217407}], "distance": 116, "postalCode": "757713", "cc": "SG", "city": "Sembawang Estate", "country": "Singapore", "formattedAddress": ["#01-22, Sun Plaza (30 Sembawang Drive)", "757713", "Singapore"]}, "categories": [{"id": "4bf58dd8d48988d1e0931735", "name": "Coffee Shop", "pluralName": "Coffee Shops", "shortName": "Coffee Shop", "icon": {"prefix": "https://ss3.4sqi.net/img/categories_v2/food/coffeeshop_", "suffix": ".png"}, "primary": true}], "photos": {"count": 0, "groups": []}}, "referralId": "e-0-567d4285498ef1df28cfb57b-0"}, {"reasons": {"count": 0, "items": [{"summary": "This spot is popular", "type": "general", "reasonName": "globalInteractionReason"}]}, "venue": {"id": "55a645e2498e6c54786f5cc3", "name": "McDonald's", "location": {"address": "#01-16 /17 Sun Plaza", "crossStreet": "30 Sembawang Drive", "lat": 1.4485522814289518, "lng": 103.81992740654019, "labeledLatLngs": [{"label": "display", "lat": 1.4485522814289518, "lng": 103.81992740654019}], "distance": 61, "postalCode": "757713", "cc": "SG", "city": "Singapore", "country": "Singapore", "formattedAddress": ["#01-16 /17 Sun Plaza (30 Sembawang Drive)", "757713", "Singapore"]}, "categories": [{"id": "4bf58dd8d48988d16e941735", "name": "Fast Food Restaurant", "pluralName": "Fast Food Restaurants", "shortName": "Fast Food", "icon": {"prefix": "https://ss3.4sqi.net/img/categories_v2/food/fastfood_", "suffix": ".png"}, "primary": true}], "photos": {"count": 0, "groups": []}}, "referralId": "e-0-55a645e2498e6c54786f5cc3-1"}, {"reasons": {"count": 0, "items": [{"summary": "This spot is popular", "type": "general", "reasonName": "globalInteractionReason"}]}, "venue": {"id": "565ddb0a498e5dbdf2a66b09", "name": "White Restaurant", "location": {"address": "#03-16, Sun Plaza", "crossStreet": "30 Sembawang Drive", "lat": 1.4484677257620298, "lng": 103.81986930816716, "labeledLatLngs": [{"label": "display", "lat": 1.4484677257620298, "lng": 103.81986930816716}], "distance": 72, "postalCode": "757713", "cc": "SG", "neighborhood": "Sembawang", "state": "Singapore", "country": "Singapore", "formattedAddress": ["#03-16, Sun Plaza (30 Sembawang Drive)", "757713", "Singapore"]}, "categories": [{"id": "4bf58dd8d48988d145941735", "name": "Chinese Restaurant", "pluralName": "Chinese Restaurants", "shortName": "Chinese", "icon": {"prefix": "https://ss3.4sqi.net/img/categories_v2/food/asian_", "suffix": ".png"}, "primary": true}], "photos": {"count": 0, "groups": []}}, "referralId": "e-0-565ddb0a498e5dbdf2a66b09-2"}, {"reasons": {"count": 0, "items": [{"summary": "This spot is popular", "type": "general", "reasonName": "globalInteractionReason"}]}, "venue": {"id": "54dc62f1498e5eff7d8517f8", "name": "Sushi Express", "location": {"address": "Sun Plaza", "lat": 1.4481183960933321, "lng": 103.81934801161154, "labeledLatLngs": [{"label": "display", "lat": 1.4481183960933321, "lng": 103.81934801161154}], "distance": 134, "cc": "SG", "country": "Singapore", "formattedAddress": ["Sun Plaza", "Singapore"]}, "categories": [{"id": "4bf58dd8d48988d111941735", "name": "Japanese Restaurant", "pluralName": "Japanese Restaurants", "shortName": "Japanese", "icon": {"prefix": "https://ss3.4sqi.net/img/categories_v2/food/japanese_", "suffix": ".png"}, "primary": true}], "photos": {"count": 0, "groups": []}}, "referralId": "e-0-54dc62f1498e5eff7d8517f8-3"}, {"reasons": {"count": 0, "items": [{"summary": "This spot is popular", "type": "general", "reasonName": "globalInteractionReason"}]}, "venue": {"id": "5597b0cc498ef6c957d5529b", "name": "Swensen's", "location": {"address": "#02-21/22 Sun Plaza", "crossStreet": "30 Sembawang Drive", "lat": 1.448177166719735, "lng": 103.8194713549583, "labeledLatLngs": [{"label": "display", "lat": 1.448177166719735, "lng": 103.8194713549583}], "distance": 120, "cc": "SG", "city": "Singapore", "country": "Singapore", "formattedAddress": ["#02-21/22 Sun Plaza (30 Sembawang Drive)", "Singapore"]}, "categories": [{"id": "52e81612bcbc57f1066b79f1", "name": "Bistro", "pluralName": "Bistros", "shortName": "Bistro", "icon": {"prefix": "https://ss3.4sqi.net/img/categories_v2/food/default_", "suffix": ".png"}, "primary": true}], "photos": {"count": 0, "groups": []}}, "referralId": "e-0-5597b0cc498ef6c957d5529b-4"}, {"reasons": {"count": 0, "items": [{"summary": "This spot is popular", "type": "general", "reasonName": "globalInteractionReason"}]}, "venue": {"id": "4b7a7fe9f964a520de2e2fe3", "name": "Ya Kun Kaya Toast \u4e9e\u5764", "location": {"address": "Sun Plaza", "crossStreet": "30 Sembawang Drive", "lat": 1.4481281417510359, "lng": 103.81944098706671, "labeledLatLngs": [{"label": "display", "lat": 1.4481281417510359, "lng": 103.81944098706671}], "distance": 127, "cc": "SG", "city": "Singapore", "country": "Singapore", "formattedAddress": ["Sun Plaza (30 Sembawang Drive)", "Singapore"]}, "categories": [{"id": "4bf58dd8d48988d1e0931735", "name": "Coffee Shop", "pluralName": "Coffee Shops", "shortName": "Coffee Shop", "icon": {"prefix": "https://ss3.4sqi.net/img/categories_v2/food/coffeeshop_", "suffix": ".png"}, "primary": true}], "photos": {"count": 0, "groups": []}}, "referralId": "e-0-4b7a7fe9f964a520de2e2fe3-5"}, {"reasons": {"count": 0, "items": [{"summary": "This spot is popular", "type": "general", "reasonName": "globalInteractionReason"}]}, "venue": {"id": "4b7f5eecf964a520a02a30e3", "name": "NTUC FairPrice", "location": {"address": "#B1-01/02, Sun Plaza", "crossStreet": "30 Sembawang Dr", "lat": 1.448071168837641, "lng": 103.81941928535086, "labeledLatLngs": [{"label": "display", "lat": 1.448071168837641, "lng": 103.81941928535086}], "distance": 133, "postalCode": "757713", "cc": "SG", "city": "Singapore", "country": "Singapore", "formattedAddress": ["#B1-01/02, Sun Plaza (30 Sembawang Dr)", "757713", "Singapore"]}, "categories": [{"id": "52f2ab2ebcbc57f1066b8b46", "name": "Supermarket", "pluralName": "Supermarkets", "shortName": "Supermarket", "icon": {"prefix": "https://ss3.4sqi.net/img/categories_v2/shops/food_grocery_", "suffix": ".png"}, "primary": true}], "photos": {"count": 0, "groups": []}}, "referralId": "e-0-4b7f5eecf964a520a02a30e3-6"}, {"reasons": {"count": 0, "items": [{"summary": "This spot is popular", "type": "general", "reasonName": "globalInteractionReason"}]}, "venue": {"id": "4b058816f964a5201fb122e3", "name": "Sun Plaza", "location": {"address": "30 Sembawang Dr", "crossStreet": "next to Sembawang MRT", "lat": 1.448386577730186, "lng": 103.81974966033243, "labeledLatLngs": [{"label": "display", "lat": 1.448386577730186, "lng": 103.81974966033243}], "distance": 85, "postalCode": "757713", "cc": "SG", "city": "Singapore", "country": "Singapore", "formattedAddress": ["30 Sembawang Dr (next to Sembawang MRT)", "757713", "Singapore"]}, "categories": [{"id": "4bf58dd8d48988d1fd941735", "name": "Shopping Mall", "pluralName": "Shopping Malls", "shortName": "Mall", "icon": {"prefix": "https://ss3.4sqi.net/img/categories_v2/shops/mall_", "suffix": ".png"}, "primary": true}], "photos": {"count": 0, "groups": []}}, "referralId": "e-0-4b058816f964a5201fb122e3-7"}, {"reasons": {"count": 0, "items": [{"summary": "This spot is popular", "type": "general", "reasonName": "globalInteractionReason"}]}, "venue": {"id": "4ba74f6cf964a520f08a39e3", "name": "KFC", "location": {"address": "#01-25 Sun Plaza", "crossStreet": "30 Sembawang Dr.", "lat": 1.447949625982657, "lng": 103.81897128353275, "labeledLatLngs": [{"label": "display", "lat": 1.447949625982657, "lng": 103.81897128353275}], "distance": 175, "postalCode": "757713", "cc": "SG", "city": "Sembawang Estate", "country": "Singapore", "formattedAddress": ["#01-25 Sun Plaza (30 Sembawang Dr.)", "757713", "Singapore"]}, "categories": [{"id": "4bf58dd8d48988d16e941735", "name": "Fast Food Restaurant", "pluralName": "Fast Food Restaurants", "shortName": "Fast Food", "icon": {"prefix": "https://ss3.4sqi.net/img/categories_v2/food/fastfood_", "suffix": ".png"}, "primary": true}], "photos": {"count": 0, "groups": []}}, "referralId": "e-0-4ba74f6cf964a520f08a39e3-8"}, {"reasons": {"count": 0, "items": [{"summary": "This spot is popular", "type": "general", "reasonName": "globalInteractionReason"}]}, "venue": {"id": "4c47ba97c047be9a0ab03179", "name": "M1 Sun Plaza", "location": {"lat": 1.448283090754511, "lng": 103.81958550878696, "labeledLatLngs": [{"label": "display", "lat": 1.448283090754511, "lng": 103.81958550878696}], "distance": 104, "cc": "SG", "country": "Singapore", "formattedAddress": ["Singapore"]}, "categories": [{"id": "4bf58dd8d48988d1fd941735", "name": "Shopping Mall", "pluralName": "Shopping Malls", "shortName": "Mall", "icon": {"prefix": "https://ss3.4sqi.net/img/categories_v2/shops/mall_", "suffix": ".png"}, "primary": true}], "photos": {"count": 0, "groups": []}}, "referralId": "e-0-4c47ba97c047be9a0ab03179-9"}, {"reasons": {"count": 0, "items": [{"summary": "This spot is popular", "type": "general", "reasonName": "globalInteractionReason"}]}, "venue": {"id": "564c5e0e498ebf8feefb1a35", "name": "Fish & Co.", "location": {"address": "30 Sembawang Drive", "lat": 1.4481832620746862, "lng": 103.81959116918176, "labeledLatLngs": [{"label": "display", "lat": 1.4481832620746862, "lng": 103.81959116918176}], "distance": 113, "cc": "SG", "country": "Singapore", "formattedAddress": ["30 Sembawang Drive", "Singapore"]}, "categories": [{"id": "4edd64a0c7ddd24ca188df1a", "name": "Fish & Chips Shop", "pluralName": "Fish & Chips Shops", "shortName": "Fish & Chips", "icon": {"prefix": "https://ss3.4sqi.net/img/categories_v2/food/fishandchips_", "suffix": ".png"}, "primary": true}], "photos": {"count": 0, "groups": []}}, "referralId": "e-0-564c5e0e498ebf8feefb1a35-10"}, {"reasons": {"count": 0, "items": [{"summary": "This spot is popular", "type": "general", "reasonName": "globalInteractionReason"}]}, "venue": {"id": "4f00fece5c5c51dd2f74d837", "name": "Little Jimmy", "location": {"address": "Ee", "lat": 1.4501631268200899, "lng": 103.8216466943236, "labeledLatLngs": [{"label": "display", "lat": 1.4501631268200899, "lng": 103.8216466943236}], "distance": 213, "cc": "SG", "country": "Singapore", "formattedAddress": ["Ee", "Singapore"]}, "categories": [{"id": "4bf58dd8d48988d14c941735", "name": "Wings Joint", "pluralName": "Wings Joints", "shortName": "Wings", "icon": {"prefix": "https://ss3.4sqi.net/img/categories_v2/food/wings_", "suffix": ".png"}, "primary": true}], "photos": {"count": 0, "groups": []}}, "referralId": "e-0-4f00fece5c5c51dd2f74d837-11"}, {"reasons": {"count": 0, "items": [{"summary": "This spot is popular", "type": "general", "reasonName": "globalInteractionReason"}]}, "venue": {"id": "4d3ec0a0d2c8f04d0b937572", "name": "UOB Autolobby", "location": {"address": "Sembawang MRT Station", "crossStreet": "11 Sembawang Way", "lat": 1.4504049418015894, "lng": 103.82186164567382, "labeledLatLngs": [{"label": "display", "lat": 1.4504049418015894, "lng": 103.82186164567382}], "distance": 248, "cc": "SG", "city": "Singapore", "country": "Singapore", "formattedAddress": ["Sembawang MRT Station (11 Sembawang Way)", "Singapore"]}, "categories": [{"id": "52f2ab2ebcbc57f1066b8b56", "name": "ATM", "pluralName": "ATMs", "shortName": "ATM", "icon": {"prefix": "https://ss3.4sqi.net/img/categories_v2/shops/financial_", "suffix": ".png"}, "primary": true}], "photos": {"count": 0, "groups": []}}, "referralId": "e-0-4d3ec0a0d2c8f04d0b937572-12"}, {"reasons": {"count": 0, "items": [{"summary": "This spot is popular", "type": "general", "reasonName": "globalInteractionReason"}]}, "venue": {"id": "4dff58b518388670a23b6b6e", "name": "Xnbolize Entertainment", "location": {"address": "335A Sembawang Close", "lat": 1.4479621912639296, "lng": 103.81625157738527, "labeledLatLngs": [{"label": "display", "lat": 1.4479621912639296, "lng": 103.81625157738527}], "distance": 441, "postalCode": "751335", "cc": "SG", "city": "Singapore", "country": "Singapore", "formattedAddress": ["335A Sembawang Close", "751335", "Singapore"]}, "categories": [{"id": "4bf58dd8d48988d10d951735", "name": "Record Shop", "pluralName": "Record Shops", "shortName": "Record Shop", "icon": {"prefix": "https://ss3.4sqi.net/img/categories_v2/shops/record_shop_", "suffix": ".png"}, "primary": true}], "photos": {"count": 0, "groups": []}}, "referralId": "e-0-4dff58b518388670a23b6b6e-13"}, {"reasons": {"count": 0, "items": [{"summary": "This spot is popular", "type": "general", "reasonName": "globalInteractionReason"}]}, "venue": {"id": "4ccbbe49ba79a1cddb9536cb", "name": "Sembawang Mart Flower Shop", "location": {"lat": 1.453319, "lng": 103.820138, "labeledLatLngs": [{"label": "display", "lat": 1.453319, "lng": 103.820138}], "distance": 470, "cc": "SG", "country": "Singapore", "formattedAddress": ["Singapore"]}, "categories": [{"id": "4bf58dd8d48988d11b951735", "name": "Flower Shop", "pluralName": "Flower Shops", "shortName": "Flower Shop", "icon": {"prefix": "https://ss3.4sqi.net/img/categories_v2/shops/flowershop_", "suffix": ".png"}, "primary": true}], "photos": {"count": 0, "groups": []}}, "referralId": "e-0-4ccbbe49ba79a1cddb9536cb-14"}, {"reasons": {"count": 0, "items": [{"summary": "This spot is popular", "type": "general", "reasonName": "globalInteractionReason"}]}, "venue": {"id": "4bd810f65cf276b013639c00", "name": "Sembawang Mart", "location": {"address": "511 Canberra Rd", "lat": 1.4533732532995915, "lng": 103.81963645234873, "labeledLatLngs": [{"label": "display", "lat": 1.4533732532995915, "lng": 103.81963645234873}], "distance": 478, "postalCode": "750511", "cc": "SG", "city": "Singapore", "country": "Singapore", "formattedAddress": ["511 Canberra Rd", "750511", "Singapore"]}, "categories": [{"id": "4bf58dd8d48988d1fd941735", "name": "Shopping Mall", "pluralName": "Shopping Malls", "shortName": "Mall", "icon": {"prefix": "https://ss3.4sqi.net/img/categories_v2/shops/mall_", "suffix": ".png"}, "primary": true}], "photos": {"count": 0, "groups": []}}, "referralId": "e-0-4bd810f65cf276b013639c00-15"}, {"reasons": {"count": 0, "items": [{"summary": "This spot is popular", "type": "general", "reasonName": "globalInteractionReason"}]}, "venue": {"id": "4bb47d39f187a593992a14f8", "name": "Fatfish Steamboat", "location": {"address": "Old Nelson Rd", "lat": 1.4473986350660255, "lng": 103.82421013023874, "labeledLatLngs": [{"label": "display", "lat": 1.4473986350660255, "lng": 103.82421013023874}], "distance": 499, "cc": "SG", "country": "Singapore", "formattedAddress": ["Old Nelson Rd", "Singapore"]}, "categories": [{"id": "4bf58dd8d48988d1df931735", "name": "BBQ Joint", "pluralName": "BBQ Joints", "shortName": "BBQ", "icon": {"prefix": "https://ss3.4sqi.net/img/categories_v2/food/bbqalt_", "suffix": ".png"}, "primary": true}], "photos": {"count": 0, "groups": []}}, "referralId": "e-0-4bb47d39f187a593992a14f8-16"}]}]}}