{"meta": {"code": 200, "requestId": "5e70ddfec94979001cd8a69d"}, "response": {"suggestedFilters": {"header": "Tap to show:", "filters": [{"name": "Open now", "key": "openNow"}]}, "headerLocation": "Sembawang", "headerFullLocation": "Sembawang, Singapore", "headerLocationGranularity": "neighborhood", "totalResults": 19, "suggestedBounds": {"ne": {"lat": 1.4535928045000046, "lng": 103.82454853940207}, "sw": {"lat": 1.4445927954999955, "lng": 103.81556246059795}}, "groups": [{"type": "Recommended Places", "name": "recommended", "items": [{"reasons": {"count": 0, "items": [{"summary": "This spot is popular", "type": "general", "reasonName": "globalInteractionReason"}]}, "venue": {"id": "567d4285498ef1df28cfb57b", "name": "Starbucks", "location": {"address": "#01-22, Sun Plaza", "crossStreet": "30 Sembawang Drive", "lat": 1.4481281132935184, "lng": 103.81965198217407, "labeledLatLngs": [{"label": "display", "lat": 1.4481281132935184, "lng": 103.81965198217407}], "distance": 116, "postalCode": "757713", "cc": "SG", "city": "Sembawang Estate", "country": "Singapore", "formattedAddress": ["#01-22, Sun Plaza (30 Sembawang Drive)", "757713", "Singapore"]}, "categories": [{"id": "4bf58dd8d48988d1e0931735", "name": "Coffee Shop", "pluralName": "Coffee Shops", "shortName": "Coffee Shop", "icon": {"prefix": "https://ss3.4sqi.net/img/categories_v2/food/coffeeshop_", "suffix": ".png"}, "primary": true}], "photos": {"count": 0, "groups": []}}, "referralId": "e-0-567d4285498ef1df28cfb57b-0"}, {"reasons": {"count": 0, "items": [{"summary": "This spot is popular", "type": "general", "reasonName": "globalInteractionReason"}]}, "venue": {"id": "55a645e2498e6c54786f5cc3", "name": "McDonald's", "location": {"address": "#01-16 /17 Sun Plaza", "crossStreet": "30 Sembawang Drive", "lat": 1.4485522814289518, "lng": 103.81992740654019, "labeledLatLngs": [{"label": "display", "lat": 1.4485522814289518, "lng": 103.81992740654019}], "distance": 61, "postalCode": "757713", "cc": "SG", "city": "Singapore", "country": "Singapore", "formattedAddress": ["#01-16 /17 Sun Plaza (30 Sembawang Drive)", "757713", "Singapore"]}, "categories": [{"id": "4bf58dd8d48988d16e941735", "name": "Fast Food Restaurant", "pluralName": "Fast Food Restaurants", "shortName": "Fast Food", "icon": {"prefix": "https://ss3.4sqi.net/img/categories_v2/food/fastfood_", "suffix": ".png"}, "primary": true}], "photos": {"count": 0, "groups": []}}, "referralId": "e-0-55a645e2498e6c54786f5cc3-1"}, {"reasons": {"count": 0, "items": [{"summary": "This spot is popular", "type": "general", "reasonName": "globalInteractionReason"}]}, "venue": {"id": "565ddb0a498e5dbdf2a66b09", "name": "White Restaurant", "location": {"address": "#03-16, Sun Plaza", "crossStreet": "30 Sembawang Drive", "lat": 1.4484677257620298, "lng": 103.81986930816716, "labeledLatLngs": [{"label": "display", "lat": 1.4484677257620298, "lng": 103.81986930816716}], "distance": 72, "postalCode": "757713", "cc": "SG", "neighborhood": "Sembawang", "state": "Singapore", "country": "Singapore", "formattedAddress": ["#03-16, Sun Plaza (30 Sembawang Drive)", "757713", "Singapore"]}, "categories": [{"id": "4bf58dd8d48988d145941735", "name": "Chinese Restaurant", "pluralName": "Chinese Restaurants", "shortName": "Chinese", "icon": {"prefix": "https://ss3.4sqi.net/img/categories_v2/food/asian_", "suffix": ".png"}, "primary": true}], "photos": {"count": 0, "groups": []}}, "referralId": "e-0-565ddb0a498e5dbdf2a66b09-2"}, {"reasons": {"count": 0, "items": [{"summary": "This spot is popular", "type": "general", "reasonName": "globalInteractionReason"}]}, "venue": {"id": "54dc62f1498e5eff7d8517f8", "name": "Sushi Express", "location": {"address": "Sun Plaza", "lat": 1.4481183960933321, "lng": 103.81934801161154, "labeledLatLngs": [{"label": "display", "lat": 1.4481183960933321, "lng": 103.81934801161154}], "distance": 134, "cc": "SG", "country": "Singapore", "formattedAddress": ["Sun Plaza", "Singapore"]}, "categories": [{"id": "4bf58dd8d48988d111941735", "name": "Japanese Restaurant", "pluralName": "Japanese Restaurants", "shortName": "Japanese", "icon": {"prefix": "https://ss3.4sqi.net/img/categories_v2/food/japanese_", "suffix": ".png"}, "primary": true}], "photos": {"count": 0, "groups": []}}, "referralId": "e-0-54dc62f1498e5eff7d8517f8-3"}, {"reasons": {"count": 0, "items": [{"summary": "This spot is popular", "type": "general", "reasonName": "globalInteractionReason"}]}, "venue": {"id": "5597b0cc498ef6c957d5529b", "name": "Swensen's", "location": {"address": "#02-21/22 Sun Plaza", "crossStreet": "30 Sembawang Drive", "lat": 1.448177166719735, "lng": 103.8194713549583, "labeledLatLngs": [{"label": "display", "lat": 1.448177166719735, "lng": 103.8194713549583}], "distance": 120, "cc": "SG", "city": "Singapore", "country": "Singapore", "formattedAddress": ["#02-21/22 Sun Plaza (30 Sembawang Drive)", "Singapore"]}, "categories": [{"id": "52e81612bcbc57f1066b79f1", "name": "Bistro", "pluralName": "Bistros", "shortName": "Bistro", "icon": {"prefix": "https://ss3.4sqi.net/img/categories_v2/food/default_", "suffix": ".png"}, "primary": true}], "photos": {"count": 0, "groups": []}}, "referralId": "e-0-5597b0cc498ef6c957d5529b-4"}, {"reasons": {"count": 0, "items": [{"summary": "This spot is popular", "type": "general", "reasonName": "globalInteractionReason"}]}, "venue": {"id": "4b7a7fe9f964a520de2e2fe3", "name": "Ya Kun Kaya Toast \u4e9e\u5764", "location": {"address": "Sun Plaza", "crossStreet": "30 Sembawang Drive", "lat": 1.4481281417510359, "lng": 103.81944098706671, "labeledLatLngs": [{"label": "display", "lat": 1.4481281417510359, "lng": 103.81944098706671}], "distance": 127, "cc": "SG", "city": "Singapore", "country": "Singapore", "formattedAddress": ["Sun Plaza (30 Sembawang Drive)", "Singapore"]}, "categories": [{"id": "4bf58dd8d48988d1e0931735", "name": "Coffee Shop", "pluralName": "Coffee Shops", "shortName": "Coffee Shop", "icon": {"prefix": "https://ss3.4sqi.net/img/categories_v2/food/coffeeshop_", "suffix": ".png"}, "primary": true}], "photos": {"count": 0, "groups": []}}, "referralId": "e-0-4b7a7fe9f964a520de2e2fe3-5"}, {"reasons": {"count": 0, "items": [{"summary": "This spot is popular", "type": "general", "reasonName": "globalInteractionReason"}]}, "venue": {"id": "4b7f5eecf964a520a02a30e3", "name": "NTUC FairPrice", "location": {"address": "#B1-01/02, Sun Plaza", "crossStreet": "30 Sembawang Dr", "lat": 1.448071168837641, "lng": 103.81941928535086, "labeledLatLngs": [{"label": "display", "lat": 1.448071168837641, "lng": 103.81941928535086}], "distance": 133, "postalCode": "757713", "cc": "SG", "city": "Singapore", "country": "Singapore", "formattedAddress": ["#B1-01/02, Sun Plaza (30 Sembawang Dr)", "757713", "Singapore"]}, "categories": [{"id": "52f2ab2ebcbc57f1066b8b46", "name": "Supermarket", "pluralName": "Supermarkets", "shortName": "Supermarket", "icon": {"prefix": "https://ss3.4sqi.net/img/categories_v2/shops/food_grocery_", "suffix": ".png"}, "primary": true}], "photos": {"count": 0, "groups": []}}, "referralId": "e-0-4b7f5eecf964a520a02a30e3-6"}, {"reasons": {"count": 0, "items": [{"summary": "This spot is popular", "type": "general", "reasonName": "globalInteractionReason"}]}, "venue": {"id": "4b058816f964a5201fb122e3", "name": "Sun Plaza", "location": {"address": "30 Sembawang Dr", "crossStreet": "next to Sembawang MRT", "lat": 1.448386577730186, "lng": 103.81974966033243, "labeledLatLngs": [{"label": "display", "lat": 1.448386577730186, "lng": 103.81974966033243}], "distance": 85, "postalCode": "757713", "cc": "SG", "city": "Singapore", "country": "Singapore", "formattedAddress": ["30 Sembawang Dr (next to Sembawang MRT)", "757713", "Singapore"]}, "categories": [{"id": "4bf58dd8d48988d1fd941735", "name": "Shopping Mall", "pluralName": "Shopping Malls", "shortName": "Mall", "icon": {"prefix": "https://ss3.4sqi.net/img/categories_v2/shops/mall_", "suffix": ".png"}, "primary": true}], "photos": {"count": 0, "groups": []}}, "referralId": "e-0-4b058816f964a5201fb122e3-7"}, {"reasons": {"count": 0, "items": [{"summary": "This spot is popular", "type": "general", "reasonName": "globalInteractionReason"}]}, "venue": {"id": "4ba74f6cf964a520f08a39e3", "name": "KFC", "location": {"address": "#01-25 Sun Plaza", "crossStreet": "30 Sembawang Dr.", "lat": 1.447949625982657, "lng": 103.81897128353275, "labeledLatLngs": [{"label": "display", "lat": 1.447949625982657, "lng": 103.81897128353275}], "distance": 175, "postalCode": "757713", "cc": "SG", "city": "Sembawang Estate", "country": "Singapore", "formattedAddress": ["#01-25 Sun Plaza (30 Sembawang Dr.)", "757713", "Singapore"]}, "categories": [{"id": "4bf58dd8d48988d16e941735", "name": "Fast Food Restaurant", "pluralName": "Fast Food Restaurants", "shortName": "Fast Food", "icon": {"prefix": "https://ss3.4sqi.net/img/categories_v2/food/fastfood_", "suffix": ".png"}, "primary": true}], "photos": {"count": 0, "groups": []}}, "referralId": "e-0-4ba74f6cf964a520f08a39e3-8"}, {"reasons": {"count": 0, "items": [{"summary": "This spot is popular", "type": "general", "reasonName": "globalInteractionReason"}]}, "venue": {"id": "4de1ed3152b1d38d296294a7", "name": "Valu$", "location": {"address": "#01-02/03, Sun Plaza Mall", "lat": 1.447929260493735, "lng": 103.81894745806807, "labeledLatLngs": [{"label": "display", "lat": 1.447929260493735, "lng": 103.81894745806807}], "distance": 178, "cc": "SG", "city": "Singapore", "country": "Singapore", "formattedAddress": ["#01-02/03, Sun Plaza Mall", "Singapore"]}, "categories": [{"id": "52dea92d3cf9994f4e043dbb", "name": "Discount Store", "pluralName": "Discount Stores", "shortName": "Discount Store", "icon": {"prefix": "https://ss3.4sqi.net/img/categories_v2/shops/discountstore_", "suffix": ".png"}, "primary": true}], "photos": {"count": 0, "groups": []}}, "referralId": "e-0-4de1ed3152b1d38d296294a7-9"}, {"reasons": {"count": 0, "items": [{"summary": "This spot is popular", "type": "general", "reasonName": "globalInteractionReason"}]}, "venue": {"id": "55eab2ba498e084920000042", "name": "\u98df\u795e", "location": {"address": "Sun Plaza", "crossStreet": "Sembawang Drive", "lat": 1.448456385361664, "lng": 103.8198911704452, "labeledLatLngs": [{"label": "display", "lat": 1.448456385361664, "lng": 103.8198911704452}], "distance": 73, "cc": "SG", "city": "Sembawang Estate", "country": "Singapore", "formattedAddress": ["Sun Plaza (Sembawang Drive)", "Singapore"]}, "categories": [{"id": "52e81612bcbc57f1066b79f4", "name": "Buffet", "pluralName": "Buffets", "shortName": "Buffet", "icon": {"prefix": "https://ss3.4sqi.net/img/categories_v2/food/default_", "suffix": ".png"}, "primary": true}], "photos": {"count": 0, "groups": []}}, "referralId": "e-0-55eab2ba498e084920000042-10"}, {"reasons": {"count": 0, "items": [{"summary": "This spot is popular", "type": "general", "reasonName": "globalInteractionReason"}]}, "venue": {"id": "4e4257bb3151fbb810420cd8", "name": "NTUC Fairprice", "location": {"address": "355 Sembawang Way #01-01", "lat": 1.4492993966246932, "lng": 103.81946098016113, "labeledLatLngs": [{"label": "display", "lat": 1.4492993966246932, "lng": 103.81946098016113}], "distance": 70, "postalCode": "750355", "cc": "SG", "city": "Sembawang Estate", "country": "Singapore", "formattedAddress": ["355 Sembawang Way #01-01", "750355", "Singapore"]}, "categories": [{"id": "4bf58dd8d48988d118951735", "name": "Grocery Store", "pluralName": "Grocery Stores", "shortName": "Grocery Store", "icon": {"prefix": "https://ss3.4sqi.net/img/categories_v2/shops/food_grocery_", "suffix": ".png"}, "primary": true}], "photos": {"count": 0, "groups": []}}, "referralId": "e-0-4e4257bb3151fbb810420cd8-11"}, {"reasons": {"count": 0, "items": [{"summary": "This spot is popular", "type": "general", "reasonName": "globalInteractionReason"}]}, "venue": {"id": "4c262430905a0f478aa96260", "name": "Refresh Bodyworks", "location": {"address": "#02-20 Sun Plaza", "crossStreet": "30 Sembawang Dr", "lat": 1.448131375290886, "lng": 103.81958842277527, "labeledLatLngs": [{"label": "display", "lat": 1.448131375290886, "lng": 103.81958842277527}], "distance": 118, "postalCode": "757713", "cc": "SG", "city": "Singapore", "country": "Singapore", "formattedAddress": ["#02-20 Sun Plaza (30 Sembawang Dr)", "757713", "Singapore"]}, "categories": [{"id": "4bf58dd8d48988d1ed941735", "name": "Spa", "pluralName": "Spas", "shortName": "Spa", "icon": {"prefix": "https://ss3.4sqi.net/img/categories_v2/shops/spa_", "suffix": ".png"}, "primary": true}], "photos": {"count": 0, "groups": []}}, "referralId": "e-0-4c262430905a0f478aa96260-12"}, {"reasons": {"count": 0, "items": [{"summary": "This spot is popular", "type": "general", "reasonName": "globalInteractionReason"}]}, "venue": {"id": "51126468e4b02280ba15c9f4", "name": "Sembawang 505 Coffee Shop", "location": {"lat": 1.450005587626401, "lng": 103.82218551472972, "labeledLatLngs": [{"label": "display", "lat": 1.450005587626401, "lng": 103.82218551472972}], "distance": 257, "cc": "SG", "country": "Singapore", "formattedAddress": ["Singapore"]}, "categories": [{"id": "4bf58dd8d48988d1e0931735", "name": "Coffee Shop", "pluralName": "Coffee Shops", "shortName": "Coffee Shop", "icon": {"prefix": "https://ss3.4sqi.net/img/categories_v2/food/coffeeshop_", "suffix": ".png"}, "primary": true}], "photos": {"count": 0, "groups": []}}, "referralId": "e-0-51126468e4b02280ba15c9f4-13"}, {"reasons": {"count": 0, "items": [{"summary": "This spot is popular", "type": "general", "reasonName": "globalInteractionReason"}]}, "venue": {"id": "5813476438faf02a01db0a22", "name": "HAO Mart", "location": {"address": "505 Canberra link #01-01", "lat": 1.450213, "lng": 103.822916, "labeledLatLngs": [{"label": "display", "lat": 1.450213, "lng": 103.822916}], "distance": 341, "cc": "SG", "country": "Singapore", "formattedAddress": ["505 Canberra link #01-01", "Singapore"]}, "categories": [{"id": "4d954b0ea243a5684a65b473", "name": "Convenience Store", "pluralName": "Convenience Stores", "shortName": "Convenience Store", "icon": {"prefix": "https://ss3.4sqi.net/img/categories_v2/shops/conveniencestore_", "suffix": ".png"}, "primary": true}], "photos": {"count": 0, "groups": []}}, "referralId": "e-0-5813476438faf02a01db0a22-14"}, {"reasons": {"count": 0, "items": [{"summary": "This spot is popular", "type": "general", "reasonName": "globalInteractionReason"}]}, "venue": {"id": "4cda5bb84006a1439f23d1b2", "name": "Bus Stop 58109 (Opp Blk 311)", "location": {"address": "Canberra Rd", "lat": 1.4466427261484198, "lng": 103.82287715964644, "labeledLatLngs": [{"label": "display", "lat": 1.4466427261484198, "lng": 103.82287715964644}], "distance": 415, "cc": "SG", "city": "Singapore", "country": "Singapore", "formattedAddress": ["Canberra Rd", "Singapore"]}, "categories": [{"id": "4bf58dd8d48988d1fe931735", "name": "Bus Station", "pluralName": "Bus Stations", "shortName": "Bus Station", "icon": {"prefix": "https://ss3.4sqi.net/img/categories_v2/travel/busstation_", "suffix": ".png"}, "primary": true}], "photos": {"count": 0, "groups": []}}, "referralId": "e-0-4cda5bb84006a1439f23d1b2-15"}, {"reasons": {"count": 0, "items": [{"summary": "This spot is popular", "type": "general", "reasonName": "globalInteractionReason"}]}, "venue": {"id": "4d3aac53325ff04d197a1e45", "name": "Bus Stop 58129 (Blk 508 CP)", "location": {"address": "Canberra Road", "lat": 1.4528387416955566, "lng": 103.819783622746, "labeledLatLngs": [{"label": "display", "lat": 1.4528387416955566, "lng": 103.819783622746}], "distance": 418, "cc": "SG", "country": "Singapore", "formattedAddress": ["Canberra Road", "Singapore"]}, "categories": [{"id": "4bf58dd8d48988d1fe931735", "name": "Bus Station", "pluralName": "Bus Stations", "shortName": "Bus Station", "icon": {"prefix": "https://ss3.4sqi.net/img/categories_v2/travel/busstation_", "suffix": ".png"}, "primary": true}], "photos": {"count": 0, "groups": []}}, "referralId": "e-0-4d3aac53325ff04d197a1e45-16"}, {"reasons": {"count": 0, "items": [{"summary": "This spot is popular", "type": "general", "reasonName": "globalInteractionReason"}]}, "venue": {"id": "4bf627bc9abec9b64a6b25e8", "name": "Blk 358 Admiralty Drive Playground", "location": {"address": "358 Admiralty Drive", "crossStreet": "Sun Bliss", "lat": 1.449478515781803, "lng": 103.8159063022572, "labeledLatLngs": [{"label": "display", "lat": 1.449478515781803, "lng": 103.8159063022572}], "distance": 463, "cc": "SG", "city": "Singapore", "country": "Singapore", "formattedAddress": ["358 Admiralty Drive (Sun Bliss)", "Singapore"]}, "categories": [{"id": "4bf58dd8d48988d1e7941735", "name": "Playground", "pluralName": "Playgrounds", "shortName": "Playground", "icon": {"prefix": "https://ss3.4sqi.net/img/categories_v2/parks_outdoors/playground_", "suffix": ".png"}, "primary": true}], "photos": {"count": 0, "groups": []}}, "referralId": "e-0-4bf627bc9abec9b64a6b25e8-17"}, {"reasons": {"count": 0, "items": [{"summary": "This spot is popular", "type": "general", "reasonName": "globalInteractionReason"}]}, "venue": {"id": "4ccbbe49ba79a1cddb9536cb", "name": "Sembawang Mart Flower Shop", "location": {"lat": 1.453319, "lng": 103.820138, "labeledLatLngs": [{"label": "display", "lat": 1.453319, "lng": 103.820138}], "distance": 470, "cc": "SG", "country": "Singapore", "formattedAddress": ["Singapore"]}, "categories": [{"id": "4bf58dd8d48988d11b951735", "name": "Flower Shop", "pluralName": "Flower Shops", "shortName": "Flower Shop", "icon": {"prefix": "https://ss3.4sqi.net/img/categories_v2/shops/flowershop_", "suffix": ".png"}, "primary": true}], "photos": {"count": 0, "groups": []}}, "referralId": "e-0-4ccbbe49ba79a1cddb9536cb-18"}]}]}}