{"meta": {"code": 200, "requestId": "5e6ee6271835dd001ba26d6d"}, "response": {"suggestedFilters": {"header": "Tap to show:", "filters": [{"name": "Open now", "key": "openNow"}]}, "headerLocation": "Sengkang", "headerFullLocation": "Sengkang, Singapore", "headerLocationGranularity": "neighborhood", "totalResults": 32, "suggestedBounds": {"ne": {"lat": 1.3958304045000043, "lng": 103.89978702710282}, "sw": {"lat": 1.3868303954999952, "lng": 103.89080117289718}}, "groups": [{"type": "Recommended Places", "name": "recommended", "items": [{"reasons": {"count": 0, "items": [{"summary": "This spot is popular", "type": "general", "reasonName": "globalInteractionReason"}]}, "venue": {"id": "57c90306498e61437fbdac58", "name": "Maki-san", "location": {"address": "#01-45, Compass One", "crossStreet": "1 Sengkang Sq.", "lat": 1.3923110109254946, "lng": 103.8949687237786, "labeledLatLngs": [{"label": "display", "lat": 1.3923110109254946, "lng": 103.8949687237786}], "distance": 115, "postalCode": "545078", "cc": "SG", "city": "Sengkang", "state": "North East Community Development Region", "country": "Singapore", "formattedAddress": ["#01-45, Compass One (1 Sengkang Sq.)", "545078", "Singapore"]}, "categories": [{"id": "4bf58dd8d48988d1d2941735", "name": "Sushi Restaurant", "pluralName": "Sushi Restaurants", "shortName": "Sushi", "icon": {"prefix": "https://ss3.4sqi.net/img/categories_v2/food/sushi_", "suffix": ".png"}, "primary": true}], "photos": {"count": 0, "groups": []}}, "referralId": "e-0-57c90306498e61437fbdac58-0"}, {"reasons": {"count": 0, "items": [{"summary": "This spot is popular", "type": "general", "reasonName": "globalInteractionReason"}]}, "venue": {"id": "57c96c8c498eae8bcd4004f6", "name": "Ya Kun Family Cafe", "location": {"address": "#01-37, Compass One", "crossStreet": "1 Sengkang Sq.", "lat": 1.3919032285633344, "lng": 103.89491278601824, "labeledLatLngs": [{"label": "display", "lat": 1.3919032285633344, "lng": 103.89491278601824}], "distance": 76, "postalCode": "545078", "cc": "SG", "city": "Sengkang", "state": "North East Community Development Region", "country": "Singapore", "formattedAddress": ["#01-37, Compass One (1 Sengkang Sq.)", "545078", "Singapore"]}, "categories": [{"id": "4bf58dd8d48988d16d941735", "name": "Caf\u00e9", "pluralName": "Caf\u00e9s", "shortName": "Caf\u00e9", "icon": {"prefix": "https://ss3.4sqi.net/img/categories_v2/food/cafe_", "suffix": ".png"}, "primary": true}], "photos": {"count": 0, "groups": []}}, "referralId": "e-0-57c96c8c498eae8bcd4004f6-1"}, {"reasons": {"count": 0, "items": [{"summary": "This spot is popular", "type": "general", "reasonName": "globalInteractionReason"}]}, "venue": {"id": "57c7977c498e1cd1373e4552", "name": "Starbucks", "location": {"lat": 1.392367316242362, "lng": 103.8950180617861, "labeledLatLngs": [{"label": "display", "lat": 1.392367316242362, "lng": 103.8950180617861}], "distance": 119, "cc": "SG", "state": "Singapore", "country": "Singapore", "formattedAddress": ["Singapore"]}, "categories": [{"id": "4bf58dd8d48988d1e0931735", "name": "Coffee Shop", "pluralName": "Coffee Shops", "shortName": "Coffee Shop", "icon": {"prefix": "https://ss3.4sqi.net/img/categories_v2/food/coffeeshop_", "suffix": ".png"}, "primary": true}], "photos": {"count": 0, "groups": []}}, "referralId": "e-0-57c7977c498e1cd1373e4552-2"}, {"reasons": {"count": 0, "items": [{"summary": "This spot is popular", "type": "general", "reasonName": "globalInteractionReason"}]}, "venue": {"id": "597459c3e679bc300dd7782f", "name": "Ch\u00e2terais\u00e9", "location": {"address": "#03-39/40/41, Compass One", "crossStreet": "1 Sengkang Sq", "lat": 1.3922447904791313, "lng": 103.89507935934154, "labeledLatLngs": [{"label": "display", "lat": 1.3922447904791313, "lng": 103.89507935934154}], "distance": 104, "postalCode": "541257", "cc": "SG", "city": "Sengkang", "state": "North East Community Development Region", "country": "Singapore", "formattedAddress": ["#03-39/40/41, Compass One (1 Sengkang Sq)", "541257", "Singapore"]}, "categories": [{"id": "5744ccdfe4b0c0459246b4e2", "name": "Pastry Shop", "pluralName": "Pastry Shops", "shortName": "Pastry", "icon": {"prefix": "https://ss3.4sqi.net/img/categories_v2/food/dessert_", "suffix": ".png"}, "primary": true}], "photos": {"count": 0, "groups": []}}, "referralId": "e-0-597459c3e679bc300dd7782f-3"}, {"reasons": {"count": 0, "items": [{"summary": "This spot is popular", "type": "general", "reasonName": "globalInteractionReason"}]}, "venue": {"id": "57ca7247498e830388b266d6", "name": "Canton Paradise", "location": {"address": "#03-14, Compass One", "crossStreet": "1 Sengkang Sq.", "lat": 1.3922989240422525, "lng": 103.89512768870073, "labeledLatLngs": [{"label": "display", "lat": 1.3922989240422525, "lng": 103.89512768870073}], "distance": 109, "postalCode": "545078", "cc": "SG", "city": "Singapore", "country": "Singapore", "formattedAddress": ["#03-14, Compass One (1 Sengkang Sq.)", "545078", "Singapore"]}, "categories": [{"id": "4bf58dd8d48988d145941735", "name": "Chinese Restaurant", "pluralName": "Chinese Restaurants", "shortName": "Chinese", "icon": {"prefix": "https://ss3.4sqi.net/img/categories_v2/food/asian_", "suffix": ".png"}, "primary": true}], "photos": {"count": 0, "groups": []}}, "referralId": "e-0-57ca7247498e830388b266d6-4"}, {"reasons": {"count": 0, "items": [{"summary": "This spot is popular", "type": "general", "reasonName": "globalInteractionReason"}]}, "venue": {"id": "4b3b3b52f964a520a47125e3", "name": "Cold Storage", "location": {"address": "#B1-25, Compass One", "crossStreet": "1 Sengkang Sq.", "lat": 1.3923423744341394, "lng": 103.895036832252, "labeledLatLngs": [{"label": "display", "lat": 1.3923423744341394, "lng": 103.895036832252}], "distance": 116, "postalCode": "545078", "cc": "SG", "neighborhood": "Sengkang", "city": "Singapore", "country": "Singapore", "formattedAddress": ["#B1-25, Compass One (1 Sengkang Sq.)", "545078", "Singapore"]}, "categories": [{"id": "52f2ab2ebcbc57f1066b8b46", "name": "Supermarket", "pluralName": "Supermarkets", "shortName": "Supermarket", "icon": {"prefix": "https://ss3.4sqi.net/img/categories_v2/shops/food_grocery_", "suffix": ".png"}, "primary": true}], "photos": {"count": 0, "groups": []}}, "referralId": "e-0-4b3b3b52f964a520a47125e3-5"}, {"reasons": {"count": 0, "items": [{"summary": "This spot is popular", "type": "general", "reasonName": "globalInteractionReason"}]}, "venue": {"id": "57fe00cd38fac6d96f955ce8", "name": "kopitiam compassone (Kopitiam)", "location": {"address": "#04-11, Compass One", "crossStreet": "1 Sengkang Sq", "lat": 1.3922727763153966, "lng": 103.89511364873853, "labeledLatLngs": [{"label": "display", "lat": 1.3922727763153966, "lng": 103.89511364873853}], "distance": 106, "postalCode": "545078", "cc": "SG", "city": "Singapore", "country": "Singapore", "formattedAddress": ["#04-11, Compass One (1 Sengkang Sq)", "545078", "Singapore"]}, "categories": [{"id": "4bf58dd8d48988d120951735", "name": "Food Court", "pluralName": "Food Courts", "shortName": "Food Court", "icon": {"prefix": "https://ss3.4sqi.net/img/categories_v2/shops/food_foodcourt_", "suffix": ".png"}, "primary": true}], "photos": {"count": 0, "groups": []}}, "referralId": "e-0-57fe00cd38fac6d96f955ce8-6"}, {"reasons": {"count": 0, "items": [{"summary": "This spot is popular", "type": "general", "reasonName": "globalInteractionReason"}]}, "venue": {"id": "57bad31c498edb849d415f75", "name": "Subway", "location": {"address": "#01-20, Compass One", "crossStreet": "1 Sengkang Sq.", "lat": 1.3920523981589386, "lng": 103.89533754871836, "labeledLatLngs": [{"label": "display", "lat": 1.3920523981589386, "lng": 103.89533754871836}], "distance": 80, "postalCode": "545078", "cc": "SG", "city": "Singapore", "country": "Singapore", "formattedAddress": ["#01-20, Compass One (1 Sengkang Sq.)", "545078", "Singapore"]}, "categories": [{"id": "4bf58dd8d48988d1c5941735", "name": "Sandwich Place", "pluralName": "Sandwich Places", "shortName": "Sandwiches", "icon": {"prefix": "https://ss3.4sqi.net/img/categories_v2/food/deli_", "suffix": ".png"}, "primary": true}], "photos": {"count": 0, "groups": []}}, "referralId": "e-0-57bad31c498edb849d415f75-7"}, {"reasons": {"count": 0, "items": [{"summary": "This spot is popular", "type": "general", "reasonName": "globalInteractionReason"}]}, "venue": {"id": "4b6fbcd0f964a52041fb2ce3", "name": "Sengkang Sculpture Park", "location": {"address": "1 Sengkang Square", "lat": 1.3945493, "lng": 103.89663, "labeledLatLngs": [{"label": "display", "lat": 1.3945493, "lng": 103.89663}], "distance": 387, "cc": "SG", "city": "Singapore", "country": "Singapore", "formattedAddress": ["1 Sengkang Square", "Singapore"]}, "categories": [{"id": "4bf58dd8d48988d166941735", "name": "Sculpture Garden", "pluralName": "Sculpture Gardens", "shortName": "Sculpture", "icon": {"prefix": "https://ss3.4sqi.net/img/categories_v2/parks_outdoors/sculpture_", "suffix": ".png"}, "primary": true}], "photos": {"count": 0, "groups": []}}, "referralId": "e-0-4b6fbcd0f964a52041fb2ce3-8"}, {"reasons": {"count": 0, "items": [{"summary": "This spot is popular", "type": "general", "reasonName": "globalInteractionReason"}]}, "venue": {"id": "57cc11d2cd1043c5b748f744", "name": "McDonald's", "location": {"address": "1 Sengkang Square #B1-13 Compass One", "crossStreet": "1 Compass Sq", "lat": 1.392464658740058, "lng": 103.89517472645691, "labeledLatLngs": [{"label": "display", "lat": 1.392464658740058, "lng": 103.89517472645691}], "distance": 126, "postalCode": "545078", "cc": "SG", "city": "Singapore", "country": "Singapore", "formattedAddress": ["1 Sengkang Square #B1-13 Compass One (1 Compass Sq)", "545078", "Singapore"]}, "categories": [{"id": "4bf58dd8d48988d16e941735", "name": "Fast Food Restaurant", "pluralName": "Fast Food Restaurants", "shortName": "Fast Food", "icon": {"prefix": "https://ss3.4sqi.net/img/categories_v2/food/fastfood_", "suffix": ".png"}, "primary": true}], "photos": {"count": 0, "groups": []}}, "referralId": "e-0-57cc11d2cd1043c5b748f744-9"}, {"reasons": {"count": 0, "items": [{"summary": "This spot is popular", "type": "general", "reasonName": "globalInteractionReason"}]}, "venue": {"id": "57c902d9498e411720c9eed7", "name": "Jack's Place", "location": {"address": "#04-07, Compass One", "crossStreet": "1 Sengkang Sq.", "lat": 1.3922495503703987, "lng": 103.89507989664473, "labeledLatLngs": [{"label": "display", "lat": 1.3922495503703987, "lng": 103.89507989664473}], "distance": 105, "postalCode": "545078", "cc": "SG", "neighborhood": "Sengkang", "city": "Singapore", "country": "Singapore", "formattedAddress": ["#04-07, Compass One (1 Sengkang Sq.)", "545078", "Singapore"]}, "categories": [{"id": "4bf58dd8d48988d1cc941735", "name": "Steakhouse", "pluralName": "Steakhouses", "shortName": "Steakhouse", "icon": {"prefix": "https://ss3.4sqi.net/img/categories_v2/food/steakhouse_", "suffix": ".png"}, "primary": true}], "photos": {"count": 0, "groups": []}}, "referralId": "e-0-57c902d9498e411720c9eed7-10"}, {"reasons": {"count": 0, "items": [{"summary": "This spot is popular", "type": "general", "reasonName": "globalInteractionReason"}]}, "venue": {"id": "4b8913dff964a5207f1b32e3", "name": "Kopitiam Square", "location": {"address": "10 Sengkang Sq.", "lat": 1.3914116301112787, "lng": 103.89375257032209, "labeledLatLngs": [{"label": "display", "lat": 1.3914116301112787, "lng": 103.89375257032209}], "distance": 171, "postalCode": "544829", "cc": "SG", "city": "Singapore", "country": "Singapore", "formattedAddress": ["10 Sengkang Sq.", "544829", "Singapore"]}, "categories": [{"id": "4bf58dd8d48988d120951735", "name": "Food Court", "pluralName": "Food Courts", "shortName": "Food Court", "icon": {"prefix": "https://ss3.4sqi.net/img/categories_v2/shops/food_foodcourt_", "suffix": ".png"}, "primary": true}], "photos": {"count": 0, "groups": []}}, "referralId": "e-0-4b8913dff964a5207f1b32e3-11"}, {"reasons": {"count": 0, "items": [{"summary": "This spot is popular", "type": "general", "reasonName": "globalInteractionReason"}]}, "venue": {"id": "4b0bd279f964a520ec3323e3", "name": "Compass One", "location": {"address": "1 Sengkang Sq.", "lat": 1.3923495643750352, "lng": 103.89506811317483, "labeledLatLngs": [{"label": "display", "lat": 1.3923495643750352, "lng": 103.89506811317483}], "distance": 116, "postalCode": "545078", "cc": "SG", "city": "Singapore", "country": "Singapore", "formattedAddress": ["1 Sengkang Sq.", "545078", "Singapore"]}, "categories": [{"id": "4bf58dd8d48988d1fd941735", "name": "Shopping Mall", "pluralName": "Shopping Malls", "shortName": "Mall", "icon": {"prefix": "https://ss3.4sqi.net/img/categories_v2/shops/mall_", "suffix": ".png"}, "primary": true}], "photos": {"count": 0, "groups": []}}, "referralId": "e-0-4b0bd279f964a520ec3323e3-12"}, {"reasons": {"count": 0, "items": [{"summary": "This spot is popular", "type": "general", "reasonName": "globalInteractionReason"}]}, "venue": {"id": "57c7975f498e8149c9c530d8", "name": "KFC", "location": {"address": "Compass One", "crossStreet": "1 Sengkang Square", "lat": 1.3921356, "lng": 103.895355, "labeledLatLngs": [{"label": "display", "lat": 1.3921356, "lng": 103.895355}], "distance": 89, "postalCode": "545078", "cc": "SG", "neighborhood": "Sengkang", "city": "Singapore", "country": "Singapore", "formattedAddress": ["Compass One (1 Sengkang Square)", "545078", "Singapore"]}, "categories": [{"id": "4bf58dd8d48988d16e941735", "name": "Fast Food Restaurant", "pluralName": "Fast Food Restaurants", "shortName": "Fast Food", "icon": {"prefix": "https://ss3.4sqi.net/img/categories_v2/food/fastfood_", "suffix": ".png"}, "primary": true}], "photos": {"count": 0, "groups": []}}, "referralId": "e-0-57c7975f498e8149c9c530d8-13"}, {"reasons": {"count": 0, "items": [{"summary": "This spot is popular", "type": "general", "reasonName": "globalInteractionReason"}]}, "venue": {"id": "4ca40a1a750ca09375631e67", "name": "Uncle Tony's Tuckshop", "location": {"address": "#01-05 Sengkang Community Hub", "crossStreet": "2 Sengkang Square", "lat": 1.3931002373129582, "lng": 103.8943565364528, "labeledLatLngs": [{"label": "display", "lat": 1.3931002373129582, "lng": 103.8943565364528}], "distance": 222, "postalCode": "545025", "cc": "SG", "neighborhood": "Sengkang", "city": "Singapore", "country": "Singapore", "formattedAddress": ["#01-05 Sengkang Community Hub (2 Sengkang Square)", "545025", "Singapore"]}, "categories": [{"id": "4bf58dd8d48988d142941735", "name": "Asian Restaurant", "pluralName": "Asian Restaurants", "shortName": "Asian", "icon": {"prefix": "https://ss3.4sqi.net/img/categories_v2/food/asian_", "suffix": ".png"}, "primary": true}], "photos": {"count": 0, "groups": []}}, "referralId": "e-0-4ca40a1a750ca09375631e67-14"}, {"reasons": {"count": 0, "items": [{"summary": "This spot is popular", "type": "general", "reasonName": "globalInteractionReason"}]}, "venue": {"id": "57c81a51498e61091cfd8e10", "name": "Swensen's", "location": {"address": "#B1-16, Compass One", "crossStreet": "1 Sengkang Sq.", "lat": 1.3923781125141068, "lng": 103.89517558396439, "labeledLatLngs": [{"label": "display", "lat": 1.3923781125141068, "lng": 103.89517558396439}], "distance": 117, "postalCode": "545078", "cc": "SG", "city": "Singapore", "country": "Singapore", "formattedAddress": ["#B1-16, Compass One (1 Sengkang Sq.)", "545078", "Singapore"]}, "categories": [{"id": "4bf58dd8d48988d1c4941735", "name": "Restaurant", "pluralName": "Restaurants", "shortName": "Restaurant", "icon": {"prefix": "https://ss3.4sqi.net/img/categories_v2/food/default_", "suffix": ".png"}, "primary": true}], "photos": {"count": 0, "groups": []}}, "referralId": "e-0-57c81a51498e61091cfd8e10-15"}, {"reasons": {"count": 0, "items": [{"summary": "This spot is popular", "type": "general", "reasonName": "globalInteractionReason"}]}, "venue": {"id": "57ecec8c498ed9eb3c8a8ec3", "name": "Burger King", "location": {"address": "#B1-14/14A, Compass One", "crossStreet": "1 Sengkang Sq", "lat": 1.3924458891275455, "lng": 103.89519604623995, "labeledLatLngs": [{"label": "display", "lat": 1.3924458891275455, "lng": 103.89519604623995}], "distance": 124, "postalCode": "545078", "cc": "SG", "city": "Singapore", "country": "Singapore", "formattedAddress": ["#B1-14/14A, Compass One (1 Sengkang Sq)", "545078", "Singapore"]}, "categories": [{"id": "4bf58dd8d48988d16e941735", "name": "Fast Food Restaurant", "pluralName": "Fast Food Restaurants", "shortName": "Fast Food", "icon": {"prefix": "https://ss3.4sqi.net/img/categories_v2/food/fastfood_", "suffix": ".png"}, "primary": true}], "photos": {"count": 0, "groups": []}}, "referralId": "e-0-57ecec8c498ed9eb3c8a8ec3-16"}, {"reasons": {"count": 0, "items": [{"summary": "This spot is popular", "type": "general", "reasonName": "globalInteractionReason"}]}, "venue": {"id": "57ca85c5498e1f871a5edbf4", "name": "The Coffee Bean & Tea Leaf", "location": {"address": "#02-11, Compass One", "crossStreet": "1 Sengkang Sq.", "lat": 1.3923470889259757, "lng": 103.89518845507969, "labeledLatLngs": [{"label": "display", "lat": 1.3923470889259757, "lng": 103.89518845507969}], "distance": 113, "postalCode": "545078", "cc": "SG", "city": "Singapore", "country": "Singapore", "formattedAddress": ["#02-11, Compass One (1 Sengkang Sq.)", "545078", "Singapore"]}, "categories": [{"id": "4bf58dd8d48988d1e0931735", "name": "Coffee Shop", "pluralName": "Coffee Shops", "shortName": "Coffee Shop", "icon": {"prefix": "https://ss3.4sqi.net/img/categories_v2/food/coffeeshop_", "suffix": ".png"}, "primary": true}], "photos": {"count": 0, "groups": []}}, "referralId": "e-0-57ca85c5498e1f871a5edbf4-17"}, {"reasons": {"count": 0, "items": [{"summary": "This spot is popular", "type": "general", "reasonName": "globalInteractionReason"}]}, "venue": {"id": "57d109e4498e6c37e30e8c2c", "name": "LeNu \u6a02\u725b", "location": {"address": "1 Sengkang Square", "crossStreet": "#03-05", "lat": 1.3924151247455308, "lng": 103.89505243463142, "labeledLatLngs": [{"label": "display", "lat": 1.3924151247455308, "lng": 103.89505243463142}], "distance": 123, "postalCode": "545078", "cc": "SG", "city": "Sengkang", "state": "North East Community Development Region", "country": "Singapore", "formattedAddress": ["1 Sengkang Square (#03-05)", "545078", "Singapore"]}, "categories": [{"id": "4bf58dd8d48988d1d1941735", "name": "Noodle House", "pluralName": "Noodle Houses", "shortName": "Noodles", "icon": {"prefix": "https://ss3.4sqi.net/img/categories_v2/food/ramen_", "suffix": ".png"}, "primary": true}], "photos": {"count": 0, "groups": []}}, "referralId": "e-0-57d109e4498e6c37e30e8c2c-18"}, {"reasons": {"count": 0, "items": [{"summary": "This spot is popular", "type": "general", "reasonName": "globalInteractionReason"}]}, "venue": {"id": "4dc3db75e4cd169dc6235caf", "name": "SKCC Basketball Court", "location": {"address": "Sengkang Community Club", "crossStreet": "2 Sengkang Square", "lat": 1.3921034874333642, "lng": 103.89370680111536, "labeledLatLngs": [{"label": "display", "lat": 1.3921034874333642, "lng": 103.89370680111536}], "distance": 196, "cc": "SG", "city": "Singapore", "country": "Singapore", "formattedAddress": ["Sengkang Community Club (2 Sengkang Square)", "Singapore"]}, "categories": [{"id": "4bf58dd8d48988d1e1941735", "name": "Basketball Court", "pluralName": "Basketball Courts", "shortName": "Basketball Court", "icon": {"prefix": "https://ss3.4sqi.net/img/categories_v2/parks_outdoors/basketballcourt_", "suffix": ".png"}, "primary": true}], "photos": {"count": 0, "groups": []}}, "referralId": "e-0-4dc3db75e4cd169dc6235caf-19"}, {"reasons": {"count": 0, "items": [{"summary": "This spot is popular", "type": "general", "reasonName": "globalInteractionReason"}]}, "venue": {"id": "57de2b0b498e282861cb5c9e", "name": "royal london duck", "location": {"address": "1 Sengkang square", "lat": 1.391836, "lng": 103.894646, "labeledLatLngs": [{"label": "display", "lat": 1.391836, "lng": 103.894646}], "distance": 91, "cc": "SG", "country": "Singapore", "formattedAddress": ["1 Sengkang square", "Singapore"]}, "categories": [{"id": "4bf58dd8d48988d145941735", "name": "Chinese Restaurant", "pluralName": "Chinese Restaurants", "shortName": "Chinese", "icon": {"prefix": "https://ss3.4sqi.net/img/categories_v2/food/asian_", "suffix": ".png"}, "primary": true}], "photos": {"count": 0, "groups": []}}, "referralId": "e-0-57de2b0b498e282861cb5c9e-20"}, {"reasons": {"count": 0, "items": [{"summary": "This spot is popular", "type": "general", "reasonName": "globalInteractionReason"}]}, "venue": {"id": "5b37758d9e0d54002ce3ddef", "name": "Chicken Pot", "location": {"lat": 1.392464, "lng": 103.89508, "labeledLatLngs": [{"label": "display", "lat": 1.392464, "lng": 103.89508}], "distance": 128, "cc": "SG", "city": "Sengkang", "state": "North East Community Development Region", "country": "Singapore", "formattedAddress": ["Singapore"]}, "categories": [{"id": "4bf58dd8d48988d145941735", "name": "Chinese Restaurant", "pluralName": "Chinese Restaurants", "shortName": "Chinese", "icon": {"prefix": "https://ss3.4sqi.net/img/categories_v2/food/asian_", "suffix": ".png"}, "primary": true}], "photos": {"count": 0, "groups": []}}, "referralId": "e-0-5b37758d9e0d54002ce3ddef-21"}, {"reasons": {"count": 0, "items": [{"summary": "This spot is popular", "type": "general", "reasonName": "globalInteractionReason"}]}, "venue": {"id": "57ee45fd498e87c6c78b1aaa", "name": "A-One Claypot House", "location": {"address": "#02-36, Compass One", "crossStreet": "1 Sengkang Sq.", "lat": 1.3916494, "lng": 103.89454, "labeledLatLngs": [{"label": "display", "lat": 1.3916494, "lng": 103.89454}], "distance": 91, "postalCode": "545078", "cc": "SG", "city": "Singapore", "country": "Singapore", "formattedAddress": ["#02-36, Compass One (1 Sengkang Sq.)", "545078", "Singapore"]}, "categories": [{"id": "4bf58dd8d48988d142941735", "name": "Asian Restaurant", "pluralName": "Asian Restaurants", "shortName": "Asian", "icon": {"prefix": "https://ss3.4sqi.net/img/categories_v2/food/asian_", "suffix": ".png"}, "primary": true}], "photos": {"count": 0, "groups": []}}, "referralId": "e-0-57ee45fd498e87c6c78b1aaa-22"}, {"reasons": {"count": 0, "items": [{"summary": "This spot is popular", "type": "general", "reasonName": "globalInteractionReason"}]}, "venue": {"id": "57cea24e498e532c6bb4143c", "name": "Shan Cheng", "location": {"address": "1 Sengkang Square, CompassOne, #02-28/32", "lat": 1.39171308906867, "lng": 103.89492786815731, "labeledLatLngs": [{"label": "display", "lat": 1.39171308906867, "lng": 103.89492786815731}], "distance": 58, "postalCode": "545078", "cc": "SG", "city": "Sengkang", "state": "North East Community Development Region", "country": "Singapore", "formattedAddress": ["1 Sengkang Square, CompassOne, #02-28/32", "545078", "Singapore"]}, "categories": [{"id": "4bf58dd8d48988d145941735", "name": "Chinese Restaurant", "pluralName": "Chinese Restaurants", "shortName": "Chinese", "icon": {"prefix": "https://ss3.4sqi.net/img/categories_v2/food/asian_", "suffix": ".png"}, "primary": true}], "photos": {"count": 0, "groups": []}}, "referralId": "e-0-57cea24e498e532c6bb4143c-23"}, {"reasons": {"count": 0, "items": [{"summary": "This spot is popular", "type": "general", "reasonName": "globalInteractionReason"}]}, "venue": {"id": "4cd091b57561236ae10a2df3", "name": "Bus Stop 67449 (Blk 323B)", "location": {"address": "Sengkang East Rd.", "lat": 1.3918356756725418, "lng": 103.89317090486463, "labeledLatLngs": [{"label": "display", "lat": 1.3918356756725418, "lng": 103.89317090486463}], "distance": 242, "cc": "SG", "city": "Singapore", "country": "Singapore", "formattedAddress": ["Sengkang East Rd.", "Singapore"]}, "categories": [{"id": "4bf58dd8d48988d1fe931735", "name": "Bus Station", "pluralName": "Bus Stations", "shortName": "Bus Station", "icon": {"prefix": "https://ss3.4sqi.net/img/categories_v2/travel/busstation_", "suffix": ".png"}, "primary": true}], "photos": {"count": 0, "groups": []}}, "referralId": "e-0-4cd091b57561236ae10a2df3-24"}, {"reasons": {"count": 0, "items": [{"summary": "This spot is popular", "type": "general", "reasonName": "globalInteractionReason"}]}, "venue": {"id": "58c8ad0d2a19821de84f5940", "name": "NTWU Canteen", "location": {"address": "Compassvale Bus Interchange", "crossStreet": "51A Compassvale Road", "lat": 1.3915759739566218, "lng": 103.8976557778541, "labeledLatLngs": [{"label": "display", "lat": 1.3915759739566218, "lng": 103.8976557778541}], "distance": 264, "postalCode": "544760", "cc": "SG", "city": "Singapore", "country": "Singapore", "formattedAddress": ["Compassvale Bus Interchange (51A Compassvale Road)", "544760", "Singapore"]}, "categories": [{"id": "4bf58dd8d48988d128941735", "name": "Cafeteria", "pluralName": "Cafeterias", "shortName": "Cafeteria", "icon": {"prefix": "https://ss3.4sqi.net/img/categories_v2/education/cafeteria_", "suffix": ".png"}, "primary": true}], "photos": {"count": 0, "groups": []}}, "referralId": "e-0-58c8ad0d2a19821de84f5940-25"}, {"reasons": {"count": 0, "items": [{"summary": "This spot is popular", "type": "general", "reasonName": "globalInteractionReason"}]}, "venue": {"id": "5186e7fa498eaddd8cf0acc7", "name": "SBS Transit: Bus 159A", "location": {"lat": 1.3925875993228305, "lng": 103.89739293353077, "labeledLatLngs": [{"label": "display", "lat": 1.3925875993228305, "lng": 103.89739293353077}], "distance": 272, "cc": "SG", "city": "Singapore", "country": "Singapore", "formattedAddress": ["Singapore"]}, "categories": [{"id": "4bf58dd8d48988d12b951735", "name": "Bus Line", "pluralName": "Bus Lines", "shortName": "Bus", "icon": {"prefix": "https://ss3.4sqi.net/img/categories_v2/travel/busstation_", "suffix": ".png"}, "primary": true}], "photos": {"count": 0, "groups": []}}, "referralId": "e-0-5186e7fa498eaddd8cf0acc7-26"}, {"reasons": {"count": 0, "items": [{"summary": "This spot is popular", "type": "general", "reasonName": "globalInteractionReason"}]}, "venue": {"id": "4d4ab66a48a06dcb03c47da2", "name": "Bus Stop 67341 (Opp Blk 204 Cp)", "location": {"address": "Compassvale Dr", "lat": 1.3886267824400138, "lng": 103.89500556681615, "labeledLatLngs": [{"label": "display", "lat": 1.3886267824400138, "lng": 103.89500556681615}], "distance": 302, "cc": "SG", "country": "Singapore", "formattedAddress": ["Compassvale Dr", "Singapore"]}, "categories": [{"id": "4bf58dd8d48988d1fe931735", "name": "Bus Station", "pluralName": "Bus Stations", "shortName": "Bus Station", "icon": {"prefix": "https://ss3.4sqi.net/img/categories_v2/travel/busstation_", "suffix": ".png"}, "primary": true}], "photos": {"count": 0, "groups": []}}, "referralId": "e-0-4d4ab66a48a06dcb03c47da2-27"}, {"reasons": {"count": 0, "items": [{"summary": "This spot is popular", "type": "general", "reasonName": "globalInteractionReason"}]}, "venue": {"id": "4c29f6853492a593b4acb928", "name": "Bus Stop 67249 (Blk 259C)", "location": {"address": "259C Compassvale Road", "lat": 1.3931523161685828, "lng": 103.89760596243144, "labeledLatLngs": [{"label": "display", "lat": 1.3931523161685828, "lng": 103.89760596243144}], "distance": 327, "postalCode": "543259", "cc": "SG", "city": "Singapore", "country": "Singapore", "formattedAddress": ["259C Compassvale Road", "543259", "Singapore"]}, "categories": [{"id": "4bf58dd8d48988d1fe931735", "name": "Bus Station", "pluralName": "Bus Stations", "shortName": "Bus Station", "icon": {"prefix": "https://ss3.4sqi.net/img/categories_v2/travel/busstation_", "suffix": ".png"}, "primary": true}], "photos": {"count": 0, "groups": []}}, "referralId": "e-0-4c29f6853492a593b4acb928-28"}, {"reasons": {"count": 0, "items": [{"summary": "This spot is popular", "type": "general", "reasonName": "globalInteractionReason"}]}, "venue": {"id": "4d11ef54957fa1cd793d6a9f", "name": "260 basketball court", "location": {"lat": 1.3945535517891643, "lng": 103.89566917749006, "labeledLatLngs": [{"label": "display", "lat": 1.3945535517891643, "lng": 103.89566917749006}], "distance": 361, "cc": "SG", "country": "Singapore", "formattedAddress": ["Singapore"]}, "categories": [{"id": "4bf58dd8d48988d1e1941735", "name": "Basketball Court", "pluralName": "Basketball Courts", "shortName": "Basketball Court", "icon": {"prefix": "https://ss3.4sqi.net/img/categories_v2/parks_outdoors/basketballcourt_", "suffix": ".png"}, "primary": true}], "photos": {"count": 0, "groups": []}}, "referralId": "e-0-4d11ef54957fa1cd793d6a9f-29"}, {"reasons": {"count": 0, "items": [{"summary": "This spot is popular", "type": "general", "reasonName": "globalInteractionReason"}]}, "venue": {"id": "4bef6f62f2712d7f4fcefbd8", "name": "Basketball Court", "location": {"address": "201B Compassvale Drive", "lat": 1.3877477752570109, "lng": 103.89394593595628, "labeledLatLngs": [{"label": "display", "lat": 1.3877477752570109, "lng": 103.89394593595628}], "distance": 426, "postalCode": "543201", "cc": "SG", "city": "Singapore", "country": "Singapore", "formattedAddress": ["201B Compassvale Drive", "543201", "Singapore"]}, "categories": [{"id": "4bf58dd8d48988d1e1941735", "name": "Basketball Court", "pluralName": "Basketball Courts", "shortName": "Basketball Court", "icon": {"prefix": "https://ss3.4sqi.net/img/categories_v2/parks_outdoors/basketballcourt_", "suffix": ".png"}, "primary": true}], "photos": {"count": 0, "groups": []}}, "referralId": "e-0-4bef6f62f2712d7f4fcefbd8-30"}, {"reasons": {"count": 0, "items": [{"summary": "This spot is popular", "type": "general", "reasonName": "globalInteractionReason"}]}, "venue": {"id": "5bf9f17e25fb7b003136172e", "name": "Kaffe & Toast", "location": {"address": "Sengkang Hospital #01-04", "lat": 1.394893, "lng": 103.892814, "labeledLatLngs": [{"label": "display", "lat": 1.394893, "lng": 103.892814}], "distance": 483, "cc": "SG", "city": "Sengkang", "state": "North East Community Development Region", "country": "Singapore", "formattedAddress": ["Sengkang Hospital #01-04", "Singapore"]}, "categories": [{"id": "4bf58dd8d48988d16d941735", "name": "Caf\u00e9", "pluralName": "Caf\u00e9s", "shortName": "Caf\u00e9", "icon": {"prefix": "https://ss3.4sqi.net/img/categories_v2/food/cafe_", "suffix": ".png"}, "primary": true}], "photos": {"count": 0, "groups": []}}, "referralId": "e-0-5bf9f17e25fb7b003136172e-31"}]}]}}