{"meta": {"code": 200, "requestId": "5e70dd953907e7001b133b8e"}, "response": {"headerLocation": "Central Region", "headerFullLocation": "Central Region, Singapore", "headerLocationGranularity": "neighborhood", "totalResults": 9, "suggestedBounds": {"ne": {"lat": 1.2755889045000044, "lng": 103.86777270799763}, "sw": {"lat": 1.2665888954999953, "lng": 103.85878729200238}}, "groups": [{"type": "Recommended Places", "name": "recommended", "items": [{"reasons": {"count": 0, "items": [{"summary": "This spot is popular", "type": "general", "reasonName": "globalInteractionReason"}]}, "venue": {"id": "5039db8be4b08256fb72ba25", "name": "Singapore Maritime Gallery", "location": {"address": "Marina South Pier", "crossStreet": "31 Marina Coastal Drive", "lat": 1.2709749584852235, "lng": 103.86337030286774, "labeledLatLngs": [{"label": "display", "lat": 1.2709749584852235, "lng": 103.86337030286774}], "distance": 16, "postalCode": "018988", "cc": "SG", "city": "Singapore", "country": "Singapore", "formattedAddress": ["Marina South Pier (31 Marina Coastal Drive)", "018988", "Singapore"]}, "categories": [{"id": "4bf58dd8d48988d190941735", "name": "History Museum", "pluralName": "History Museums", "shortName": "History Museum", "icon": {"prefix": "https://ss3.4sqi.net/img/categories_v2/arts_entertainment/museum_history_", "suffix": ".png"}, "primary": true}], "photos": {"count": 0, "groups": []}}, "referralId": "e-0-5039db8be4b08256fb72ba25-0"}, {"reasons": {"count": 0, "items": [{"summary": "This spot is popular", "type": "general", "reasonName": "globalInteractionReason"}]}, "venue": {"id": "52f95bba498e579c7190b617", "name": "Marina South Pier MRT Station (NS28)", "location": {"address": "33 Marina Coastal Drive", "lat": 1.2710667751033184, "lng": 103.86321569302476, "labeledLatLngs": [{"label": "display", "lat": 1.2710667751033184, "lng": 103.86321569302476}], "distance": 7, "postalCode": "018948", "cc": "SG", "country": "Singapore", "formattedAddress": ["33 Marina Coastal Drive", "018948", "Singapore"]}, "categories": [{"id": "4bf58dd8d48988d1fd931735", "name": "Metro Station", "pluralName": "Metro Stations", "shortName": "Metro", "icon": {"prefix": "https://ss3.4sqi.net/img/categories_v2/travel/subway_", "suffix": ".png"}, "primary": true}], "photos": {"count": 0, "groups": []}}, "referralId": "e-0-52f95bba498e579c7190b617-1"}, {"reasons": {"count": 0, "items": [{"summary": "This spot is popular", "type": "general", "reasonName": "globalInteractionReason"}]}, "venue": {"id": "4c14cf7fa5eb76b01742c2b7", "name": "Santa Fe", "location": {"address": "31 Marina Coastal Drive", "lat": 1.2705585721015433, "lng": 103.86411267616721, "labeledLatLngs": [{"label": "display", "lat": 1.2705585721015433, "lng": 103.86411267616721}], "distance": 109, "postalCode": "018988", "cc": "SG", "city": "Singapore", "country": "Singapore", "formattedAddress": ["31 Marina Coastal Drive", "018988", "Singapore"]}, "categories": [{"id": "4bf58dd8d48988d1c1941735", "name": "Mexican Restaurant", "pluralName": "Mexican Restaurants", "shortName": "Mexican", "icon": {"prefix": "https://ss3.4sqi.net/img/categories_v2/food/mexican_", "suffix": ".png"}, "primary": true}], "photos": {"count": 0, "groups": []}}, "referralId": "e-0-4c14cf7fa5eb76b01742c2b7-2"}, {"reasons": {"count": 0, "items": [{"summary": "This spot is popular", "type": "general", "reasonName": "globalInteractionReason"}]}, "venue": {"id": "4b48936af964a520a84f26e3", "name": "Marina South Pier", "location": {"address": "31 Marina Coastal Dr.", "lat": 1.2710434214776045, "lng": 103.86333119433625, "labeledLatLngs": [{"label": "display", "lat": 1.2710434214776045, "lng": 103.86333119433625}], "distance": 7, "postalCode": "018988", "cc": "SG", "city": "Singapore", "country": "Singapore", "formattedAddress": ["31 Marina Coastal Dr.", "018988", "Singapore"]}, "categories": [{"id": "4e74f6cabd41c4836eac4c31", "name": "Pier", "pluralName": "Piers", "shortName": "Piers", "icon": {"prefix": "https://ss3.4sqi.net/img/categories_v2/travel/ferry_pier_", "suffix": ".png"}, "primary": true}], "photos": {"count": 0, "groups": []}}, "referralId": "e-0-4b48936af964a520a84f26e3-3"}, {"reasons": {"count": 0, "items": [{"summary": "This spot is popular", "type": "general", "reasonName": "globalInteractionReason"}]}, "venue": {"id": "4d04a7d330a58cfa9205a1e7", "name": "Heng Lee Boat Ser Pte Ltd @ MSP", "location": {"lat": 1.2709739184102993, "lng": 103.86336465252492, "labeledLatLngs": [{"label": "display", "lat": 1.2709739184102993, "lng": 103.86336465252492}], "distance": 15, "cc": "SG", "country": "Singapore", "formattedAddress": ["Singapore"]}, "categories": [{"id": "4bf58dd8d48988d12d951735", "name": "Boat or Ferry", "pluralName": "Boats or Ferries", "shortName": "Boat / Ferry", "icon": {"prefix": "https://ss3.4sqi.net/img/categories_v2/travel/boat_", "suffix": ".png"}, "primary": true}], "photos": {"count": 0, "groups": []}}, "referralId": "e-0-4d04a7d330a58cfa9205a1e7-4"}, {"reasons": {"count": 0, "items": [{"summary": "This spot is popular", "type": "general", "reasonName": "globalInteractionReason"}]}, "venue": {"id": "5a82475164c8e102ca8f937a", "name": "Island Cruises", "location": {"address": "Marina South Pier", "lat": 1.270262, "lng": 103.863716, "labeledLatLngs": [{"label": "display", "lat": 1.270262, "lng": 103.863716}], "distance": 104, "cc": "SG", "city": "Singapore", "country": "Singapore", "formattedAddress": ["Marina South Pier", "Singapore"]}, "categories": [{"id": "4bf58dd8d48988d12d951735", "name": "Boat or Ferry", "pluralName": "Boats or Ferries", "shortName": "Boat / Ferry", "icon": {"prefix": "https://ss3.4sqi.net/img/categories_v2/travel/boat_", "suffix": ".png"}, "primary": true}], "photos": {"count": 0, "groups": []}}, "referralId": "e-0-5a82475164c8e102ca8f937a-5"}, {"reasons": {"count": 0, "items": [{"summary": "This spot is popular", "type": "general", "reasonName": "globalInteractionReason"}]}, "venue": {"id": "508cd9f7e4b086e59a610cae", "name": "Mariners' Cove", "location": {"address": "31 Marina Coastal Drive #02-02 Marina South Pier", "lat": 1.2706467271827133, "lng": 103.86313791770317, "labeledLatLngs": [{"label": "display", "lat": 1.2706467271827133, "lng": 103.86313791770317}], "distance": 51, "postalCode": "018988", "cc": "SG", "city": "Singapore", "country": "Singapore", "formattedAddress": ["31 Marina Coastal Drive #02-02 Marina South Pier", "018988", "Singapore"]}, "categories": [{"id": "4bf58dd8d48988d1c7941735", "name": "Snack Place", "pluralName": "Snack Places", "shortName": "Snacks", "icon": {"prefix": "https://ss3.4sqi.net/img/categories_v2/food/snacks_", "suffix": ".png"}, "primary": true}], "photos": {"count": 0, "groups": []}}, "referralId": "e-0-508cd9f7e4b086e59a610cae-6"}, {"reasons": {"count": 0, "items": [{"summary": "This spot is popular", "type": "general", "reasonName": "globalInteractionReason"}]}, "venue": {"id": "4cfd82e8c671721e8e3dce18", "name": "Marina South Pier Cafe", "location": {"address": "2nd Floor, Marina South Pier", "crossStreet": "31 Marina Coastal Dr.", "lat": 1.2713437721212777, "lng": 103.86391553023923, "labeledLatLngs": [{"label": "display", "lat": 1.2713437721212777, "lng": 103.86391553023923}], "distance": 76, "postalCode": "018988", "cc": "SG", "city": "Singapore", "country": "Singapore", "formattedAddress": ["2nd Floor, Marina South Pier (31 Marina Coastal Dr.)", "018988", "Singapore"]}, "categories": [{"id": "4bf58dd8d48988d143941735", "name": "Breakfast Spot", "pluralName": "Breakfast Spots", "shortName": "Breakfast", "icon": {"prefix": "https://ss3.4sqi.net/img/categories_v2/food/breakfast_", "suffix": ".png"}, "primary": true}], "photos": {"count": 0, "groups": []}}, "referralId": "e-0-4cfd82e8c671721e8e3dce18-7"}, {"reasons": {"count": 0, "items": [{"summary": "This spot is popular", "type": "general", "reasonName": "globalInteractionReason"}]}, "venue": {"id": "4cc3184d1e596dcb2bd9c767", "name": "Cast Launch", "location": {"address": "31 marina south pier", "lat": 1.271068248999867, "lng": 103.86335017694739, "labeledLatLngs": [{"label": "display", "lat": 1.271068248999867, "lng": 103.86335017694739}], "distance": 8, "cc": "SG", "country": "Singapore", "formattedAddress": ["31 marina south pier", "Singapore"]}, "categories": [{"id": "4bf58dd8d48988d12d951735", "name": "Boat or Ferry", "pluralName": "Boats or Ferries", "shortName": "Boat / Ferry", "icon": {"prefix": "https://ss3.4sqi.net/img/categories_v2/travel/boat_", "suffix": ".png"}, "primary": true}], "photos": {"count": 0, "groups": []}}, "referralId": "e-0-4cc3184d1e596dcb2bd9c767-8"}]}]}}