{"meta": {"code": 200, "requestId": "5e6ee6ac1e152c001b430ee3"}, "response": {"suggestedFilters": {"header": "Tap to show:", "filters": [{"name": "Open now", "key": "openNow"}]}, "headerLocation": "Financial District", "headerFullLocation": "Financial District, Singapore", "headerLocationGranularity": "neighborhood", "totalResults": 93, "suggestedBounds": {"ne": {"lat": 1.2837579045000045, "lng": 103.8576783222561}, "sw": {"lat": 1.2747578954999954, "lng": 103.84869287774387}}, "groups": [{"type": "Recommended Places", "name": "recommended", "items": [{"reasons": {"count": 0, "items": [{"summary": "This spot is popular", "type": "general", "reasonName": "globalInteractionReason"}]}, "venue": {"id": "4c9554c672dd224b23e4a291", "name": "Marina Bay Downtown Area (MBDA)", "location": {"address": "Marina Blvd, Central Blvd & Surrounds", "lat": 1.2790415374388213, "lng": 103.85495626876134, "labeledLatLngs": [{"label": "display", "lat": 1.2790415374388213, "lng": 103.85495626876134}], "distance": 198, "cc": "SG", "city": "Singapore", "country": "Singapore", "formattedAddress": ["Marina Blvd, Central Blvd & Surrounds", "Singapore"]}, "categories": [{"id": "4bf58dd8d48988d1e0941735", "name": "Harbor / Marina", "pluralName": "Harbors / Marinas", "shortName": "Harbor / Marina", "icon": {"prefix": "https://ss3.4sqi.net/img/categories_v2/parks_outdoors/harbor_", "suffix": ".png"}, "primary": true}], "photos": {"count": 0, "groups": []}}, "referralId": "e-0-4c9554c672dd224b23e4a291-0"}, {"reasons": {"count": 0, "items": [{"summary": "This spot is popular", "type": "general", "reasonName": "globalInteractionReason"}]}, "venue": {"id": "4ebc743a02d5e32b7b72a3bb", "name": "Pure Fitness", "location": {"address": "Level 6, Asia Square Tower 1", "crossStreet": "8 Marina View", "lat": 1.2786308470437144, "lng": 103.85148741278418, "labeledLatLngs": [{"label": "display", "lat": 1.2786308470437144, "lng": 103.85148741278418}], "distance": 201, "postalCode": "018960", "cc": "SG", "city": "Singapore", "country": "Singapore", "formattedAddress": ["Level 6, Asia Square Tower 1 (8 Marina View)", "018960", "Singapore"]}, "categories": [{"id": "4bf58dd8d48988d176941735", "name": "Gym", "pluralName": "Gyms", "shortName": "Gym", "icon": {"prefix": "https://ss3.4sqi.net/img/categories_v2/building/gym_", "suffix": ".png"}, "primary": true}], "photos": {"count": 0, "groups": []}}, "referralId": "e-0-4ebc743a02d5e32b7b72a3bb-1"}, {"reasons": {"count": 0, "items": [{"summary": "This spot is popular", "type": "general", "reasonName": "globalInteractionReason"}]}, "venue": {"id": "4cff793a6923721ecf7cbf3b", "name": "LeVeL 33 Craft-Brewery Restaurant & Lounge", "location": {"address": "#33-01, Marina Bay Financial Centre Tower 1", "crossStreet": "8 Marina Boulevard", "lat": 1.280395665493566, "lng": 103.85420436595382, "labeledLatLngs": [{"label": "display", "lat": 1.280395665493566, "lng": 103.85420436595382}], "distance": 169, "postalCode": "018981", "cc": "SG", "city": "Singapore", "country": "Singapore", "formattedAddress": ["#33-01, Marina Bay Financial Centre Tower 1 (8 Marina Boulevard)", "018981", "Singapore"]}, "categories": [{"id": "50327c8591d4c4b30a586d5d", "name": "Brewery", "pluralName": "Breweries", "shortName": "Brewery", "icon": {"prefix": "https://ss3.4sqi.net/img/categories_v2/food/brewery_", "suffix": ".png"}, "primary": true}], "photos": {"count": 0, "groups": []}}, "referralId": "e-0-4cff793a6923721ecf7cbf3b-2"}, {"reasons": {"count": 0, "items": [{"summary": "This spot is popular", "type": "general", "reasonName": "globalInteractionReason"}]}, "venue": {"id": "57d272fd498e9a46a6d59b04", "name": "SOS", "location": {"address": "2 Marina Boulevard", "lat": 1.279995674897267, "lng": 103.85292497900159, "labeledLatLngs": [{"label": "display", "lat": 1.279995674897267, "lng": 103.85292497900159}], "distance": 87, "postalCode": "018987", "cc": "SG", "city": "Marina", "state": "Singapore", "country": "Singapore", "formattedAddress": ["2 Marina Boulevard", "018987", "Singapore"]}, "categories": [{"id": "4bf58dd8d48988d11b941735", "name": "Pub", "pluralName": "Pubs", "shortName": "Pub", "icon": {"prefix": "https://ss3.4sqi.net/img/categories_v2/nightlife/pub_", "suffix": ".png"}, "primary": true}], "photos": {"count": 0, "groups": []}}, "referralId": "e-0-57d272fd498e9a46a6d59b04-3"}, {"reasons": {"count": 0, "items": [{"summary": "This spot is popular", "type": "general", "reasonName": "globalInteractionReason"}]}, "venue": {"id": "548d9ae0498eed690b5d58c4", "name": "NUDE Seafood", "location": {"address": "#01-02, Marina Bay Financial Centre Tower 3", "crossStreet": "12 Marina Blvd", "lat": 1.2789930213970169, "lng": 103.85449233549566, "labeledLatLngs": [{"label": "display", "lat": 1.2789930213970169, "lng": 103.85449233549566}], "distance": 148, "postalCode": "018982", "cc": "SG", "city": "Singapore", "country": "Singapore", "formattedAddress": ["#01-02, Marina Bay Financial Centre Tower 3 (12 Marina Blvd)", "018982", "Singapore"]}, "categories": [{"id": "4bf58dd8d48988d1ce941735", "name": "Seafood Restaurant", "pluralName": "Seafood Restaurants", "shortName": "Seafood", "icon": {"prefix": "https://ss3.4sqi.net/img/categories_v2/food/seafood_", "suffix": ".png"}, "primary": true}], "photos": {"count": 0, "groups": []}, "venuePage": {"id": "105785932"}}, "referralId": "e-0-548d9ae0498eed690b5d58c4-4"}, {"reasons": {"count": 0, "items": [{"summary": "This spot is popular", "type": "general", "reasonName": "globalInteractionReason"}]}, "venue": {"id": "4ce60b8f678aa0936635daea", "name": "Din Tai Fung \u9f0e\u6cf0\u8c50 (Din Tai Fung)", "location": {"address": "#B2-05/06, Marina Bay Link Mall", "crossStreet": "8A Marina Boulevard", "lat": 1.2805480195922938, "lng": 103.85384274600021, "labeledLatLngs": [{"label": "display", "lat": 1.2805480195922938, "lng": 103.85384274600021}], "distance": 161, "postalCode": "018984", "cc": "SG", "city": "Singapore", "country": "Singapore", "formattedAddress": ["#B2-05/06, Marina Bay Link Mall (8A Marina Boulevard)", "018984", "Singapore"]}, "categories": [{"id": "4bf58dd8d48988d108941735", "name": "Dumpling Restaurant", "pluralName": "Dumpling Restaurants", "shortName": "Dumplings", "icon": {"prefix": "https://ss3.4sqi.net/img/categories_v2/food/dumplings_", "suffix": ".png"}, "primary": true}], "photos": {"count": 0, "groups": []}}, "referralId": "e-0-4ce60b8f678aa0936635daea-5"}, {"reasons": {"count": 0, "items": [{"summary": "This spot is popular", "type": "general", "reasonName": "globalInteractionReason"}]}, "venue": {"id": "4ebca9a7d3e38e6b0bcf6f1a", "name": "Imperial Treasure Super Peking Duck Restaurant \u5fa1\u5bf6\u81f3\u5c0a\u70e4\u9d28\u5e97", "location": {"address": "#02-08/09/10, Asia Square Tower 1", "crossStreet": "8 Marina View", "lat": 1.279406223512814, "lng": 103.85172794656997, "labeledLatLngs": [{"label": "display", "lat": 1.279406223512814, "lng": 103.85172794656997}], "distance": 163, "postalCode": "018960", "cc": "SG", "city": "Singapore", "country": "Singapore", "formattedAddress": ["#02-08/09/10, Asia Square Tower 1 (8 Marina View)", "018960", "Singapore"]}, "categories": [{"id": "52af3b463cf9994f4e043bfe", "name": "Peking Duck Restaurant", "pluralName": "Peking Duck Restaurants", "shortName": "Peking Duck", "icon": {"prefix": "https://ss3.4sqi.net/img/categories_v2/food/asian_", "suffix": ".png"}, "primary": true}], "photos": {"count": 0, "groups": []}}, "referralId": "e-0-4ebca9a7d3e38e6b0bcf6f1a-6"}, {"reasons": {"count": 0, "items": [{"summary": "This spot is popular", "type": "general", "reasonName": "globalInteractionReason"}]}, "venue": {"id": "52a2d141498ecba00870d024", "name": "Asia Square", "location": {"address": "8/12 Marina View", "lat": 1.2783397029195316, "lng": 103.8515133586859, "labeledLatLngs": [{"label": "display", "lat": 1.2783397029195316, "lng": 103.8515133586859}], "distance": 212, "postalCode": "018960", "cc": "SG", "city": "Singapore", "country": "Singapore", "formattedAddress": ["8/12 Marina View", "018960", "Singapore"]}, "categories": [{"id": "4bf58dd8d48988d164941735", "name": "Plaza", "pluralName": "Plazas", "shortName": "Plaza", "icon": {"prefix": "https://ss3.4sqi.net/img/categories_v2/parks_outdoors/plaza_", "suffix": ".png"}, "primary": true}], "photos": {"count": 0, "groups": []}}, "referralId": "e-0-52a2d141498ecba00870d024-7"}, {"reasons": {"count": 0, "items": [{"summary": "This spot is popular", "type": "general", "reasonName": "globalInteractionReason"}]}, "venue": {"id": "51c2c98f8bbda6c871fa0bcc", "name": "The Westin Singapore", "location": {"address": "Asia Square Tower 2, 12 Marina View", "lat": 1.2782748644512303, "lng": 103.85077194308906, "labeledLatLngs": [{"label": "display", "lat": 1.2782748644512303, "lng": 103.85077194308906}], "distance": 290, "postalCode": "018961", "cc": "SG", "city": "Singapore", "state": "SG-01", "country": "Singapore", "formattedAddress": ["Asia Square Tower 2, 12 Marina View", "018961", "Singapore"]}, "categories": [{"id": "4bf58dd8d48988d1fa931735", "name": "Hotel", "pluralName": "Hotels", "shortName": "Hotel", "icon": {"prefix": "https://ss3.4sqi.net/img/categories_v2/travel/hotel_", "suffix": ".png"}, "primary": true}], "photos": {"count": 0, "groups": []}, "venuePage": {"id": "63746181"}}, "referralId": "e-0-51c2c98f8bbda6c871fa0bcc-8"}, {"reasons": {"count": 0, "items": [{"summary": "This spot is popular", "type": "general", "reasonName": "globalInteractionReason"}]}, "venue": {"id": "585b8c3beef5da0d3a699174", "name": "the matcha project x copper express", "location": {"address": "2 Marina Boulevard #B1-08C The Sail", "lat": 1.2813219749170086, "lng": 103.85272251255627, "labeledLatLngs": [{"label": "display", "lat": 1.2813219749170086, "lng": 103.85272251255627}], "distance": 235, "postalCode": "018987", "cc": "SG", "neighborhood": "Financial District", "country": "Singapore", "formattedAddress": ["2 Marina Boulevard #B1-08C The Sail", "018987", "Singapore"]}, "categories": [{"id": "4bf58dd8d48988d16d941735", "name": "Caf\u00e9", "pluralName": "Caf\u00e9s", "shortName": "Caf\u00e9", "icon": {"prefix": "https://ss3.4sqi.net/img/categories_v2/food/cafe_", "suffix": ".png"}, "primary": true}], "photos": {"count": 0, "groups": []}}, "referralId": "e-0-585b8c3beef5da0d3a699174-9"}, {"reasons": {"count": 0, "items": [{"summary": "This spot is popular", "type": "general", "reasonName": "globalInteractionReason"}]}, "venue": {"id": "4c35c5693ffc9521753b91f5", "name": "Marina Bay Waterfront Promenade", "location": {"address": "Bayfront Ave", "lat": 1.2811245137355043, "lng": 103.85555642836434, "labeledLatLngs": [{"label": "display", "lat": 1.2811245137355043, "lng": 103.85555642836434}], "distance": 335, "cc": "SG", "city": "Singapore", "country": "Singapore", "formattedAddress": ["Bayfront Ave", "Singapore"]}, "categories": [{"id": "56aa371be4b08b9a8d5734c3", "name": "Waterfront", "pluralName": "Waterfronts", "shortName": "Waterfront", "icon": {"prefix": "https://ss3.4sqi.net/img/categories_v2/parks_outdoors/river_", "suffix": ".png"}, "primary": true}], "photos": {"count": 0, "groups": []}}, "referralId": "e-0-4c35c5693ffc9521753b91f5-10"}, {"reasons": {"count": 0, "items": [{"summary": "This spot is popular", "type": "general", "reasonName": "globalInteractionReason"}]}, "venue": {"id": "528499ae11d2f90239dcd477", "name": "Westin Infinity Pool", "location": {"address": "L35, Asia Square Tower 2", "crossStreet": "12 Marina View", "lat": 1.2780572315130252, "lng": 103.8510768539789, "labeledLatLngs": [{"label": "display", "lat": 1.2780572315130252, "lng": 103.8510768539789}], "distance": 270, "postalCode": "018961", "cc": "SG", "city": "Singapore", "country": "Singapore", "formattedAddress": ["L35, Asia Square Tower 2 (12 Marina View)", "018961", "Singapore"]}, "categories": [{"id": "4bf58dd8d48988d15e941735", "name": "Pool", "pluralName": "Pools", "shortName": "Pool", "icon": {"prefix": "https://ss3.4sqi.net/img/categories_v2/parks_outdoors/pool_", "suffix": ".png"}, "primary": true}], "photos": {"count": 0, "groups": []}}, "referralId": "e-0-528499ae11d2f90239dcd477-11"}, {"reasons": {"count": 0, "items": [{"summary": "This spot is popular", "type": "general", "reasonName": "globalInteractionReason"}]}, "venue": {"id": "5ae7031932b61d002c62649a", "name": "Forbidden Duck \u9e2d\u5927\u54e5", "location": {"address": "Marina Bay Financial Centre", "lat": 1.2800267, "lng": 103.85436, "labeledLatLngs": [{"label": "display", "lat": 1.2800267, "lng": 103.85436}], "distance": 156, "postalCode": "018984", "cc": "SG", "city": "Singapore", "country": "Singapore", "formattedAddress": ["Marina Bay Financial Centre", "018984", "Singapore"]}, "categories": [{"id": "4bf58dd8d48988d145941735", "name": "Chinese Restaurant", "pluralName": "Chinese Restaurants", "shortName": "Chinese", "icon": {"prefix": "https://ss3.4sqi.net/img/categories_v2/food/asian_", "suffix": ".png"}, "primary": true}], "photos": {"count": 0, "groups": []}}, "referralId": "e-0-5ae7031932b61d002c62649a-12"}, {"reasons": {"count": 0, "items": [{"summary": "This spot is popular", "type": "general", "reasonName": "globalInteractionReason"}]}, "venue": {"id": "5290ab9e498eb14ab5ece910", "name": "Lobby Lounge Westin", "location": {"address": "The Westin Singapore", "crossStreet": "Asia Square Tower 2", "lat": 1.277810500182125, "lng": 103.85096556565624, "labeledLatLngs": [{"label": "display", "lat": 1.277810500182125, "lng": 103.85096556565624}], "distance": 294, "postalCode": "018961", "cc": "SG", "city": "Singapore", "country": "Singapore", "formattedAddress": ["The Westin Singapore (Asia Square Tower 2)", "018961", "Singapore"]}, "categories": [{"id": "4bf58dd8d48988d116941735", "name": "Bar", "pluralName": "Bars", "shortName": "Bar", "icon": {"prefix": "https://ss3.4sqi.net/img/categories_v2/nightlife/pub_", "suffix": ".png"}, "primary": true}], "photos": {"count": 0, "groups": []}}, "referralId": "e-0-5290ab9e498eb14ab5ece910-13"}, {"reasons": {"count": 0, "items": [{"summary": "This spot is popular", "type": "general", "reasonName": "globalInteractionReason"}]}, "venue": {"id": "50459ea2e4b0098497c0b478", "name": "OLA Cocina del Mar", "location": {"address": "#01-06 Marina Bay Financial Centre Tower 3", "crossStreet": "12 Marina Boulevard", "lat": 1.2792415032452291, "lng": 103.85448982931128, "labeledLatLngs": [{"label": "display", "lat": 1.2792415032452291, "lng": 103.85448982931128}], "distance": 145, "postalCode": "018982", "cc": "SG", "city": "Singapore", "country": "Singapore", "formattedAddress": ["#01-06 Marina Bay Financial Centre Tower 3 (12 Marina Boulevard)", "018982", "Singapore"]}, "categories": [{"id": "4bf58dd8d48988d150941735", "name": "Spanish Restaurant", "pluralName": "Spanish Restaurants", "shortName": "Spanish", "icon": {"prefix": "https://ss3.4sqi.net/img/categories_v2/food/spanish_", "suffix": ".png"}, "primary": true}], "photos": {"count": 0, "groups": []}}, "referralId": "e-0-50459ea2e4b0098497c0b478-14"}, {"reasons": {"count": 0, "items": [{"summary": "This spot is popular", "type": "general", "reasonName": "globalInteractionReason"}]}, "venue": {"id": "4cc6d56782388cfa3d4c7e35", "name": "Marina Bay Financial Centre (MBFC) Tower 3", "location": {"address": "12 Marina Blvd", "crossStreet": "Bayfront Ave.", "lat": 1.2791088214480704, "lng": 103.85442020125268, "labeledLatLngs": [{"label": "display", "lat": 1.2791088214480704, "lng": 103.85442020125268}], "distance": 138, "postalCode": "018982", "cc": "SG", "city": "Singapore", "country": "Singapore", "formattedAddress": ["12 Marina Blvd (Bayfront Ave.)", "018982", "Singapore"]}, "categories": [{"id": "4bf58dd8d48988d130941735", "name": "Building", "pluralName": "Buildings", "shortName": "Building", "icon": {"prefix": "https://ss3.4sqi.net/img/categories_v2/building/default_", "suffix": ".png"}, "primary": true}], "photos": {"count": 0, "groups": []}}, "referralId": "e-0-4cc6d56782388cfa3d4c7e35-15"}, {"reasons": {"count": 0, "items": [{"summary": "This spot is popular", "type": "general", "reasonName": "globalInteractionReason"}]}, "venue": {"id": "54e1cd8c498e6c6790f5eb2b", "name": "Salad Stop!", "location": {"address": "The Sail, #01-32", "crossStreet": "4 Marina Blvd", "lat": 1.2810094978531088, "lng": 103.85241534850374, "labeledLatLngs": [{"label": "display", "lat": 1.2810094978531088, "lng": 103.85241534850374}], "distance": 212, "postalCode": "018986", "cc": "SG", "city": "Singapore", "country": "Singapore", "formattedAddress": ["The Sail, #01-32 (4 Marina Blvd)", "018986", "Singapore"]}, "categories": [{"id": "4bf58dd8d48988d1bd941735", "name": "Salad Place", "pluralName": "Salad Places", "shortName": "Salad", "icon": {"prefix": "https://ss3.4sqi.net/img/categories_v2/food/salad_", "suffix": ".png"}, "primary": true}], "photos": {"count": 0, "groups": []}}, "referralId": "e-0-54e1cd8c498e6c6790f5eb2b-16"}, {"reasons": {"count": 0, "items": [{"summary": "This spot is popular", "type": "general", "reasonName": "globalInteractionReason"}]}, "venue": {"id": "4c4023a3d7fad13a848605da", "name": "Gym @ The Sail Tower (Marina Bay)", "location": {"address": "8th floor", "crossStreet": "6 Marina Boulevard", "lat": 1.2811697740392778, "lng": 103.8530631104665, "labeledLatLngs": [{"label": "display", "lat": 1.2811697740392778, "lng": 103.8530631104665}], "distance": 213, "cc": "SG", "city": "Singapore", "country": "Singapore", "formattedAddress": ["8th floor (6 Marina Boulevard)", "Singapore"]}, "categories": [{"id": "4bf58dd8d48988d176941735", "name": "Gym", "pluralName": "Gyms", "shortName": "Gym", "icon": {"prefix": "https://ss3.4sqi.net/img/categories_v2/building/gym_", "suffix": ".png"}, "primary": true}], "photos": {"count": 0, "groups": []}}, "referralId": "e-0-4c4023a3d7fad13a848605da-17"}, {"reasons": {"count": 0, "items": [{"summary": "This spot is popular", "type": "general", "reasonName": "globalInteractionReason"}]}, "venue": {"id": "52c54d0411d2a3d73dae49f6", "name": "Lau Pa Sat Satay Street", "location": {"address": "Boon Tat Street", "lat": 1.280261, "lng": 103.850235, "labeledLatLngs": [{"label": "display", "lat": 1.280261, "lng": 103.850235}], "distance": 346, "postalCode": "048582", "cc": "SG", "neighborhood": "Financial District", "city": "Singapore", "country": "Singapore", "formattedAddress": ["Boon Tat Street", "048582", "Singapore"]}, "categories": [{"id": "53e0feef498e5aac066fd8a9", "name": "Street Food Gathering", "pluralName": "Street Food Gatherings", "shortName": "Street Food Gathering", "icon": {"prefix": "https://ss3.4sqi.net/img/categories_v2/food/streetfood_", "suffix": ".png"}, "primary": true}], "photos": {"count": 0, "groups": []}}, "referralId": "e-0-52c54d0411d2a3d73dae49f6-18"}, {"reasons": {"count": 0, "items": [{"summary": "This spot is popular", "type": "general", "reasonName": "globalInteractionReason"}]}, "venue": {"id": "52846557498e8c24a9a4a789", "name": "Cook & Brew", "location": {"address": "The Westin Singapore", "crossStreet": "Asia Square Tower 2, 12 Marina View", "lat": 1.2778415275084345, "lng": 103.85110267205697, "labeledLatLngs": [{"label": "display", "lat": 1.2778415275084345, "lng": 103.85110267205697}], "distance": 280, "postalCode": "018961", "cc": "SG", "city": "Singapore", "country": "Singapore", "formattedAddress": ["The Westin Singapore (Asia Square Tower 2, 12 Marina View)", "018961", "Singapore"]}, "categories": [{"id": "4bf58dd8d48988d155941735", "name": "Gastropub", "pluralName": "Gastropubs", "shortName": "Gastropub", "icon": {"prefix": "https://ss3.4sqi.net/img/categories_v2/food/gastropub_", "suffix": ".png"}, "primary": true}], "photos": {"count": 0, "groups": []}, "venuePage": {"id": "78163285"}}, "referralId": "e-0-52846557498e8c24a9a4a789-19"}, {"reasons": {"count": 0, "items": [{"summary": "This spot is popular", "type": "general", "reasonName": "globalInteractionReason"}]}, "venue": {"id": "4c148e4ba5eb76b00400c2b7", "name": "The Promontory @ Marina Bay", "location": {"address": "11 Marina Blvd", "lat": 1.2814526195464295, "lng": 103.85408163070679, "labeledLatLngs": [{"label": "display", "lat": 1.2814526195464295, "lng": 103.85408163070679}], "distance": 263, "postalCode": "018940", "cc": "SG", "city": "Singapore", "country": "Singapore", "formattedAddress": ["11 Marina Blvd", "018940", "Singapore"]}, "categories": [{"id": "56aa371be4b08b9a8d5734c3", "name": "Waterfront", "pluralName": "Waterfronts", "shortName": "Waterfront", "icon": {"prefix": "https://ss3.4sqi.net/img/categories_v2/parks_outdoors/river_", "suffix": ".png"}, "primary": true}], "photos": {"count": 0, "groups": []}}, "referralId": "e-0-4c148e4ba5eb76b00400c2b7-20"}, {"reasons": {"count": 0, "items": [{"summary": "This spot is popular", "type": "general", "reasonName": "globalInteractionReason"}]}, "venue": {"id": "4b13fe99f964a520659b23e3", "name": "Lau Pa Sat Festival Market", "location": {"address": "18 Raffles Quay", "crossStreet": "1 Boon Tat St.", "lat": 1.2805818978847052, "lng": 103.85044020580223, "labeledLatLngs": [{"label": "display", "lat": 1.2805818978847052, "lng": 103.85044020580223}], "distance": 339, "postalCode": "048582", "cc": "SG", "city": "Singapore", "country": "Singapore", "formattedAddress": ["18 Raffles Quay (1 Boon Tat St.)", "048582", "Singapore"]}, "categories": [{"id": "4bf58dd8d48988d120951735", "name": "Food Court", "pluralName": "Food Courts", "shortName": "Food Court", "icon": {"prefix": "https://ss3.4sqi.net/img/categories_v2/shops/food_foodcourt_", "suffix": ".png"}, "primary": true}], "photos": {"count": 0, "groups": []}}, "referralId": "e-0-4b13fe99f964a520659b23e3-21"}, {"reasons": {"count": 0, "items": [{"summary": "This spot is popular", "type": "general", "reasonName": "globalInteractionReason"}]}, "venue": {"id": "4cce5d4872106dcba4c5a899", "name": "Starbucks", "location": {"address": "#B2-38/39, Marina Bay Link Mall", "crossStreet": "8A Marina Blvd", "lat": 1.279335, "lng": 103.854128, "labeledLatLngs": [{"label": "display", "lat": 1.279335, "lng": 103.854128}], "distance": 105, "postalCode": "018984", "cc": "SG", "city": "Singapore", "country": "Singapore", "formattedAddress": ["#B2-38/39, Marina Bay Link Mall (8A Marina Blvd)", "018984", "Singapore"]}, "categories": [{"id": "4bf58dd8d48988d1e0931735", "name": "Coffee Shop", "pluralName": "Coffee Shops", "shortName": "Coffee Shop", "icon": {"prefix": "https://ss3.4sqi.net/img/categories_v2/food/coffeeshop_", "suffix": ".png"}, "primary": true}], "photos": {"count": 0, "groups": []}}, "referralId": "e-0-4cce5d4872106dcba4c5a899-22"}, {"reasons": {"count": 0, "items": [{"summary": "This spot is popular", "type": "general", "reasonName": "globalInteractionReason"}]}, "venue": {"id": "5795f0da498e1e1d127b5225", "name": "Pure Yoga", "location": {"address": "#06-02, Asia Square Tower 2", "crossStreet": "12 Marina View", "lat": 1.2777454038749743, "lng": 103.85099312010902, "labeledLatLngs": [{"label": "display", "lat": 1.2777454038749743, "lng": 103.85099312010902}], "distance": 296, "postalCode": "018961", "cc": "SG", "state": "Singapore", "country": "Singapore", "formattedAddress": ["#06-02, Asia Square Tower 2 (12 Marina View)", "018961", "Singapore"]}, "categories": [{"id": "4bf58dd8d48988d102941735", "name": "Yoga Studio", "pluralName": "Yoga Studios", "shortName": "Yoga Studio", "icon": {"prefix": "https://ss3.4sqi.net/img/categories_v2/shops/gym_yogastudio_", "suffix": ".png"}, "primary": true}], "photos": {"count": 0, "groups": []}}, "referralId": "e-0-5795f0da498e1e1d127b5225-23"}, {"reasons": {"count": 0, "items": [{"summary": "This spot is popular", "type": "general", "reasonName": "globalInteractionReason"}]}, "venue": {"id": "4fc8aecee4b08eb1f57a1a81", "name": "Anglo Indian Cafe & Bar", "location": {"address": "1 Shenton Way", "lat": 1.2790836483039665, "lng": 103.85012677894278, "labeledLatLngs": [{"label": "display", "lat": 1.2790836483039665, "lng": 103.85012677894278}], "distance": 340, "postalCode": "068803", "cc": "SG", "neighborhood": "Financial District", "country": "Singapore", "formattedAddress": ["1 Shenton Way", "068803", "Singapore"]}, "categories": [{"id": "4bf58dd8d48988d10f941735", "name": "Indian Restaurant", "pluralName": "Indian Restaurants", "shortName": "Indian", "icon": {"prefix": "https://ss3.4sqi.net/img/categories_v2/food/indian_", "suffix": ".png"}, "primary": true}], "photos": {"count": 0, "groups": []}}, "referralId": "e-0-4fc8aecee4b08eb1f57a1a81-24"}, {"reasons": {"count": 0, "items": [{"summary": "This spot is popular", "type": "general", "reasonName": "globalInteractionReason"}]}, "venue": {"id": "52841f0411d28e2add04e014", "name": "Westin Executive Club Lounge", "location": {"address": "Level 35, The Westin Singapore", "crossStreet": "12 Marina View", "lat": 1.2780292287568735, "lng": 103.85115108279892, "labeledLatLngs": [{"label": "display", "lat": 1.2780292287568735, "lng": 103.85115108279892}], "distance": 264, "postalCode": "018961", "cc": "SG", "city": "Singapore", "country": "Singapore", "formattedAddress": ["Level 35, The Westin Singapore (12 Marina View)", "018961", "Singapore"]}, "categories": [{"id": "4bf58dd8d48988d1d5941735", "name": "Hotel Bar", "pluralName": "Hotel Bars", "shortName": "Hotel Bar", "icon": {"prefix": "https://ss3.4sqi.net/img/categories_v2/travel/hotel_bar_", "suffix": ".png"}, "primary": true}], "photos": {"count": 0, "groups": []}}, "referralId": "e-0-52841f0411d28e2add04e014-25"}, {"reasons": {"count": 0, "items": [{"summary": "This spot is popular", "type": "general", "reasonName": "globalInteractionReason"}]}, "venue": {"id": "4b0a7b55f964a520552423e3", "name": "Fitness First Platinum", "location": {"address": "#08-01, North Tower, 1 Raffles Quay", "lat": 1.2821144459978928, "lng": 103.85213084353455, "labeledLatLngs": [{"label": "display", "lat": 1.2821144459978928, "lng": 103.85213084353455}], "distance": 338, "postalCode": "048583", "cc": "SG", "city": "Singapore", "country": "Singapore", "formattedAddress": ["#08-01, North Tower, 1 Raffles Quay", "048583", "Singapore"]}, "categories": [{"id": "4bf58dd8d48988d175941735", "name": "Gym / Fitness Center", "pluralName": "Gyms or Fitness Centers", "shortName": "Gym / Fitness", "icon": {"prefix": "https://ss3.4sqi.net/img/categories_v2/building/gym_", "suffix": ".png"}, "primary": true}], "photos": {"count": 0, "groups": []}}, "referralId": "e-0-4b0a7b55f964a520552423e3-26"}, {"reasons": {"count": 0, "items": [{"summary": "This spot is popular", "type": "general", "reasonName": "globalInteractionReason"}]}, "venue": {"id": "4f704af9e4b07a4bc6edd2a9", "name": "Sofitel So Singapore", "location": {"address": "35 Robinson Road", "lat": 1.280016815397146, "lng": 103.84981314280776, "labeledLatLngs": [{"label": "display", "lat": 1.280016815397146, "lng": 103.84981314280776}], "distance": 384, "postalCode": "068876", "cc": "SG", "city": "Singapore", "country": "Singapore", "formattedAddress": ["35 Robinson Road", "068876", "Singapore"]}, "categories": [{"id": "4bf58dd8d48988d1fa931735", "name": "Hotel", "pluralName": "Hotels", "shortName": "Hotel", "icon": {"prefix": "https://ss3.4sqi.net/img/categories_v2/travel/hotel_", "suffix": ".png"}, "primary": true}], "photos": {"count": 0, "groups": []}, "venuePage": {"id": "150895632"}}, "referralId": "e-0-4f704af9e4b07a4bc6edd2a9-27"}, {"reasons": {"count": 0, "items": [{"summary": "This spot is popular", "type": "general", "reasonName": "globalInteractionReason"}]}, "venue": {"id": "5263eea311d2eea389b80d32", "name": "Guzman Y Gomez", "location": {"address": "12 Marina View, #02-11, Asia Square Tower 2", "crossStreet": "12 Marina View", "lat": 1.2783921784969778, "lng": 103.85083927116398, "labeledLatLngs": [{"label": "display", "lat": 1.2783921784969778, "lng": 103.85083927116398}], "distance": 278, "postalCode": "018961", "cc": "SG", "city": "Singapore", "country": "Singapore", "formattedAddress": ["12 Marina View, #02-11, Asia Square Tower 2 (12 Marina View)", "018961", "Singapore"]}, "categories": [{"id": "4bf58dd8d48988d1c1941735", "name": "Mexican Restaurant", "pluralName": "Mexican Restaurants", "shortName": "Mexican", "icon": {"prefix": "https://ss3.4sqi.net/img/categories_v2/food/mexican_", "suffix": ".png"}, "primary": true}], "photos": {"count": 0, "groups": []}}, "referralId": "e-0-5263eea311d2eea389b80d32-28"}, {"reasons": {"count": 0, "items": [{"summary": "This spot is popular", "type": "general", "reasonName": "globalInteractionReason"}]}, "venue": {"id": "4f1bb045e4b08fa665195f66", "name": "Circle Line Art @ Marina Bay MRT Station", "location": {"address": "23 Park Street", "lat": 1.2759860529670908, "lng": 103.85490183430602, "labeledLatLngs": [{"label": "display", "lat": 1.2759860529670908, "lng": 103.85490183430602}], "distance": 411, "cc": "SG", "city": "Singapore", "country": "Singapore", "formattedAddress": ["23 Park Street", "Singapore"]}, "categories": [{"id": "4bf58dd8d48988d1e2931735", "name": "Art Gallery", "pluralName": "Art Galleries", "shortName": "Art Gallery", "icon": {"prefix": "https://ss3.4sqi.net/img/categories_v2/arts_entertainment/artgallery_", "suffix": ".png"}, "primary": true}], "photos": {"count": 0, "groups": []}}, "referralId": "e-0-4f1bb045e4b08fa665195f66-29"}, {"reasons": {"count": 0, "items": [{"summary": "This spot is popular", "type": "general", "reasonName": "globalInteractionReason"}]}, "venue": {"id": "55dd3b2f498ee2d1c9ec32ec", "name": "Grain Traders", "location": {"address": "#01-01/02/03, CapitaGreen", "crossStreet": "138 Market Street", "lat": 1.281468, "lng": 103.850039, "labeledLatLngs": [{"label": "display", "lat": 1.281468, "lng": 103.850039}], "distance": 427, "postalCode": "048946", "cc": "SG", "city": "Singapore", "country": "Singapore", "formattedAddress": ["#01-01/02/03, CapitaGreen (138 Market Street)", "048946", "Singapore"]}, "categories": [{"id": "4bf58dd8d48988d1c4941735", "name": "Restaurant", "pluralName": "Restaurants", "shortName": "Restaurant", "icon": {"prefix": "https://ss3.4sqi.net/img/categories_v2/food/default_", "suffix": ".png"}, "primary": true}], "photos": {"count": 0, "groups": []}}, "referralId": "e-0-55dd3b2f498ee2d1c9ec32ec-30"}, {"reasons": {"count": 0, "items": [{"summary": "This spot is popular", "type": "general", "reasonName": "globalInteractionReason"}]}, "venue": {"id": "57d3f93a498e462efdf21803", "name": "Super Loco Custom House", "location": {"address": "70 Collyer Quay #01-04 Customs House", "lat": 1.282502, "lng": 103.853714, "labeledLatLngs": [{"label": "display", "lat": 1.282502, "lng": 103.853714}], "distance": 365, "postalCode": "049323", "cc": "SG", "neighborhood": "Financial District", "city": "Singapore", "country": "Singapore", "formattedAddress": ["70 Collyer Quay #01-04 Customs House", "049323", "Singapore"]}, "categories": [{"id": "4bf58dd8d48988d1c1941735", "name": "Mexican Restaurant", "pluralName": "Mexican Restaurants", "shortName": "Mexican", "icon": {"prefix": "https://ss3.4sqi.net/img/categories_v2/food/mexican_", "suffix": ".png"}, "primary": true}], "photos": {"count": 0, "groups": []}}, "referralId": "e-0-57d3f93a498e462efdf21803-31"}, {"reasons": {"count": 0, "items": [{"summary": "This spot is popular", "type": "general", "reasonName": "globalInteractionReason"}]}, "venue": {"id": "5a7a977c872f7d3916e199f9", "name": "Alchemist", "location": {"address": "Hong Leong Building", "crossStreet": "#01-08", "lat": 1.2811961463460806, "lng": 103.85050239068553, "labeledLatLngs": [{"label": "display", "lat": 1.2811961463460806, "lng": 103.85050239068553}], "distance": 368, "cc": "SG", "city": "Singapore", "country": "Singapore", "formattedAddress": ["Hong Leong Building (#01-08)", "Singapore"]}, "categories": [{"id": "4bf58dd8d48988d16d941735", "name": "Caf\u00e9", "pluralName": "Caf\u00e9s", "shortName": "Caf\u00e9", "icon": {"prefix": "https://ss3.4sqi.net/img/categories_v2/food/cafe_", "suffix": ".png"}, "primary": true}], "photos": {"count": 0, "groups": []}}, "referralId": "e-0-5a7a977c872f7d3916e199f9-32"}, {"reasons": {"count": 0, "items": [{"summary": "This spot is popular", "type": "general", "reasonName": "globalInteractionReason"}]}, "venue": {"id": "5a9d2d95f8cbd43d5293badd", "name": "Caffe Fernet", "location": {"address": "01-05 Customs House", "crossStreet": "70 Collyer Quay", "lat": 1.2826692114051046, "lng": 103.85374749884602, "labeledLatLngs": [{"label": "display", "lat": 1.2826692114051046, "lng": 103.85374749884602}], "distance": 384, "postalCode": "049326", "cc": "SG", "neighborhood": "Financial District", "city": "Singapore", "country": "Singapore", "formattedAddress": ["01-05 Customs House (70 Collyer Quay)", "049326", "Singapore"]}, "categories": [{"id": "4bf58dd8d48988d110941735", "name": "Italian Restaurant", "pluralName": "Italian Restaurants", "shortName": "Italian", "icon": {"prefix": "https://ss3.4sqi.net/img/categories_v2/food/italian_", "suffix": ".png"}, "primary": true}], "photos": {"count": 0, "groups": []}}, "referralId": "e-0-5a9d2d95f8cbd43d5293badd-33"}, {"reasons": {"count": 0, "items": [{"summary": "This spot is popular", "type": "general", "reasonName": "globalInteractionReason"}]}, "venue": {"id": "4cef3dd213aea1432114729f", "name": "Harry's", "location": {"address": "#01-03 Marina Bay Link Mall", "crossStreet": "8A Marina Boulevard", "lat": 1.2802035561766771, "lng": 103.85449963110545, "labeledLatLngs": [{"label": "display", "lat": 1.2802035561766771, "lng": 103.85449963110545}], "distance": 180, "postalCode": "018984", "cc": "SG", "city": "Singapore", "country": "Singapore", "formattedAddress": ["#01-03 Marina Bay Link Mall (8A Marina Boulevard)", "018984", "Singapore"]}, "categories": [{"id": "4bf58dd8d48988d11b941735", "name": "Pub", "pluralName": "Pubs", "shortName": "Pub", "icon": {"prefix": "https://ss3.4sqi.net/img/categories_v2/nightlife/pub_", "suffix": ".png"}, "primary": true}], "photos": {"count": 0, "groups": []}}, "referralId": "e-0-4cef3dd213aea1432114729f-34"}, {"reasons": {"count": 0, "items": [{"summary": "This spot is popular", "type": "general", "reasonName": "globalInteractionReason"}]}, "venue": {"id": "4cd01bd45845bfb7bfa5b10d", "name": "Standing Sushi Bar", "location": {"address": "#B2-51, Marina Bay Link Mall", "crossStreet": "8A Marina Boulevard", "lat": 1.280537020119431, "lng": 103.85315278340417, "labeledLatLngs": [{"label": "display", "lat": 1.280537020119431, "lng": 103.85315278340417}], "distance": 142, "postalCode": "018984", "cc": "SG", "city": "Singapore", "country": "Singapore", "formattedAddress": ["#B2-51, Marina Bay Link Mall (8A Marina Boulevard)", "018984", "Singapore"]}, "categories": [{"id": "4bf58dd8d48988d1d2941735", "name": "Sushi Restaurant", "pluralName": "Sushi Restaurants", "shortName": "Sushi", "icon": {"prefix": "https://ss3.4sqi.net/img/categories_v2/food/sushi_", "suffix": ".png"}, "primary": true}], "photos": {"count": 0, "groups": []}}, "referralId": "e-0-4cd01bd45845bfb7bfa5b10d-35"}, {"reasons": {"count": 0, "items": [{"summary": "This spot is popular", "type": "general", "reasonName": "globalInteractionReason"}]}, "venue": {"id": "5205c76d11d2072b2bd3aa80", "name": "La Brasserie", "location": {"address": "80 Collyer Quay", "lat": 1.283112539646023, "lng": 103.85331066421297, "labeledLatLngs": [{"label": "display", "lat": 1.283112539646023, "lng": 103.85331066421297}], "distance": 429, "postalCode": "049326", "cc": "SG", "city": "Singapore", "country": "Singapore", "formattedAddress": ["80 Collyer Quay", "049326", "Singapore"]}, "categories": [{"id": "4bf58dd8d48988d16d941735", "name": "Caf\u00e9", "pluralName": "Caf\u00e9s", "shortName": "Caf\u00e9", "icon": {"prefix": "https://ss3.4sqi.net/img/categories_v2/food/cafe_", "suffix": ".png"}, "primary": true}], "photos": {"count": 0, "groups": []}}, "referralId": "e-0-5205c76d11d2072b2bd3aa80-36"}, {"reasons": {"count": 0, "items": [{"summary": "This spot is popular", "type": "general", "reasonName": "globalInteractionReason"}]}, "venue": {"id": "566a5a1d498e0e75b36aa41d", "name": "Artemis Grill", "location": {"address": "138 Market Street CapitaGreen Level 40", "lat": 1.2819640906980638, "lng": 103.85038494276205, "labeledLatLngs": [{"label": "display", "lat": 1.2819640906980638, "lng": 103.85038494276205}], "distance": 433, "cc": "SG", "country": "Singapore", "formattedAddress": ["138 Market Street CapitaGreen Level 40", "Singapore"]}, "categories": [{"id": "52e81612bcbc57f1066b79f9", "name": "Modern European Restaurant", "pluralName": "Modern European Restaurants", "shortName": "Modern European", "icon": {"prefix": "https://ss3.4sqi.net/img/categories_v2/food/default_", "suffix": ".png"}, "primary": true}], "photos": {"count": 0, "groups": []}}, "referralId": "e-0-566a5a1d498e0e75b36aa41d-37"}, {"reasons": {"count": 0, "items": [{"summary": "This spot is popular", "type": "general", "reasonName": "globalInteractionReason"}]}, "venue": {"id": "50a5f4fee4b0595057a2b9b5", "name": "Joe & Dough", "location": {"address": "#B2-68/69 Marina Bay Link Mall (8A Marina Blvd)", "lat": 1.2802715826093478, "lng": 103.85517942214035, "labeledLatLngs": [{"label": "display", "lat": 1.2802715826093478, "lng": 103.85517942214035}], "distance": 248, "postalCode": "018984", "cc": "SG", "city": "Singapore", "country": "Singapore", "formattedAddress": ["#B2-68/69 Marina Bay Link Mall (8A Marina Blvd)", "018984", "Singapore"]}, "categories": [{"id": "4bf58dd8d48988d1c5941735", "name": "Sandwich Place", "pluralName": "Sandwich Places", "shortName": "Sandwiches", "icon": {"prefix": "https://ss3.4sqi.net/img/categories_v2/food/deli_", "suffix": ".png"}, "primary": true}], "photos": {"count": 0, "groups": []}}, "referralId": "e-0-50a5f4fee4b0595057a2b9b5-38"}, {"reasons": {"count": 0, "items": [{"summary": "This spot is popular", "type": "general", "reasonName": "globalInteractionReason"}]}, "venue": {"id": "4c3e98640596c92878978478", "name": "Thunder Tea Rice", "location": {"address": "#01-12, Lau Pa Sat Festival Market", "crossStreet": "18 Raffles Quay", "lat": 1.2804858033438946, "lng": 103.85069547995374, "labeledLatLngs": [{"label": "display", "lat": 1.2804858033438946, "lng": 103.85069547995374}], "distance": 309, "postalCode": "048582", "cc": "SG", "city": "Singapore", "country": "Singapore", "formattedAddress": ["#01-12, Lau Pa Sat Festival Market (18 Raffles Quay)", "048582", "Singapore"]}, "categories": [{"id": "4bf58dd8d48988d145941735", "name": "Chinese Restaurant", "pluralName": "Chinese Restaurants", "shortName": "Chinese", "icon": {"prefix": "https://ss3.4sqi.net/img/categories_v2/food/asian_", "suffix": ".png"}, "primary": true}], "photos": {"count": 0, "groups": []}}, "referralId": "e-0-4c3e98640596c92878978478-39"}, {"reasons": {"count": 0, "items": [{"summary": "This spot is popular", "type": "general", "reasonName": "globalInteractionReason"}]}, "venue": {"id": "56024873498ee30f2031d301", "name": "Mexout", "location": {"address": "Marina Bay Financial Centre Tower 3", "lat": 1.2791867690515584, "lng": 103.85448622960857, "labeledLatLngs": [{"label": "display", "lat": 1.2791867690515584, "lng": 103.85448622960857}], "distance": 144, "cc": "SG", "country": "Singapore", "formattedAddress": ["Marina Bay Financial Centre Tower 3", "Singapore"]}, "categories": [{"id": "4bf58dd8d48988d1c1941735", "name": "Mexican Restaurant", "pluralName": "Mexican Restaurants", "shortName": "Mexican", "icon": {"prefix": "https://ss3.4sqi.net/img/categories_v2/food/mexican_", "suffix": ".png"}, "primary": true}], "photos": {"count": 0, "groups": []}}, "referralId": "e-0-56024873498ee30f2031d301-40"}, {"reasons": {"count": 0, "items": [{"summary": "This spot is popular", "type": "general", "reasonName": "globalInteractionReason"}]}, "venue": {"id": "565beea3498e983dd13dea64", "name": "Dimbulah", "location": {"address": "One Raffles Quay", "lat": 1.2807866, "lng": 103.85145, "labeledLatLngs": [{"label": "display", "lat": 1.2807866, "lng": 103.85145}], "distance": 257, "postalCode": "018981", "cc": "SG", "neighborhood": "Financial District", "city": "Singapore", "country": "Singapore", "formattedAddress": ["One Raffles Quay", "018981", "Singapore"]}, "categories": [{"id": "4bf58dd8d48988d16d941735", "name": "Caf\u00e9", "pluralName": "Caf\u00e9s", "shortName": "Caf\u00e9", "icon": {"prefix": "https://ss3.4sqi.net/img/categories_v2/food/cafe_", "suffix": ".png"}, "primary": true}], "photos": {"count": 0, "groups": []}}, "referralId": "e-0-565beea3498e983dd13dea64-41"}, {"reasons": {"count": 0, "items": [{"summary": "This spot is popular", "type": "general", "reasonName": "globalInteractionReason"}]}, "venue": {"id": "4dd72527cc3f75159f1dfaf3", "name": "Jewel Coffee", "location": {"address": "#01-07, One Shenton", "crossStreet": "1 Shenton Way", "lat": 1.279097207942327, "lng": 103.85035435608579, "labeledLatLngs": [{"label": "display", "lat": 1.279097207942327, "lng": 103.85035435608579}], "distance": 315, "postalCode": "068803", "cc": "SG", "city": "Singapore", "country": "Singapore", "formattedAddress": ["#01-07, One Shenton (1 Shenton Way)", "068803", "Singapore"]}, "categories": [{"id": "4bf58dd8d48988d16d941735", "name": "Caf\u00e9", "pluralName": "Caf\u00e9s", "shortName": "Caf\u00e9", "icon": {"prefix": "https://ss3.4sqi.net/img/categories_v2/food/cafe_", "suffix": ".png"}, "primary": true}], "photos": {"count": 0, "groups": []}}, "referralId": "e-0-4dd72527cc3f75159f1dfaf3-42"}, {"reasons": {"count": 0, "items": [{"summary": "This spot is popular", "type": "general", "reasonName": "globalInteractionReason"}]}, "venue": {"id": "4bb0956af964a520814d3ce3", "name": "Kinki Restaurant & Bar", "location": {"address": "#02-02, Customs House", "crossStreet": "70 Collyer Quay", "lat": 1.2825617986023137, "lng": 103.85366453580399, "labeledLatLngs": [{"label": "display", "lat": 1.2825617986023137, "lng": 103.85366453580399}], "distance": 371, "postalCode": "049323", "cc": "SG", "city": "Singapore", "country": "Singapore", "formattedAddress": ["#02-02, Customs House (70 Collyer Quay)", "049323", "Singapore"]}, "categories": [{"id": "4bf58dd8d48988d111941735", "name": "Japanese Restaurant", "pluralName": "Japanese Restaurants", "shortName": "Japanese", "icon": {"prefix": "https://ss3.4sqi.net/img/categories_v2/food/japanese_", "suffix": ".png"}, "primary": true}], "photos": {"count": 0, "groups": []}, "venuePage": {"id": "90567952"}}, "referralId": "e-0-4bb0956af964a520814d3ce3-43"}, {"reasons": {"count": 0, "items": [{"summary": "This spot is popular", "type": "general", "reasonName": "globalInteractionReason"}]}, "venue": {"id": "4e468c4662845e1d3c926a7a", "name": "Marina Bay Sands Olympic Walk", "location": {"address": "2 Bayfront Avenue", "lat": 1.2812140010789572, "lng": 103.85660804486326, "labeledLatLngs": [{"label": "display", "lat": 1.2812140010789572, "lng": 103.85660804486326}], "distance": 438, "cc": "SG", "country": "Singapore", "formattedAddress": ["2 Bayfront Avenue", "Singapore"]}, "categories": [{"id": "4bf58dd8d48988d165941735", "name": "Scenic Lookout", "pluralName": "Scenic Lookouts", "shortName": "Scenic Lookout", "icon": {"prefix": "https://ss3.4sqi.net/img/categories_v2/parks_outdoors/sceniclookout_", "suffix": ".png"}, "primary": true}], "photos": {"count": 0, "groups": []}}, "referralId": "e-0-4e468c4662845e1d3c926a7a-44"}, {"reasons": {"count": 0, "items": [{"summary": "This spot is popular", "type": "general", "reasonName": "globalInteractionReason"}]}, "venue": {"id": "52c16fb3498e747963cf6a57", "name": "Tao Seafood Asia", "location": {"address": "12 Marina View, Asia Square Tower 2, #02-10", "lat": 1.2782001452351262, "lng": 103.85093879544215, "labeledLatLngs": [{"label": "display", "lat": 1.2782001452351262, "lng": 103.85093879544215}], "distance": 276, "postalCode": "018961", "cc": "SG", "city": "Singapore", "country": "Singapore", "formattedAddress": ["12 Marina View, Asia Square Tower 2, #02-10", "018961", "Singapore"]}, "categories": [{"id": "4bf58dd8d48988d145941735", "name": "Chinese Restaurant", "pluralName": "Chinese Restaurants", "shortName": "Chinese", "icon": {"prefix": "https://ss3.4sqi.net/img/categories_v2/food/asian_", "suffix": ".png"}, "primary": true}], "photos": {"count": 0, "groups": []}}, "referralId": "e-0-52c16fb3498e747963cf6a57-45"}, {"reasons": {"count": 0, "items": [{"summary": "This spot is popular", "type": "general", "reasonName": "globalInteractionReason"}]}, "venue": {"id": "566b5dbc498e50a39a4d4c29", "name": "Urban Roti", "location": {"address": "18 Raffles Quay, #01-96", "crossStreet": "Lau Pa Sat Telok Ayer Festive Market", "lat": 1.2802443099838159, "lng": 103.85065019741309, "labeledLatLngs": [{"label": "display", "lat": 1.2802443099838159, "lng": 103.85065019741309}], "distance": 302, "postalCode": "048582", "cc": "SG", "neighborhood": "Financial District", "city": "Singapore 048582", "country": "Singapore", "formattedAddress": ["18 Raffles Quay, #01-96 (Lau Pa Sat Telok Ayer Festive Market)", "048582", "Singapore"]}, "categories": [{"id": "54135bf5e4b08f3d2429dfdd", "name": "North Indian Restaurant", "pluralName": "North Indian Restaurants", "shortName": "North Indian", "icon": {"prefix": "https://ss3.4sqi.net/img/categories_v2/food/default_", "suffix": ".png"}, "primary": true}], "photos": {"count": 0, "groups": []}}, "referralId": "e-0-566b5dbc498e50a39a4d4c29-46"}, {"reasons": {"count": 0, "items": [{"summary": "This spot is popular", "type": "general", "reasonName": "globalInteractionReason"}]}, "venue": {"id": "4ce5e809d99f721ef9faa073", "name": "The Tower Club", "location": {"address": "Levels 62 to 64, Republic Plaza Tower 1", "crossStreet": "9 Raffles Pl.", "lat": 1.2828858688114204, "lng": 103.85111191299613, "labeledLatLngs": [{"label": "display", "lat": 1.2828858688114204, "lng": 103.85111191299613}], "distance": 465, "postalCode": "048619", "cc": "SG", "neighborhood": "Financial District", "city": "Singapore", "country": "Singapore", "formattedAddress": ["Levels 62 to 64, Republic Plaza Tower 1 (9 Raffles Pl.)", "048619", "Singapore"]}, "categories": [{"id": "4bf58dd8d48988d121941735", "name": "Lounge", "pluralName": "Lounges", "shortName": "Lounge", "icon": {"prefix": "https://ss3.4sqi.net/img/categories_v2/nightlife/default_", "suffix": ".png"}, "primary": true}], "photos": {"count": 0, "groups": []}}, "referralId": "e-0-4ce5e809d99f721ef9faa073-47"}, {"reasons": {"count": 0, "items": [{"summary": "This spot is popular", "type": "general", "reasonName": "globalInteractionReason"}]}, "venue": {"id": "597012f67269fe3e6b17ab13", "name": "The Providore", "location": {"address": "6A Shenton Way OUE Gallery B1-07", "lat": 1.2780488836327972, "lng": 103.84939915153375, "labeledLatLngs": [{"label": "display", "lat": 1.2780488836327972, "lng": 103.84939915153375}], "distance": 442, "postalCode": "068809", "cc": "SG", "neighborhood": "Financial District", "city": "Singapore", "country": "Singapore", "formattedAddress": ["6A Shenton Way OUE Gallery B1-07", "068809", "Singapore"]}, "categories": [{"id": "4bf58dd8d48988d16d941735", "name": "Caf\u00e9", "pluralName": "Caf\u00e9s", "shortName": "Caf\u00e9", "icon": {"prefix": "https://ss3.4sqi.net/img/categories_v2/food/cafe_", "suffix": ".png"}, "primary": true}], "photos": {"count": 0, "groups": []}}, "referralId": "e-0-597012f67269fe3e6b17ab13-48"}, {"reasons": {"count": 0, "items": [{"summary": "This spot is popular", "type": "general", "reasonName": "globalInteractionReason"}]}, "venue": {"id": "4f3356fee4b06627772f0dca", "name": "Wheat Baumkuchen", "location": {"address": "#02-02 Asia Square Tower 1 Food Garden", "crossStreet": "8 Marina View", "lat": 1.2783983545587794, "lng": 103.8514310489938, "labeledLatLngs": [{"label": "display", "lat": 1.2783983545587794, "lng": 103.8514310489938}], "distance": 217, "postalCode": "018960", "cc": "SG", "city": "Singapore", "country": "Singapore", "formattedAddress": ["#02-02 Asia Square Tower 1 Food Garden (8 Marina View)", "018960", "Singapore"]}, "categories": [{"id": "4bf58dd8d48988d111941735", "name": "Japanese Restaurant", "pluralName": "Japanese Restaurants", "shortName": "Japanese", "icon": {"prefix": "https://ss3.4sqi.net/img/categories_v2/food/japanese_", "suffix": ".png"}, "primary": true}], "photos": {"count": 0, "groups": []}}, "referralId": "e-0-4f3356fee4b06627772f0dca-49"}, {"reasons": {"count": 0, "items": [{"summary": "This spot is popular", "type": "general", "reasonName": "globalInteractionReason"}]}, "venue": {"id": "4caf1098c5e6a1cd7e80c9f6", "name": "Lantern", "location": {"address": "The Fullerton Bay Hotel", "crossStreet": "80 Collyer Quay", "lat": 1.2832618010900512, "lng": 103.85359781518986, "labeledLatLngs": [{"label": "display", "lat": 1.2832618010900512, "lng": 103.85359781518986}], "distance": 448, "postalCode": "049326", "cc": "SG", "city": "Singapore", "country": "Singapore", "formattedAddress": ["The Fullerton Bay Hotel (80 Collyer Quay)", "049326", "Singapore"]}, "categories": [{"id": "4bf58dd8d48988d11e941735", "name": "Cocktail Bar", "pluralName": "Cocktail Bars", "shortName": "Cocktail", "icon": {"prefix": "https://ss3.4sqi.net/img/categories_v2/nightlife/cocktails_", "suffix": ".png"}, "primary": true}], "photos": {"count": 0, "groups": []}}, "referralId": "e-0-4caf1098c5e6a1cd7e80c9f6-50"}, {"reasons": {"count": 0, "items": [{"summary": "This spot is popular", "type": "general", "reasonName": "globalInteractionReason"}]}, "venue": {"id": "502ded4fe4b01042a2ad5c00", "name": "Fitness First Platinum", "location": {"address": "#16-03/04, Marina Bay Financial Centre Tower 3", "crossStreet": "12 Marina Blvd", "lat": 1.2788951231123298, "lng": 103.8544804332395, "labeledLatLngs": [{"label": "display", "lat": 1.2788951231123298, "lng": 103.8544804332395}], "distance": 149, "postalCode": "018982", "cc": "SG", "city": "Singapore", "country": "Singapore", "formattedAddress": ["#16-03/04, Marina Bay Financial Centre Tower 3 (12 Marina Blvd)", "018982", "Singapore"]}, "categories": [{"id": "4bf58dd8d48988d175941735", "name": "Gym / Fitness Center", "pluralName": "Gyms or Fitness Centers", "shortName": "Gym / Fitness", "icon": {"prefix": "https://ss3.4sqi.net/img/categories_v2/building/gym_", "suffix": ".png"}, "primary": true}], "photos": {"count": 0, "groups": []}}, "referralId": "e-0-502ded4fe4b01042a2ad5c00-51"}, {"reasons": {"count": 0, "items": [{"summary": "This spot is popular", "type": "general", "reasonName": "globalInteractionReason"}]}, "venue": {"id": "558b9629498e487f8690d0f5", "name": "Wafuken", "location": {"address": "Food Garden, Asia Square", "crossStreet": "12 Marina View", "lat": 1.2782553127301914, "lng": 103.8511631365698, "labeledLatLngs": [{"label": "display", "lat": 1.2782553127301914, "lng": 103.8511631365698}], "distance": 251, "postalCode": "018961", "cc": "SG", "city": "Singapore", "country": "Singapore", "formattedAddress": ["Food Garden, Asia Square (12 Marina View)", "018961", "Singapore"]}, "categories": [{"id": "4bf58dd8d48988d111941735", "name": "Japanese Restaurant", "pluralName": "Japanese Restaurants", "shortName": "Japanese", "icon": {"prefix": "https://ss3.4sqi.net/img/categories_v2/food/japanese_", "suffix": ".png"}, "primary": true}], "photos": {"count": 0, "groups": []}}, "referralId": "e-0-558b9629498e487f8690d0f5-52"}, {"reasons": {"count": 0, "items": [{"summary": "This spot is popular", "type": "general", "reasonName": "globalInteractionReason"}]}, "venue": {"id": "5938e6a39b04734a752043db", "name": "Lunar Coffee Roaster", "location": {"address": "Downtown Gallery, 6 Shenton Way", "lat": 1.2781706069143353, "lng": 103.84945248960479, "labeledLatLngs": [{"label": "display", "lat": 1.2781706069143353, "lng": 103.84945248960479}], "distance": 432, "cc": "SG", "neighborhood": "Financial District", "city": "Singapore", "country": "Singapore", "formattedAddress": ["Downtown Gallery, 6 Shenton Way", "Singapore"]}, "categories": [{"id": "4bf58dd8d48988d1e0931735", "name": "Coffee Shop", "pluralName": "Coffee Shops", "shortName": "Coffee Shop", "icon": {"prefix": "https://ss3.4sqi.net/img/categories_v2/food/coffeeshop_", "suffix": ".png"}, "primary": true}], "photos": {"count": 0, "groups": []}}, "referralId": "e-0-5938e6a39b04734a752043db-53"}, {"reasons": {"count": 0, "items": [{"summary": "This spot is popular", "type": "general", "reasonName": "globalInteractionReason"}]}, "venue": {"id": "524e02fe11d29b2194e95a51", "name": "Starbucks", "location": {"address": "#02-22, Asia Square Tower 2", "crossStreet": "12 Marina View", "lat": 1.2779491644187164, "lng": 103.85098549913906, "labeledLatLngs": [{"label": "display", "lat": 1.2779491644187164, "lng": 103.85098549913906}], "distance": 284, "postalCode": "018961", "cc": "SG", "city": "Singapore", "country": "Singapore", "formattedAddress": ["#02-22, Asia Square Tower 2 (12 Marina View)", "018961", "Singapore"]}, "categories": [{"id": "4bf58dd8d48988d1e0931735", "name": "Coffee Shop", "pluralName": "Coffee Shops", "shortName": "Coffee Shop", "icon": {"prefix": "https://ss3.4sqi.net/img/categories_v2/food/coffeeshop_", "suffix": ".png"}, "primary": true}], "photos": {"count": 0, "groups": []}}, "referralId": "e-0-524e02fe11d29b2194e95a51-54"}, {"reasons": {"count": 0, "items": [{"summary": "This spot is popular", "type": "general", "reasonName": "globalInteractionReason"}]}, "venue": {"id": "51cd1772498e190193a528a8", "name": "The Black Swan", "location": {"address": "19 Cecil Street #01-01", "lat": 1.2826894086964717, "lng": 103.85035708191681, "labeledLatLngs": [{"label": "display", "lat": 1.2826894086964717, "lng": 103.85035708191681}], "distance": 494, "postalCode": "049704", "cc": "SG", "neighborhood": "Financial District", "city": "Singapore", "country": "Singapore", "formattedAddress": ["19 Cecil Street #01-01", "049704", "Singapore"]}, "categories": [{"id": "4bf58dd8d48988d11e941735", "name": "Cocktail Bar", "pluralName": "Cocktail Bars", "shortName": "Cocktail", "icon": {"prefix": "https://ss3.4sqi.net/img/categories_v2/nightlife/cocktails_", "suffix": ".png"}, "primary": true}], "photos": {"count": 0, "groups": []}}, "referralId": "e-0-51cd1772498e190193a528a8-55"}, {"reasons": {"count": 0, "items": [{"summary": "This spot is popular", "type": "general", "reasonName": "globalInteractionReason"}]}, "venue": {"id": "5b4b0a639e3b65002ccb9e87", "name": "Paris Baguette", "location": {"address": "One Shenton", "crossStreet": "#01-02, 1 Shenton Way", "lat": 1.2800683618550286, "lng": 103.85085456278766, "labeledLatLngs": [{"label": "display", "lat": 1.2800683618550286, "lng": 103.85085456278766}], "distance": 274, "postalCode": "068803", "cc": "SG", "city": "Singapore", "country": "Singapore", "formattedAddress": ["One Shenton (#01-02, 1 Shenton Way)", "068803", "Singapore"]}, "categories": [{"id": "4bf58dd8d48988d16a941735", "name": "Bakery", "pluralName": "Bakeries", "shortName": "Bakery", "icon": {"prefix": "https://ss3.4sqi.net/img/categories_v2/food/bakery_", "suffix": ".png"}, "primary": true}], "photos": {"count": 0, "groups": []}}, "referralId": "e-0-5b4b0a639e3b65002ccb9e87-56"}, {"reasons": {"count": 0, "items": [{"summary": "This spot is popular", "type": "general", "reasonName": "globalInteractionReason"}]}, "venue": {"id": "5a3263b0db1d8178a0e0d7db", "name": "Pizza Express", "location": {"address": "#01-20/21, Marina One The Heart", "crossStreet": "5 Straits View", "lat": 1.278072459669621, "lng": 103.85302012598467, "labeledLatLngs": [{"label": "display", "lat": 1.278072459669621, "lng": 103.85302012598467}], "distance": 133, "postalCode": "018935", "cc": "SG", "city": "Singapore", "country": "Singapore", "formattedAddress": ["#01-20/21, Marina One The Heart (5 Straits View)", "018935", "Singapore"]}, "categories": [{"id": "4bf58dd8d48988d1ca941735", "name": "Pizza Place", "pluralName": "Pizza Places", "shortName": "Pizza", "icon": {"prefix": "https://ss3.4sqi.net/img/categories_v2/food/pizza_", "suffix": ".png"}, "primary": true}], "photos": {"count": 0, "groups": []}}, "referralId": "e-0-5a3263b0db1d8178a0e0d7db-57"}, {"reasons": {"count": 0, "items": [{"summary": "This spot is popular", "type": "general", "reasonName": "globalInteractionReason"}]}, "venue": {"id": "4be8e6f5947820a13a7cb5db", "name": "Fish Soup @ Arcade", "location": {"address": "20 Raffles Place", "lat": 1.2833937139489695, "lng": 103.8527641433882, "labeledLatLngs": [{"label": "display", "lat": 1.2833937139489695, "lng": 103.8527641433882}], "distance": 462, "postalCode": "048620", "cc": "SG", "city": "Singapore", "country": "Singapore", "formattedAddress": ["20 Raffles Place", "048620", "Singapore"]}, "categories": [{"id": "4bf58dd8d48988d145941735", "name": "Chinese Restaurant", "pluralName": "Chinese Restaurants", "shortName": "Chinese", "icon": {"prefix": "https://ss3.4sqi.net/img/categories_v2/food/asian_", "suffix": ".png"}, "primary": true}], "photos": {"count": 0, "groups": []}}, "referralId": "e-0-4be8e6f5947820a13a7cb5db-58"}, {"reasons": {"count": 0, "items": [{"summary": "This spot is popular", "type": "general", "reasonName": "globalInteractionReason"}]}, "venue": {"id": "4cc42f489eeab71310e9df40", "name": "The Landing Point", "location": {"address": "The Fullerton Bay Hotel", "crossStreet": "80 Collyer Quay", "lat": 1.2835978417702665, "lng": 103.85319689173761, "labeledLatLngs": [{"label": "display", "lat": 1.2835978417702665, "lng": 103.85319689173761}], "distance": 483, "postalCode": "049326", "cc": "SG", "city": "Singapore", "country": "Singapore", "formattedAddress": ["The Fullerton Bay Hotel (80 Collyer Quay)", "049326", "Singapore"]}, "categories": [{"id": "4bf58dd8d48988d1d5941735", "name": "Hotel Bar", "pluralName": "Hotel Bars", "shortName": "Hotel Bar", "icon": {"prefix": "https://ss3.4sqi.net/img/categories_v2/travel/hotel_bar_", "suffix": ".png"}, "primary": true}], "photos": {"count": 0, "groups": []}}, "referralId": "e-0-4cc42f489eeab71310e9df40-59"}, {"reasons": {"count": 0, "items": [{"summary": "This spot is popular", "type": "general", "reasonName": "globalInteractionReason"}]}, "venue": {"id": "5575191a498e907e6fd40474", "name": "The Sandwich Shop", "location": {"address": "Marina Bay Financial Centre Tower 3", "lat": 1.2792182005709969, "lng": 103.85452383628984, "labeledLatLngs": [{"label": "display", "lat": 1.2792182005709969, "lng": 103.85452383628984}], "distance": 148, "cc": "SG", "city": "Singapore", "country": "Singapore", "formattedAddress": ["Marina Bay Financial Centre Tower 3", "Singapore"]}, "categories": [{"id": "4bf58dd8d48988d1c5941735", "name": "Sandwich Place", "pluralName": "Sandwich Places", "shortName": "Sandwiches", "icon": {"prefix": "https://ss3.4sqi.net/img/categories_v2/food/deli_", "suffix": ".png"}, "primary": true}], "photos": {"count": 0, "groups": []}}, "referralId": "e-0-5575191a498e907e6fd40474-60"}, {"reasons": {"count": 0, "items": [{"summary": "This spot is popular", "type": "general", "reasonName": "globalInteractionReason"}]}, "venue": {"id": "4bacb323f964a52000053be3", "name": "Ascott Raffles Place", "location": {"address": "2 Finlayson Green", "lat": 1.2820908255578936, "lng": 103.85165959596634, "labeledLatLngs": [{"label": "display", "lat": 1.2820908255578936, "lng": 103.85165959596634}], "distance": 358, "postalCode": "049247", "cc": "SG", "city": "Singapore", "country": "Singapore", "formattedAddress": ["2 Finlayson Green", "049247", "Singapore"]}, "categories": [{"id": "4bf58dd8d48988d1fa931735", "name": "Hotel", "pluralName": "Hotels", "shortName": "Hotel", "icon": {"prefix": "https://ss3.4sqi.net/img/categories_v2/travel/hotel_", "suffix": ".png"}, "primary": true}], "photos": {"count": 0, "groups": []}}, "referralId": "e-0-4bacb323f964a52000053be3-61"}, {"reasons": {"count": 0, "items": [{"summary": "This spot is popular", "type": "general", "reasonName": "globalInteractionReason"}]}, "venue": {"id": "4cfb797420fe3704d75454f8", "name": "Breadtalk", "location": {"address": "B2-18, Marina Bay Link Mall", "lat": 1.2795862403676075, "lng": 103.852889135552, "labeledLatLngs": [{"label": "display", "lat": 1.2795862403676075, "lng": 103.852889135552}], "distance": 49, "cc": "SG", "city": "Singapore", "country": "Singapore", "formattedAddress": ["B2-18, Marina Bay Link Mall", "Singapore"]}, "categories": [{"id": "4bf58dd8d48988d16a941735", "name": "Bakery", "pluralName": "Bakeries", "shortName": "Bakery", "icon": {"prefix": "https://ss3.4sqi.net/img/categories_v2/food/bakery_", "suffix": ".png"}, "primary": true}], "photos": {"count": 0, "groups": []}}, "referralId": "e-0-4cfb797420fe3704d75454f8-62"}, {"reasons": {"count": 0, "items": [{"summary": "This spot is popular", "type": "general", "reasonName": "globalInteractionReason"}]}, "venue": {"id": "5ab5cdeaa4b51b3dc00ea7b3", "name": "Virgin Active", "location": {"address": "#02-01/03 & #03-01, Marina One The Heart", "lat": 1.2777488343805083, "lng": 103.85258305496443, "labeledLatLngs": [{"label": "display", "lat": 1.2777488343805083, "lng": 103.85258305496443}], "distance": 180, "postalCode": "018936", "cc": "SG", "city": "Singapore", "country": "Singapore", "formattedAddress": ["#02-01/03 & #03-01, Marina One The Heart", "018936", "Singapore"]}, "categories": [{"id": "4bf58dd8d48988d175941735", "name": "Gym / Fitness Center", "pluralName": "Gyms or Fitness Centers", "shortName": "Gym / Fitness", "icon": {"prefix": "https://ss3.4sqi.net/img/categories_v2/building/gym_", "suffix": ".png"}, "primary": true}], "photos": {"count": 0, "groups": []}}, "referralId": "e-0-5ab5cdeaa4b51b3dc00ea7b3-63"}, {"reasons": {"count": 0, "items": [{"summary": "This spot is popular", "type": "general", "reasonName": "globalInteractionReason"}]}, "venue": {"id": "593a7fc0d48ec17c5a4c167b", "name": "Pho Stop", "location": {"address": "6A Shenton Way #02-28, Downtown Gallery", "lat": 1.2775870547118091, "lng": 103.84914405394194, "labeledLatLngs": [{"label": "display", "lat": 1.2775870547118091, "lng": 103.84914405394194}], "distance": 486, "postalCode": "068815", "cc": "SG", "city": "Singapore", "country": "Singapore", "formattedAddress": ["6A Shenton Way #02-28, Downtown Gallery", "068815", "Singapore"]}, "categories": [{"id": "4bf58dd8d48988d14a941735", "name": "Vietnamese Restaurant", "pluralName": "Vietnamese Restaurants", "shortName": "Vietnamese", "icon": {"prefix": "https://ss3.4sqi.net/img/categories_v2/food/vietnamese_", "suffix": ".png"}, "primary": true}], "photos": {"count": 0, "groups": []}}, "referralId": "e-0-593a7fc0d48ec17c5a4c167b-64"}, {"reasons": {"count": 0, "items": [{"summary": "This spot is popular", "type": "general", "reasonName": "globalInteractionReason"}]}, "venue": {"id": "52a2a9e911d2bf98d9d16759", "name": "Tatsu", "location": {"address": "#02-16, Asia Square", "crossStreet": "12 Marina View", "lat": 1.27842311305447, "lng": 103.8514970867909, "labeledLatLngs": [{"label": "display", "lat": 1.27842311305447, "lng": 103.8514970867909}], "distance": 209, "postalCode": "018961", "cc": "SG", "city": "Singapore", "country": "Singapore", "formattedAddress": ["#02-16, Asia Square (12 Marina View)", "018961", "Singapore"]}, "categories": [{"id": "4bf58dd8d48988d111941735", "name": "Japanese Restaurant", "pluralName": "Japanese Restaurants", "shortName": "Japanese", "icon": {"prefix": "https://ss3.4sqi.net/img/categories_v2/food/japanese_", "suffix": ".png"}, "primary": true}], "photos": {"count": 0, "groups": []}, "venuePage": {"id": "77951136"}}, "referralId": "e-0-52a2a9e911d2bf98d9d16759-65"}, {"reasons": {"count": 0, "items": [{"summary": "This spot is popular", "type": "general", "reasonName": "globalInteractionReason"}]}, "venue": {"id": "52cce49a498e9971afeef606", "name": "Subway", "location": {"address": "Marina Bay Link Mall", "crossStreet": "8A Marina Boulevard", "lat": 1.2795858729281837, "lng": 103.85286915389514, "labeledLatLngs": [{"label": "display", "lat": 1.2795858729281837, "lng": 103.85286915389514}], "distance": 50, "cc": "SG", "city": "Singapore", "country": "Singapore", "formattedAddress": ["Marina Bay Link Mall (8A Marina Boulevard)", "Singapore"]}, "categories": [{"id": "4bf58dd8d48988d1c5941735", "name": "Sandwich Place", "pluralName": "Sandwich Places", "shortName": "Sandwiches", "icon": {"prefix": "https://ss3.4sqi.net/img/categories_v2/food/deli_", "suffix": ".png"}, "primary": true}], "photos": {"count": 0, "groups": []}}, "referralId": "e-0-52cce49a498e9971afeef606-66"}, {"reasons": {"count": 0, "items": [{"summary": "This spot is popular", "type": "general", "reasonName": "globalInteractionReason"}]}, "venue": {"id": "4f15780ce4b07e9ece62b1f2", "name": "Tong Le Private Dining", "location": {"address": "OUE Tower", "crossStreet": "60 Collyer Quay", "lat": 1.2835242227582133, "lng": 103.85307313113758, "labeledLatLngs": [{"label": "display", "lat": 1.2835242227582133, "lng": 103.85307313113758}], "distance": 475, "postalCode": "049322", "cc": "SG", "city": "Singapore", "country": "Singapore", "formattedAddress": ["OUE Tower (60 Collyer Quay)", "049322", "Singapore"]}, "categories": [{"id": "4bf58dd8d48988d145941735", "name": "Chinese Restaurant", "pluralName": "Chinese Restaurants", "shortName": "Chinese", "icon": {"prefix": "https://ss3.4sqi.net/img/categories_v2/food/asian_", "suffix": ".png"}, "primary": true}], "photos": {"count": 0, "groups": []}}, "referralId": "e-0-4f15780ce4b07e9ece62b1f2-67"}, {"reasons": {"count": 0, "items": [{"summary": "This spot is popular", "type": "general", "reasonName": "globalInteractionReason"}]}, "venue": {"id": "5b8dd9e6db2aeb002cc864af", "name": "Starbucks", "location": {"address": "9 Straits View", "lat": 1.276988, "lng": 103.852458, "labeledLatLngs": [{"label": "display", "lat": 1.276988, "lng": 103.852458}], "distance": 265, "postalCode": "018937", "cc": "SG", "city": "Marina", "state": "Singapore", "country": "Singapore", "formattedAddress": ["9 Straits View", "018937", "Singapore"]}, "categories": [{"id": "4bf58dd8d48988d1e0931735", "name": "Coffee Shop", "pluralName": "Coffee Shops", "shortName": "Coffee Shop", "icon": {"prefix": "https://ss3.4sqi.net/img/categories_v2/food/coffeeshop_", "suffix": ".png"}, "primary": true}], "photos": {"count": 0, "groups": []}}, "referralId": "e-0-5b8dd9e6db2aeb002cc864af-68"}, {"reasons": {"count": 0, "items": [{"summary": "This spot is popular", "type": "general", "reasonName": "globalInteractionReason"}]}, "venue": {"id": "4b62f3e1f964a520825a2ae3", "name": "Red Dot Design Museum Singapore", "location": {"address": "11 Marina Boulevard", "lat": 1.2800206777488874, "lng": 103.85623812675476, "labeledLatLngs": [{"label": "display", "lat": 1.2800206777488874, "lng": 103.85623812675476}], "distance": 350, "postalCode": "018940", "cc": "SG", "city": "Singapore", "country": "Singapore", "formattedAddress": ["11 Marina Boulevard", "018940", "Singapore"]}, "categories": [{"id": "4bf58dd8d48988d181941735", "name": "Museum", "pluralName": "Museums", "shortName": "Museum", "icon": {"prefix": "https://ss3.4sqi.net/img/categories_v2/arts_entertainment/museum_", "suffix": ".png"}, "primary": true}], "photos": {"count": 0, "groups": []}, "venuePage": {"id": "63809646"}}, "referralId": "e-0-4b62f3e1f964a520825a2ae3-69"}, {"reasons": {"count": 0, "items": [{"summary": "This spot is popular", "type": "general", "reasonName": "globalInteractionReason"}]}, "venue": {"id": "5068fbb7fe70906d3644d7f6", "name": "The Exchange", "location": {"address": "Marina Bay Financial Centre Tower 3", "crossStreet": "12 Marina Blvd.", "lat": 1.278948004234832, "lng": 103.85451353397943, "labeledLatLngs": [{"label": "display", "lat": 1.278948004234832, "lng": 103.85451353397943}], "distance": 151, "postalCode": "018982", "cc": "SG", "city": "Singapore", "country": "Singapore", "formattedAddress": ["Marina Bay Financial Centre Tower 3 (12 Marina Blvd.)", "018982", "Singapore"]}, "categories": [{"id": "4bf58dd8d48988d1e0931735", "name": "Coffee Shop", "pluralName": "Coffee Shops", "shortName": "Coffee Shop", "icon": {"prefix": "https://ss3.4sqi.net/img/categories_v2/food/coffeeshop_", "suffix": ".png"}, "primary": true}], "photos": {"count": 0, "groups": []}}, "referralId": "e-0-5068fbb7fe70906d3644d7f6-70"}, {"reasons": {"count": 0, "items": [{"summary": "This spot is popular", "type": "general", "reasonName": "globalInteractionReason"}]}, "venue": {"id": "5bd5a5372b274a002c49122e", "name": "The Great Moscow Circus", "location": {"address": "Mighty Big Top", "crossStreet": "Marina Bay Sands 10 Bayfront Avenue", "lat": 1.28061, "lng": 103.857389, "labeledLatLngs": [{"label": "display", "lat": 1.28061, "lng": 103.857389}], "distance": 491, "postalCode": "018956", "cc": "SG", "neighborhood": "Financial District", "state": "Singapore", "country": "Singapore", "formattedAddress": ["Mighty Big Top (Marina Bay Sands 10 Bayfront Avenue)", "018956", "Singapore"]}, "categories": [{"id": "52e81612bcbc57f1066b79e7", "name": "Circus", "pluralName": "Circuses", "shortName": "Circus", "icon": {"prefix": "https://ss3.4sqi.net/img/categories_v2/arts_entertainment/default_", "suffix": ".png"}, "primary": true}], "photos": {"count": 0, "groups": []}}, "referralId": "e-0-5bd5a5372b274a002c49122e-71"}, {"reasons": {"count": 0, "items": [{"summary": "This spot is popular", "type": "general", "reasonName": "globalInteractionReason"}]}, "venue": {"id": "4eb37ef6d3e3644ca55fc089", "name": "Hup Lee Cafeteria", "location": {"address": "#01-35/36, The Arcade", "crossStreet": "11 Collyer Quay", "lat": 1.2834032822989418, "lng": 103.85274815718736, "labeledLatLngs": [{"label": "display", "lat": 1.2834032822989418, "lng": 103.85274815718736}], "distance": 464, "postalCode": "049317", "cc": "SG", "city": "Singapore", "country": "Singapore", "formattedAddress": ["#01-35/36, The Arcade (11 Collyer Quay)", "049317", "Singapore"]}, "categories": [{"id": "4bf58dd8d48988d120951735", "name": "Food Court", "pluralName": "Food Courts", "shortName": "Food Court", "icon": {"prefix": "https://ss3.4sqi.net/img/categories_v2/shops/food_foodcourt_", "suffix": ".png"}, "primary": true}], "photos": {"count": 0, "groups": []}}, "referralId": "e-0-4eb37ef6d3e3644ca55fc089-72"}, {"reasons": {"count": 0, "items": [{"summary": "This spot is popular", "type": "general", "reasonName": "globalInteractionReason"}]}, "venue": {"id": "4b05880cf964a52048ae22e3", "name": "Majestic Restaurant", "location": {"address": "Marina One East Tower  #04-01", "lat": 1.276716, "lng": 103.85403, "labeledLatLngs": [{"label": "display", "lat": 1.276716, "lng": 103.85403}], "distance": 298, "postalCode": "089845", "cc": "SG", "city": "Singapore", "country": "Singapore", "formattedAddress": ["Marina One East Tower  #04-01", "089845", "Singapore"]}, "categories": [{"id": "4bf58dd8d48988d145941735", "name": "Chinese Restaurant", "pluralName": "Chinese Restaurants", "shortName": "Chinese", "icon": {"prefix": "https://ss3.4sqi.net/img/categories_v2/food/asian_", "suffix": ".png"}, "primary": true}], "photos": {"count": 0, "groups": []}}, "referralId": "e-0-4b05880cf964a52048ae22e3-73"}, {"reasons": {"count": 0, "items": [{"summary": "This spot is popular", "type": "general", "reasonName": "globalInteractionReason"}]}, "venue": {"id": "4e9e553c29c244b4ef12fa2e", "name": "Food Garden", "location": {"address": "Asia Square Tower 2", "crossStreet": "12 Marina View", "lat": 1.2783247947384897, "lng": 103.8514937280737, "labeledLatLngs": [{"label": "display", "lat": 1.2783247947384897, "lng": 103.8514937280737}], "distance": 215, "postalCode": "018961", "cc": "SG", "city": "Singapore", "country": "Singapore", "formattedAddress": ["Asia Square Tower 2 (12 Marina View)", "018961", "Singapore"]}, "categories": [{"id": "4bf58dd8d48988d120951735", "name": "Food Court", "pluralName": "Food Courts", "shortName": "Food Court", "icon": {"prefix": "https://ss3.4sqi.net/img/categories_v2/shops/food_foodcourt_", "suffix": ".png"}, "primary": true}], "photos": {"count": 0, "groups": []}}, "referralId": "e-0-4e9e553c29c244b4ef12fa2e-74"}, {"reasons": {"count": 0, "items": [{"summary": "This spot is popular", "type": "general", "reasonName": "globalInteractionReason"}]}, "venue": {"id": "5aeaefb09411f2002cfe23e4", "name": "Hans im Gl\u00fcck", "location": {"address": "9 Raffles Place #01-01", "lat": 1.2826770287540725, "lng": 103.85091912677048, "labeledLatLngs": [{"label": "display", "lat": 1.2826770287540725, "lng": 103.85091912677048}], "distance": 456, "postalCode": "048619", "cc": "SG", "neighborhood": "Financial District", "city": "Singapore", "country": "Singapore", "formattedAddress": ["9 Raffles Place #01-01", "048619", "Singapore"]}, "categories": [{"id": "4bf58dd8d48988d16c941735", "name": "Burger Joint", "pluralName": "Burger Joints", "shortName": "Burgers", "icon": {"prefix": "https://ss3.4sqi.net/img/categories_v2/food/burger_", "suffix": ".png"}, "primary": true}], "photos": {"count": 0, "groups": []}}, "referralId": "e-0-5aeaefb09411f2002cfe23e4-75"}, {"reasons": {"count": 0, "items": [{"summary": "This spot is popular", "type": "general", "reasonName": "globalInteractionReason"}]}, "venue": {"id": "5267c7a811d235941056f5d3", "name": "Seasonal Tastes", "location": {"address": "The Westin Singapore, 32nd Floor, Asia Square Tower 2", "crossStreet": "12 Marina View", "lat": 1.2778360784072829, "lng": 103.85111012232929, "labeledLatLngs": [{"label": "display", "lat": 1.2778360784072829, "lng": 103.85111012232929}], "distance": 280, "postalCode": "018961", "cc": "SG", "city": "Singapore", "country": "Singapore", "formattedAddress": ["The Westin Singapore, 32nd Floor, Asia Square Tower 2 (12 Marina View)", "018961", "Singapore"]}, "categories": [{"id": "52e81612bcbc57f1066b79f4", "name": "Buffet", "pluralName": "Buffets", "shortName": "Buffet", "icon": {"prefix": "https://ss3.4sqi.net/img/categories_v2/food/default_", "suffix": ".png"}, "primary": true}], "photos": {"count": 0, "groups": []}, "venuePage": {"id": "78162592"}}, "referralId": "e-0-5267c7a811d235941056f5d3-76"}, {"reasons": {"count": 0, "items": [{"summary": "This spot is popular", "type": "general", "reasonName": "globalInteractionReason"}]}, "venue": {"id": "52a0159f11d2b5f429addd63", "name": "63Celsius", "location": {"address": "#01-03, Asia Square Tower 2", "crossStreet": "12 Marina View", "lat": 1.2784400224902703, "lng": 103.85142216651595, "labeledLatLngs": [{"label": "display", "lat": 1.2784400224902703, "lng": 103.85142216651595}], "distance": 216, "postalCode": "018961", "cc": "SG", "city": "Singapore", "country": "Singapore", "formattedAddress": ["#01-03, Asia Square Tower 2 (12 Marina View)", "018961", "Singapore"]}, "categories": [{"id": "4bf58dd8d48988d155941735", "name": "Gastropub", "pluralName": "Gastropubs", "shortName": "Gastropub", "icon": {"prefix": "https://ss3.4sqi.net/img/categories_v2/food/gastropub_", "suffix": ".png"}, "primary": true}], "photos": {"count": 0, "groups": []}}, "referralId": "e-0-52a0159f11d2b5f429addd63-77"}, {"reasons": {"count": 0, "items": [{"summary": "This spot is popular", "type": "general", "reasonName": "globalInteractionReason"}]}, "venue": {"id": "53d73b5a498ee5928d62e742", "name": "63Espresso", "location": {"address": "12 Marina View,  #01-03 Asia Square Tower 2", "lat": 1.2783777068420366, "lng": 103.85148006059411, "labeledLatLngs": [{"label": "display", "lat": 1.2783777068420366, "lng": 103.85148006059411}], "distance": 213, "postalCode": "018961", "cc": "SG", "city": "Singapore", "country": "Singapore", "formattedAddress": ["12 Marina View,  #01-03 Asia Square Tower 2", "018961", "Singapore"]}, "categories": [{"id": "4bf58dd8d48988d1e0931735", "name": "Coffee Shop", "pluralName": "Coffee Shops", "shortName": "Coffee Shop", "icon": {"prefix": "https://ss3.4sqi.net/img/categories_v2/food/coffeeshop_", "suffix": ".png"}, "primary": true}], "photos": {"count": 0, "groups": []}}, "referralId": "e-0-53d73b5a498ee5928d62e742-78"}, {"reasons": {"count": 0, "items": [{"summary": "This spot is popular", "type": "general", "reasonName": "globalInteractionReason"}]}, "venue": {"id": "4c610a6c12e5c92831b0204c", "name": "Marina Bay Link Mall", "location": {"address": "8A Marina Boulevard", "crossStreet": "8A Marina Boulevard", "lat": 1.2795293746887166, "lng": 103.85287607980396, "labeledLatLngs": [{"label": "display", "lat": 1.2795293746887166, "lng": 103.85287607980396}], "distance": 45, "postalCode": "018984", "cc": "SG", "neighborhood": "Financial District", "city": "Singapore", "country": "Singapore", "formattedAddress": ["8A Marina Boulevard (8A Marina Boulevard)", "018984", "Singapore"]}, "categories": [{"id": "4bf58dd8d48988d1fd941735", "name": "Shopping Mall", "pluralName": "Shopping Malls", "shortName": "Mall", "icon": {"prefix": "https://ss3.4sqi.net/img/categories_v2/shops/mall_", "suffix": ".png"}, "primary": true}], "photos": {"count": 0, "groups": []}}, "referralId": "e-0-4c610a6c12e5c92831b0204c-79"}, {"reasons": {"count": 0, "items": [{"summary": "This spot is popular", "type": "general", "reasonName": "globalInteractionReason"}]}, "venue": {"id": "52f38c0f498e701aecf01f63", "name": "The Secret Mermaid", "location": {"address": "B1-08, Ocean Financial Centre", "crossStreet": "10 Collyer Quay", "lat": 1.283314298454391, "lng": 103.85146300612216, "labeledLatLngs": [{"label": "display", "lat": 1.283314298454391, "lng": 103.85146300612216}], "distance": 490, "postalCode": "049315", "cc": "SG", "city": "Singapore", "country": "Singapore", "formattedAddress": ["B1-08, Ocean Financial Centre (10 Collyer Quay)", "049315", "Singapore"]}, "categories": [{"id": "4bf58dd8d48988d11e941735", "name": "Cocktail Bar", "pluralName": "Cocktail Bars", "shortName": "Cocktail", "icon": {"prefix": "https://ss3.4sqi.net/img/categories_v2/nightlife/cocktails_", "suffix": ".png"}, "primary": true}], "photos": {"count": 0, "groups": []}, "venuePage": {"id": "78684801"}}, "referralId": "e-0-52f38c0f498e701aecf01f63-80"}, {"reasons": {"count": 0, "items": [{"summary": "This spot is popular", "type": "general", "reasonName": "globalInteractionReason"}]}, "venue": {"id": "501b4f5ee4b0a704df069db8", "name": "Men-ya Kaiko Ramen", "location": {"address": "12 Marina Boulevard #01-01 Marina Bay Financial Centre Tower 3", "lat": 1.2787412333332153, "lng": 103.85420827481097, "labeledLatLngs": [{"label": "display", "lat": 1.2787412333332153, "lng": 103.85420827481097}], "distance": 127, "cc": "SG", "city": "Singapore", "country": "Singapore", "formattedAddress": ["12 Marina Boulevard #01-01 Marina Bay Financial Centre Tower 3", "Singapore"]}, "categories": [{"id": "4bf58dd8d48988d111941735", "name": "Japanese Restaurant", "pluralName": "Japanese Restaurants", "shortName": "Japanese", "icon": {"prefix": "https://ss3.4sqi.net/img/categories_v2/food/japanese_", "suffix": ".png"}, "primary": true}], "photos": {"count": 0, "groups": []}}, "referralId": "e-0-501b4f5ee4b0a704df069db8-81"}, {"reasons": {"count": 0, "items": [{"summary": "This spot is popular", "type": "general", "reasonName": "globalInteractionReason"}]}, "venue": {"id": "52e0f23a498ecbf281b1b6e8", "name": "Subway", "location": {"address": "Asia Square", "crossStreet": "8 Marina View", "lat": 1.2783873900472225, "lng": 103.85130487536387, "labeledLatLngs": [{"label": "display", "lat": 1.2783873900472225, "lng": 103.85130487536387}], "distance": 230, "postalCode": "018960", "cc": "SG", "city": "Singapore", "country": "Singapore", "formattedAddress": ["Asia Square (8 Marina View)", "018960", "Singapore"]}, "categories": [{"id": "4bf58dd8d48988d1c5941735", "name": "Sandwich Place", "pluralName": "Sandwich Places", "shortName": "Sandwiches", "icon": {"prefix": "https://ss3.4sqi.net/img/categories_v2/food/deli_", "suffix": ".png"}, "primary": true}], "photos": {"count": 0, "groups": []}}, "referralId": "e-0-52e0f23a498ecbf281b1b6e8-82"}, {"reasons": {"count": 0, "items": [{"summary": "This spot is popular", "type": "general", "reasonName": "globalInteractionReason"}]}, "venue": {"id": "4ecb2e5af5b90c1c330bc7ea", "name": "Extra Virgin Pizza", "location": {"address": "#01-04, Asia Square Tower 1", "crossStreet": "8 Marina View", "lat": 1.2786668887726615, "lng": 103.85179698169019, "labeledLatLngs": [{"label": "display", "lat": 1.2786668887726615, "lng": 103.85179698169019}], "distance": 167, "postalCode": "018960", "cc": "SG", "city": "Singapore", "country": "Singapore", "formattedAddress": ["#01-04, Asia Square Tower 1 (8 Marina View)", "018960", "Singapore"]}, "categories": [{"id": "4bf58dd8d48988d1ca941735", "name": "Pizza Place", "pluralName": "Pizza Places", "shortName": "Pizza", "icon": {"prefix": "https://ss3.4sqi.net/img/categories_v2/food/pizza_", "suffix": ".png"}, "primary": true}], "photos": {"count": 0, "groups": []}}, "referralId": "e-0-4ecb2e5af5b90c1c330bc7ea-83"}, {"reasons": {"count": 0, "items": [{"summary": "This spot is popular", "type": "general", "reasonName": "globalInteractionReason"}]}, "venue": {"id": "58256736089b7547dd09e1d4", "name": "Pho-losophy", "location": {"address": "8 Marina View, #0214", "lat": 1.279037, "lng": 103.8514, "labeledLatLngs": [{"label": "display", "lat": 1.279037, "lng": 103.8514}], "distance": 200, "postalCode": "018920", "cc": "SG", "city": "Singapore", "country": "Singapore", "formattedAddress": ["8 Marina View, #0214", "018920", "Singapore"]}, "categories": [{"id": "4bf58dd8d48988d14a941735", "name": "Vietnamese Restaurant", "pluralName": "Vietnamese Restaurants", "shortName": "Vietnamese", "icon": {"prefix": "https://ss3.4sqi.net/img/categories_v2/food/vietnamese_", "suffix": ".png"}, "primary": true}], "photos": {"count": 0, "groups": []}}, "referralId": "e-0-58256736089b7547dd09e1d4-84"}, {"reasons": {"count": 0, "items": [{"summary": "This spot is popular", "type": "general", "reasonName": "globalInteractionReason"}]}, "venue": {"id": "507652f4e4b00c174b0a60c6", "name": "Starbucks", "location": {"address": "#13-35 Marina Bay Financial Centre Tower 3", "crossStreet": "12 Marina Blvd", "lat": 1.279421538459482, "lng": 103.85449389856126, "labeledLatLngs": [{"label": "display", "lat": 1.279421538459482, "lng": 103.85449389856126}], "distance": 146, "postalCode": "018982", "cc": "SG", "city": "Singapore", "country": "Singapore", "formattedAddress": ["#13-35 Marina Bay Financial Centre Tower 3 (12 Marina Blvd)", "018982", "Singapore"]}, "categories": [{"id": "4bf58dd8d48988d1e0931735", "name": "Coffee Shop", "pluralName": "Coffee Shops", "shortName": "Coffee Shop", "icon": {"prefix": "https://ss3.4sqi.net/img/categories_v2/food/coffeeshop_", "suffix": ".png"}, "primary": true}], "photos": {"count": 0, "groups": []}}, "referralId": "e-0-507652f4e4b00c174b0a60c6-85"}, {"reasons": {"count": 0, "items": [{"summary": "This spot is popular", "type": "general", "reasonName": "globalInteractionReason"}]}, "venue": {"id": "54a28405498e1b782204f8a1", "name": "Misaki", "location": {"address": "Lv 2, MBFC Tower 3", "crossStreet": "12 Marina Blvd.", "lat": 1.2790365324983966, "lng": 103.85469582296516, "labeledLatLngs": [{"label": "display", "lat": 1.2790365324983966, "lng": 103.85469582296516}], "distance": 169, "cc": "SG", "city": "Singapore", "country": "Singapore", "formattedAddress": ["Lv 2, MBFC Tower 3 (12 Marina Blvd.)", "Singapore"]}, "categories": [{"id": "4bf58dd8d48988d111941735", "name": "Japanese Restaurant", "pluralName": "Japanese Restaurants", "shortName": "Japanese", "icon": {"prefix": "https://ss3.4sqi.net/img/categories_v2/food/japanese_", "suffix": ".png"}, "primary": true}], "photos": {"count": 0, "groups": []}}, "referralId": "e-0-54a28405498e1b782204f8a1-86"}, {"reasons": {"count": 0, "items": [{"summary": "This spot is popular", "type": "general", "reasonName": "globalInteractionReason"}]}, "venue": {"id": "56eb5318498e3b34b8337db4", "name": "Workspace Espresso & Bar", "location": {"address": "12 Marina Boulevard, MBFC Tower 3", "lat": 1.2791878389897937, "lng": 103.85453467783637, "labeledLatLngs": [{"label": "display", "lat": 1.2791878389897937, "lng": 103.85453467783637}], "distance": 150, "postalCode": "018982", "cc": "SG", "city": "Singapore", "country": "Singapore", "formattedAddress": ["12 Marina Boulevard, MBFC Tower 3", "018982", "Singapore"]}, "categories": [{"id": "4bf58dd8d48988d1e0931735", "name": "Coffee Shop", "pluralName": "Coffee Shops", "shortName": "Coffee Shop", "icon": {"prefix": "https://ss3.4sqi.net/img/categories_v2/food/coffeeshop_", "suffix": ".png"}, "primary": true}], "photos": {"count": 0, "groups": []}}, "referralId": "e-0-56eb5318498e3b34b8337db4-87"}, {"reasons": {"count": 0, "items": [{"summary": "This spot is popular", "type": "general", "reasonName": "globalInteractionReason"}]}, "venue": {"id": "57bd9ea0498e41778dc2b2cd", "name": "Boulevard Asia Sq.", "location": {"address": "12 Marina View #01-04/05", "lat": 1.2785052604224603, "lng": 103.8512882125105, "labeledLatLngs": [{"label": "display", "lat": 1.2785052604224603, "lng": 103.8512882125105}], "distance": 227, "postalCode": "018961", "cc": "SG", "country": "Singapore", "formattedAddress": ["12 Marina View #01-04/05", "018961", "Singapore"]}, "categories": [{"id": "4bf58dd8d48988d116941735", "name": "Bar", "pluralName": "Bars", "shortName": "Bar", "icon": {"prefix": "https://ss3.4sqi.net/img/categories_v2/nightlife/pub_", "suffix": ".png"}, "primary": true}], "photos": {"count": 0, "groups": []}}, "referralId": "e-0-57bd9ea0498e41778dc2b2cd-88"}, {"reasons": {"count": 0, "items": [{"summary": "This spot is popular", "type": "general", "reasonName": "globalInteractionReason"}]}, "venue": {"id": "525f657211d297d26589140d", "name": "Pepper Lunch Express", "location": {"address": "#02-03 Asia Square Tower 2 Food Garden", "crossStreet": "12 Marina View", "lat": 1.2783765464413275, "lng": 103.85118935657503, "labeledLatLngs": [{"label": "display", "lat": 1.2783765464413275, "lng": 103.85118935657503}], "distance": 242, "cc": "SG", "city": "Singapore", "country": "Singapore", "formattedAddress": ["#02-03 Asia Square Tower 2 Food Garden (12 Marina View)", "Singapore"]}, "categories": [{"id": "4bf58dd8d48988d111941735", "name": "Japanese Restaurant", "pluralName": "Japanese Restaurants", "shortName": "Japanese", "icon": {"prefix": "https://ss3.4sqi.net/img/categories_v2/food/japanese_", "suffix": ".png"}, "primary": true}], "photos": {"count": 0, "groups": []}}, "referralId": "e-0-525f657211d297d26589140d-89"}, {"reasons": {"count": 0, "items": [{"summary": "This spot is popular", "type": "general", "reasonName": "globalInteractionReason"}]}, "venue": {"id": "4ebbcc12d3e31a8e619f9488", "name": "The Exchange", "location": {"address": "Asia Square Tower One #01-05", "crossStreet": "8 Marina View", "lat": 1.2784630503600536, "lng": 103.85137909209206, "labeledLatLngs": [{"label": "display", "lat": 1.2784630503600536, "lng": 103.85137909209206}], "distance": 219, "postalCode": "018960", "cc": "SG", "city": "Singapore", "country": "Singapore", "formattedAddress": ["Asia Square Tower One #01-05 (8 Marina View)", "018960", "Singapore"]}, "categories": [{"id": "4bf58dd8d48988d116941735", "name": "Bar", "pluralName": "Bars", "shortName": "Bar", "icon": {"prefix": "https://ss3.4sqi.net/img/categories_v2/nightlife/pub_", "suffix": ".png"}, "primary": true}], "photos": {"count": 0, "groups": []}}, "referralId": "e-0-4ebbcc12d3e31a8e619f9488-90"}, {"reasons": {"count": 0, "items": [{"summary": "This spot is popular", "type": "general", "reasonName": "globalInteractionReason"}]}, "venue": {"id": "4cf0d2b488de3704475b6e2b", "name": "Toast Box \u571f\u53f8\u5de5\u574a", "location": {"address": "#B2-18 Marina Bay Link Mall", "crossStreet": "8A Marina Blvd", "lat": 1.2796022728348362, "lng": 103.85290955473805, "labeledLatLngs": [{"label": "display", "lat": 1.2796022728348362, "lng": 103.85290955473805}], "distance": 49, "postalCode": "018984", "cc": "SG", "city": "Singapore", "country": "Singapore", "formattedAddress": ["#B2-18 Marina Bay Link Mall (8A Marina Blvd)", "018984", "Singapore"]}, "categories": [{"id": "4bf58dd8d48988d1e0931735", "name": "Coffee Shop", "pluralName": "Coffee Shops", "shortName": "Coffee Shop", "icon": {"prefix": "https://ss3.4sqi.net/img/categories_v2/food/coffeeshop_", "suffix": ".png"}, "primary": true}], "photos": {"count": 0, "groups": []}}, "referralId": "e-0-4cf0d2b488de3704475b6e2b-91"}, {"reasons": {"count": 0, "items": [{"summary": "This spot is popular", "type": "general", "reasonName": "globalInteractionReason"}]}, "venue": {"id": "544850d2498e8efab1d9f5cf", "name": "Cedele", "location": {"address": "Marina Bay Financial Centre Tower 3 Level 1", "lat": 1.2791770350514209, "lng": 103.85453402477029, "labeledLatLngs": [{"label": "display", "lat": 1.2791770350514209, "lng": 103.85453402477029}], "distance": 150, "cc": "SG", "country": "Singapore", "formattedAddress": ["Marina Bay Financial Centre Tower 3 Level 1", "Singapore"]}, "categories": [{"id": "4bf58dd8d48988d16d941735", "name": "Caf\u00e9", "pluralName": "Caf\u00e9s", "shortName": "Caf\u00e9", "icon": {"prefix": "https://ss3.4sqi.net/img/categories_v2/food/cafe_", "suffix": ".png"}, "primary": true}], "photos": {"count": 0, "groups": []}}, "referralId": "e-0-544850d2498e8efab1d9f5cf-92"}]}]}}