{"meta": {"code": 200, "requestId": "5e6ee61495feaf00251c3162"}, "response": {"suggestedFilters": {"header": "Tap to show:", "filters": [{"name": "Open now", "key": "openNow"}]}, "headerLocation": "Tampines", "headerFullLocation": "Tampines, Singapore", "headerLocationGranularity": "neighborhood", "totalResults": 17, "suggestedBounds": {"ne": {"lat": 1.3513926045000046, "lng": 103.95183372199092}, "sw": {"lat": 1.3423925954999956, "lng": 103.94284803435043}}, "groups": [{"type": "Recommended Places", "name": "recommended", "items": [{"reasons": {"count": 0, "items": [{"summary": "This spot is popular", "type": "general", "reasonName": "globalInteractionReason"}]}, "venue": {"id": "4d15e06385fc6dcb791da34e", "name": "Hai Chang Fishhead Steamboat", "location": {"address": "Tampines round market", "lat": 1.3459998689568784, "lng": 103.94484253158917, "labeledLatLngs": [{"label": "display", "lat": 1.3459998689568784, "lng": 103.94484253158917}], "distance": 295, "cc": "SG", "city": "Singapore", "country": "Singapore", "formattedAddress": ["Tampines round market", "Singapore"]}, "categories": [{"id": "4bf58dd8d48988d1ce941735", "name": "Seafood Restaurant", "pluralName": "Seafood Restaurants", "shortName": "Seafood", "icon": {"prefix": "https://ss3.4sqi.net/img/categories_v2/food/seafood_", "suffix": ".png"}, "primary": true}], "photos": {"count": 0, "groups": []}}, "referralId": "e-0-4d15e06385fc6dcb791da34e-0"}, {"reasons": {"count": 0, "items": [{"summary": "This spot is popular", "type": "general", "reasonName": "globalInteractionReason"}]}, "venue": {"id": "59217a84cad1b6264921d995", "name": "McDonald's", "location": {"address": "9 Tampines Ave 2 #01-02 Shell Tampines Avenue 2", "crossStreet": "9 Tampines Ave 2", "lat": 1.3489358132199487, "lng": 103.94785772906518, "labeledLatLngs": [{"label": "display", "lat": 1.3489358132199487, "lng": 103.94785772906518}], "distance": 234, "postalCode": "529731", "cc": "SG", "neighborhood": "Tampines", "city": "Singapore", "country": "Singapore", "formattedAddress": ["9 Tampines Ave 2 #01-02 Shell Tampines Avenue 2 (9 Tampines Ave 2)", "529731", "Singapore"]}, "categories": [{"id": "4bf58dd8d48988d16e941735", "name": "Fast Food Restaurant", "pluralName": "Fast Food Restaurants", "shortName": "Fast Food", "icon": {"prefix": "https://ss3.4sqi.net/img/categories_v2/food/fastfood_", "suffix": ".png"}, "primary": true}], "photos": {"count": 0, "groups": []}}, "referralId": "e-0-59217a84cad1b6264921d995-1"}, {"reasons": {"count": 0, "items": [{"summary": "This spot is popular", "type": "general", "reasonName": "globalInteractionReason"}]}, "venue": {"id": "4c9ed4c3d3c2b60c2487cfbc", "name": "Tampines Round Market & Food Centre", "location": {"address": "137 Tampines Street 11", "lat": 1.3457899459352738, "lng": 103.9445253816434, "labeledLatLngs": [{"label": "display", "lat": 1.3457899459352738, "lng": 103.9445253816434}], "distance": 336, "postalCode": "521137", "cc": "SG", "city": "Singapore", "country": "Singapore", "formattedAddress": ["137 Tampines Street 11", "521137", "Singapore"]}, "categories": [{"id": "4bf58dd8d48988d120951735", "name": "Food Court", "pluralName": "Food Courts", "shortName": "Food Court", "icon": {"prefix": "https://ss3.4sqi.net/img/categories_v2/shops/food_foodcourt_", "suffix": ".png"}, "primary": true}], "photos": {"count": 0, "groups": []}}, "referralId": "e-0-4c9ed4c3d3c2b60c2487cfbc-2"}, {"reasons": {"count": 0, "items": [{"summary": "This spot is popular", "type": "general", "reasonName": "globalInteractionReason"}]}, "venue": {"id": "4b4ec755f964a5204ff526e3", "name": "NTUC FairPrice", "location": {"address": "138 Tampines St 11 #01-136", "lat": 1.345201859726429, "lng": 103.9454840232228, "labeledLatLngs": [{"label": "display", "lat": 1.345201859726429, "lng": 103.9454840232228}], "distance": 279, "postalCode": "521138", "cc": "SG", "city": "Singapore", "country": "Singapore", "formattedAddress": ["138 Tampines St 11 #01-136", "521138", "Singapore"]}, "categories": [{"id": "52f2ab2ebcbc57f1066b8b46", "name": "Supermarket", "pluralName": "Supermarkets", "shortName": "Supermarket", "icon": {"prefix": "https://ss3.4sqi.net/img/categories_v2/shops/food_grocery_", "suffix": ".png"}, "primary": true}], "photos": {"count": 0, "groups": []}}, "referralId": "e-0-4b4ec755f964a5204ff526e3-3"}, {"reasons": {"count": 0, "items": [{"summary": "This spot is popular", "type": "general", "reasonName": "globalInteractionReason"}]}, "venue": {"id": "4cc5043680624688a8fc392f", "name": "138 Coffeeshop @ Tampines", "location": {"address": "138 Tampines St 11", "lat": 1.3460039962970791, "lng": 103.94592598479092, "labeledLatLngs": [{"label": "display", "lat": 1.3460039962970791, "lng": 103.94592598479092}], "distance": 185, "postalCode": "521139", "cc": "SG", "city": "Singapore", "country": "Singapore", "formattedAddress": ["138 Tampines St 11", "521139", "Singapore"]}, "categories": [{"id": "4bf58dd8d48988d1e0931735", "name": "Coffee Shop", "pluralName": "Coffee Shops", "shortName": "Coffee Shop", "icon": {"prefix": "https://ss3.4sqi.net/img/categories_v2/food/coffeeshop_", "suffix": ".png"}, "primary": true}], "photos": {"count": 0, "groups": []}}, "referralId": "e-0-4cc5043680624688a8fc392f-4"}, {"reasons": {"count": 0, "items": [{"summary": "This spot is popular", "type": "general", "reasonName": "globalInteractionReason"}]}, "venue": {"id": "4b4946d8f964a5202e6c26e3", "name": "NTUC FairPrice", "location": {"address": "Blk 107 Tampines St 11", "lat": 1.3483936491108932, "lng": 103.94835591316223, "labeledLatLngs": [{"label": "display", "lat": 1.3483936491108932, "lng": 103.94835591316223}], "distance": 201, "cc": "SG", "city": "Singapore", "country": "Singapore", "formattedAddress": ["Blk 107 Tampines St 11", "Singapore"]}, "categories": [{"id": "52f2ab2ebcbc57f1066b8b46", "name": "Supermarket", "pluralName": "Supermarkets", "shortName": "Supermarket", "icon": {"prefix": "https://ss3.4sqi.net/img/categories_v2/shops/food_grocery_", "suffix": ".png"}, "primary": true}], "photos": {"count": 0, "groups": []}}, "referralId": "e-0-4b4946d8f964a5202e6c26e3-5"}, {"reasons": {"count": 0, "items": [{"summary": "This spot is popular", "type": "general", "reasonName": "globalInteractionReason"}]}, "venue": {"id": "528b6e01498e2a3354dcbce4", "name": "RajaRani Thosai", "location": {"address": "Block 137 Tampines St 11 #01-33", "lat": 1.3457138038845278, "lng": 103.94444685901614, "labeledLatLngs": [{"label": "display", "lat": 1.3457138038845278, "lng": 103.94444685901614}], "distance": 347, "postalCode": "521137", "cc": "SG", "city": "Singapore", "country": "Singapore", "formattedAddress": ["Block 137 Tampines St 11 #01-33", "521137", "Singapore"]}, "categories": [{"id": "4bf58dd8d48988d10f941735", "name": "Indian Restaurant", "pluralName": "Indian Restaurants", "shortName": "Indian", "icon": {"prefix": "https://ss3.4sqi.net/img/categories_v2/food/indian_", "suffix": ".png"}, "primary": true}], "photos": {"count": 0, "groups": []}, "venuePage": {"id": "71960326"}}, "referralId": "e-0-528b6e01498e2a3354dcbce4-6"}, {"reasons": {"count": 0, "items": [{"summary": "This spot is popular", "type": "general", "reasonName": "globalInteractionReason"}]}, "venue": {"id": "4bb58aca941ad13af05e1ee3", "name": "Eng Huat Lee", "location": {"address": "138 Tampines St 11, #01-116", "lat": 1.345940642456032, "lng": 103.94590073687846, "labeledLatLngs": [{"label": "display", "lat": 1.345940642456032, "lng": 103.94590073687846}], "distance": 192, "cc": "SG", "city": "Singapore", "country": "Singapore", "formattedAddress": ["138 Tampines St 11, #01-116", "Singapore"]}, "categories": [{"id": "4bf58dd8d48988d145941735", "name": "Chinese Restaurant", "pluralName": "Chinese Restaurants", "shortName": "Chinese", "icon": {"prefix": "https://ss3.4sqi.net/img/categories_v2/food/asian_", "suffix": ".png"}, "primary": true}], "photos": {"count": 0, "groups": []}}, "referralId": "e-0-4bb58aca941ad13af05e1ee3-7"}, {"reasons": {"count": 0, "items": [{"summary": "This spot is popular", "type": "general", "reasonName": "globalInteractionReason"}]}, "venue": {"id": "4b890f35f964a520811a32e3", "name": "\u65b0\u987a\u7f8e\u98df\u4e2d\u5fc3Coffeeshop", "location": {"address": "Blk 164 Tampines St 12", "lat": 1.3495741298879635, "lng": 103.94539581146739, "labeledLatLngs": [{"label": "display", "lat": 1.3495741298879635, "lng": 103.94539581146739}], "distance": 368, "cc": "SG", "city": "Singapore", "country": "Singapore", "formattedAddress": ["Blk 164 Tampines St 12", "Singapore"]}, "categories": [{"id": "4bf58dd8d48988d1e0931735", "name": "Coffee Shop", "pluralName": "Coffee Shops", "shortName": "Coffee Shop", "icon": {"prefix": "https://ss3.4sqi.net/img/categories_v2/food/coffeeshop_", "suffix": ".png"}, "primary": true}], "photos": {"count": 0, "groups": []}}, "referralId": "e-0-4b890f35f964a520811a32e3-8"}, {"reasons": {"count": 0, "items": [{"summary": "This spot is popular", "type": "general", "reasonName": "globalInteractionReason"}]}, "venue": {"id": "4cafb8ae39458cfa70e8fc9f", "name": "Sarawak Kolo Mee", "location": {"address": "#01-45, Tampines Round Market & Food Centre", "crossStreet": "137 Tampines St. 11", "lat": 1.3457779106759982, "lng": 103.94464760403412, "labeledLatLngs": [{"label": "display", "lat": 1.3457779106759982, "lng": 103.94464760403412}], "distance": 324, "cc": "SG", "city": "Singapore", "country": "Singapore", "formattedAddress": ["#01-45, Tampines Round Market & Food Centre (137 Tampines St. 11)", "Singapore"]}, "categories": [{"id": "4bf58dd8d48988d1d1941735", "name": "Noodle House", "pluralName": "Noodle Houses", "shortName": "Noodles", "icon": {"prefix": "https://ss3.4sqi.net/img/categories_v2/food/ramen_", "suffix": ".png"}, "primary": true}], "photos": {"count": 0, "groups": []}}, "referralId": "e-0-4cafb8ae39458cfa70e8fc9f-9"}, {"reasons": {"count": 0, "items": [{"summary": "This spot is popular", "type": "general", "reasonName": "globalInteractionReason"}]}, "venue": {"id": "4cfb8554c671721eacf0c318", "name": "BC Super Grill House Of Steak", "location": {"lat": 1.345703, "lng": 103.946097, "labeledLatLngs": [{"label": "display", "lat": 1.345703, "lng": 103.946097}], "distance": 191, "cc": "SG", "country": "Singapore", "formattedAddress": ["Singapore"]}, "categories": [{"id": "4bf58dd8d48988d1cc941735", "name": "Steakhouse", "pluralName": "Steakhouses", "shortName": "Steakhouse", "icon": {"prefix": "https://ss3.4sqi.net/img/categories_v2/food/steakhouse_", "suffix": ".png"}, "primary": true}], "photos": {"count": 0, "groups": []}}, "referralId": "e-0-4cfb8554c671721eacf0c318-10"}, {"reasons": {"count": 0, "items": [{"summary": "This spot is popular", "type": "general", "reasonName": "globalInteractionReason"}]}, "venue": {"id": "55c83070498e4400fb2d13b9", "name": "HabeebNoor", "location": {"lat": 1.3471169826841272, "lng": 103.94530363829782, "labeledLatLngs": [{"label": "display", "lat": 1.3471169826841272, "lng": 103.94530363829782}], "distance": 228, "cc": "SG", "country": "Singapore", "formattedAddress": ["Singapore"]}, "categories": [{"id": "4bf58dd8d48988d142941735", "name": "Asian Restaurant", "pluralName": "Asian Restaurants", "shortName": "Asian", "icon": {"prefix": "https://ss3.4sqi.net/img/categories_v2/food/asian_", "suffix": ".png"}, "primary": true}], "photos": {"count": 0, "groups": []}}, "referralId": "e-0-55c83070498e4400fb2d13b9-11"}, {"reasons": {"count": 0, "items": [{"summary": "This spot is popular", "type": "general", "reasonName": "globalInteractionReason"}]}, "venue": {"id": "4c64f38c7451b713eb3f130c", "name": "280 Coffee Shop Tampines Street 22", "location": {"address": "280 Tampines St. 22", "lat": 1.3478144523243651, "lng": 103.95174086093903, "labeledLatLngs": [{"label": "display", "lat": 1.3478144523243651, "lng": 103.95174086093903}], "distance": 500, "postalCode": "520280", "cc": "SG", "city": "Singapore", "country": "Singapore", "formattedAddress": ["280 Tampines St. 22", "520280", "Singapore"]}, "categories": [{"id": "4bf58dd8d48988d1e0931735", "name": "Coffee Shop", "pluralName": "Coffee Shops", "shortName": "Coffee Shop", "icon": {"prefix": "https://ss3.4sqi.net/img/categories_v2/food/coffeeshop_", "suffix": ".png"}, "primary": true}], "photos": {"count": 0, "groups": []}}, "referralId": "e-0-4c64f38c7451b713eb3f130c-12"}, {"reasons": {"count": 0, "items": [{"summary": "This spot is popular", "type": "general", "reasonName": "globalInteractionReason"}]}, "venue": {"id": "4cc6b15a06c254810f6da347", "name": "Bus Stop 76071 (Blk 141)", "location": {"address": "Tampines Ave 2", "lat": 1.3479037459976195, "lng": 103.94503635802731, "labeledLatLngs": [{"label": "display", "lat": 1.3479037459976195, "lng": 103.94503635802731}], "distance": 280, "cc": "SG", "city": "Singapore", "country": "Singapore", "formattedAddress": ["Tampines Ave 2", "Singapore"]}, "categories": [{"id": "4bf58dd8d48988d1fe931735", "name": "Bus Station", "pluralName": "Bus Stations", "shortName": "Bus Station", "icon": {"prefix": "https://ss3.4sqi.net/img/categories_v2/travel/busstation_", "suffix": ".png"}, "primary": true}], "photos": {"count": 0, "groups": []}}, "referralId": "e-0-4cc6b15a06c254810f6da347-13"}, {"reasons": {"count": 0, "items": [{"summary": "This spot is popular", "type": "general", "reasonName": "globalInteractionReason"}]}, "venue": {"id": "4bf10dc417880f4768e32937", "name": "Bus Stop 76089 (The Holy Trinity Ch)", "location": {"address": "Tampines Ave 2", "lat": 1.3493031915202185, "lng": 103.94919336463148, "labeledLatLngs": [{"label": "display", "lat": 1.3493031915202185, "lng": 103.94919336463148}], "distance": 338, "cc": "SG", "city": "Singapore", "country": "Singapore", "formattedAddress": ["Tampines Ave 2", "Singapore"]}, "categories": [{"id": "4bf58dd8d48988d1fe931735", "name": "Bus Station", "pluralName": "Bus Stations", "shortName": "Bus Station", "icon": {"prefix": "https://ss3.4sqi.net/img/categories_v2/travel/busstation_", "suffix": ".png"}, "primary": true}], "photos": {"count": 0, "groups": []}}, "referralId": "e-0-4bf10dc417880f4768e32937-14"}, {"reasons": {"count": 0, "items": [{"summary": "This spot is popular", "type": "general", "reasonName": "globalInteractionReason"}]}, "venue": {"id": "4d4b85ad05556ea82814a928", "name": "Douchebag", "location": {"lat": 1.34413445216548, "lng": 103.94576389519042, "labeledLatLngs": [{"label": "display", "lat": 1.34413445216548, "lng": 103.94576389519042}], "distance": 353, "cc": "SG", "country": "Singapore", "formattedAddress": ["Singapore"]}, "categories": [{"id": "4bf58dd8d48988d108951735", "name": "Women's Store", "pluralName": "Women's Stores", "shortName": "Women's Store", "icon": {"prefix": "https://ss3.4sqi.net/img/categories_v2/shops/apparel_women_", "suffix": ".png"}, "primary": true}], "photos": {"count": 0, "groups": []}}, "referralId": "e-0-4d4b85ad05556ea82814a928-15"}, {"reasons": {"count": 0, "items": [{"summary": "This spot is popular", "type": "general", "reasonName": "globalInteractionReason"}]}, "venue": {"id": "4b861863f964a520b87f31e3", "name": "KFC", "location": {"address": "139 Tampines St. 11", "lat": 1.3456667389770076, "lng": 103.94387339503108, "labeledLatLngs": [{"label": "display", "lat": 1.3456667389770076, "lng": 103.94387339503108}], "distance": 409, "postalCode": "521139", "cc": "SG", "city": "Singapore", "country": "Singapore", "formattedAddress": ["139 Tampines St. 11", "521139", "Singapore"]}, "categories": [{"id": "4bf58dd8d48988d16e941735", "name": "Fast Food Restaurant", "pluralName": "Fast Food Restaurants", "shortName": "Fast Food", "icon": {"prefix": "https://ss3.4sqi.net/img/categories_v2/food/fastfood_", "suffix": ".png"}, "primary": true}], "photos": {"count": 0, "groups": []}}, "referralId": "e-0-4b861863f964a520b87f31e3-16"}]}]}}