{"meta": {"code": 200, "requestId": "5e6e4147542890001bfbf63d"}, "response": {"suggestedFilters": {"header": "Tap to show:", "filters": [{"name": "Open now", "key": "openNow"}]}, "headerLocation": "Tanglin", "headerFullLocation": "Tanglin, Singapore", "headerLocationGranularity": "neighborhood", "totalResults": 25, "suggestedBounds": {"ne": {"lat": 1.3105443045000047, "lng": 103.8197731696515}, "sw": {"lat": 1.3015442954999956, "lng": 103.81078763034851}}, "groups": [{"type": "Recommended Places", "name": "recommended", "items": [{"reasons": {"count": 0, "items": [{"summary": "This spot is popular", "type": "general", "reasonName": "globalInteractionReason"}]}, "venue": {"id": "559533cb498e3eb8621a6ad4", "name": "Open Farm Community", "location": {"address": "130E Minden Road", "lat": 1.3058039703803457, "lng": 103.81556925487554, "labeledLatLngs": [{"label": "display", "lat": 1.3058039703803457, "lng": 103.81556925487554}], "distance": 41, "postalCode": "248819", "cc": "SG", "state": "Singapore", "country": "Singapore", "formattedAddress": ["130E Minden Road", "248819", "Singapore"]}, "categories": [{"id": "52e81612bcbc57f1066b79f9", "name": "Modern European Restaurant", "pluralName": "Modern European Restaurants", "shortName": "Modern European", "icon": {"prefix": "https://ss3.4sqi.net/img/categories_v2/food/default_", "suffix": ".png"}, "primary": true}], "photos": {"count": 0, "groups": []}}, "referralId": "e-0-559533cb498e3eb8621a6ad4-0"}, {"reasons": {"count": 0, "items": [{"summary": "This spot is popular", "type": "general", "reasonName": "globalInteractionReason"}]}, "venue": {"id": "4bae0e07f964a520197f3be3", "name": "The Rabbit Hole", "location": {"address": "39C Harding Rd", "lat": 1.3048098929955054, "lng": 103.81360257769168, "labeledLatLngs": [{"label": "display", "lat": 1.3048098929955054, "lng": 103.81360257769168}], "distance": 231, "cc": "SG", "country": "Singapore", "formattedAddress": ["39C Harding Rd", "Singapore"]}, "categories": [{"id": "4bf58dd8d48988d121941735", "name": "Lounge", "pluralName": "Lounges", "shortName": "Lounge", "icon": {"prefix": "https://ss3.4sqi.net/img/categories_v2/nightlife/default_", "suffix": ".png"}, "primary": true}], "photos": {"count": 0, "groups": []}}, "referralId": "e-0-4bae0e07f964a520197f3be3-1"}, {"reasons": {"count": 0, "items": [{"summary": "This spot is popular", "type": "general", "reasonName": "globalInteractionReason"}]}, "venue": {"id": "4b05880df964a5208aae22e3", "name": "The White Rabbit", "location": {"address": "39C Harding Road", "lat": 1.3048336252541477, "lng": 103.81346833847181, "labeledLatLngs": [{"label": "display", "lat": 1.3048336252541477, "lng": 103.81346833847181}], "distance": 242, "cc": "SG", "city": "Singapore", "country": "Singapore", "formattedAddress": ["39C Harding Road", "Singapore"]}, "categories": [{"id": "4bf58dd8d48988d10c941735", "name": "French Restaurant", "pluralName": "French Restaurants", "shortName": "French", "icon": {"prefix": "https://ss3.4sqi.net/img/categories_v2/food/french_", "suffix": ".png"}, "primary": true}], "photos": {"count": 0, "groups": []}}, "referralId": "e-0-4b05880df964a5208aae22e3-2"}, {"reasons": {"count": 0, "items": [{"summary": "This spot is popular", "type": "general", "reasonName": "globalInteractionReason"}]}, "venue": {"id": "4b07e7b0f964a520fb0023e3", "name": "ATOUT Restaurant", "location": {"address": "40C Harding Road", "lat": 1.3057629728523614, "lng": 103.81354368035781, "labeledLatLngs": [{"label": "display", "lat": 1.3057629728523614, "lng": 103.81354368035781}], "distance": 195, "cc": "SG", "city": "Singapore", "country": "Singapore", "formattedAddress": ["40C Harding Road", "Singapore"]}, "categories": [{"id": "4bf58dd8d48988d10c941735", "name": "French Restaurant", "pluralName": "French Restaurants", "shortName": "French", "icon": {"prefix": "https://ss3.4sqi.net/img/categories_v2/food/french_", "suffix": ".png"}, "primary": true}], "photos": {"count": 0, "groups": []}}, "referralId": "e-0-4b07e7b0f964a520fb0023e3-3"}, {"reasons": {"count": 0, "items": [{"summary": "This spot is popular", "type": "general", "reasonName": "globalInteractionReason"}]}, "venue": {"id": "4e2fb4ded1646b407b90c8f7", "name": "Tanglin Gate | Singapore Botanic Gardens", "location": {"address": "Cluny Rd.", "crossStreet": "Napier Rd.", "lat": 1.3071308997488138, "lng": 103.81861209869385, "labeledLatLngs": [{"label": "display", "lat": 1.3071308997488138, "lng": 103.81861209869385}], "distance": 390, "cc": "SG", "city": "Singapore", "country": "Singapore", "formattedAddress": ["Cluny Rd. (Napier Rd.)", "Singapore"]}, "categories": [{"id": "4bf58dd8d48988d163941735", "name": "Park", "pluralName": "Parks", "shortName": "Park", "icon": {"prefix": "https://ss3.4sqi.net/img/categories_v2/parks_outdoors/park_", "suffix": ".png"}, "primary": true}], "photos": {"count": 0, "groups": []}}, "referralId": "e-0-4e2fb4ded1646b407b90c8f7-4"}, {"reasons": {"count": 0, "items": [{"summary": "This spot is popular", "type": "general", "reasonName": "globalInteractionReason"}]}, "venue": {"id": "4baeeb0ef964a520bfe13be3", "name": "Jim Thompson", "location": {"address": "45 Minden Rd", "crossStreet": "Dempsey Hill", "lat": 1.3052589496347524, "lng": 103.8155194713203, "labeledLatLngs": [{"label": "display", "lat": 1.3052589496347524, "lng": 103.8155194713203}], "distance": 91, "postalCode": "248817", "cc": "SG", "city": "Singapore", "country": "Singapore", "formattedAddress": ["45 Minden Rd (Dempsey Hill)", "248817", "Singapore"]}, "categories": [{"id": "4bf58dd8d48988d149941735", "name": "Thai Restaurant", "pluralName": "Thai Restaurants", "shortName": "Thai", "icon": {"prefix": "https://ss3.4sqi.net/img/categories_v2/food/thai_", "suffix": ".png"}, "primary": true}], "photos": {"count": 0, "groups": []}}, "referralId": "e-0-4baeeb0ef964a520bfe13be3-5"}, {"reasons": {"count": 0, "items": [{"summary": "This spot is popular", "type": "general", "reasonName": "globalInteractionReason"}]}, "venue": {"id": "4d11abbaf29360fc006844b7", "name": "Heritage Trees Trail", "location": {"address": "Singapore Botanic Gardens", "crossStreet": "1 Cluny Rd.", "lat": 1.3088583986107258, "lng": 103.81660251366435, "labeledLatLngs": [{"label": "display", "lat": 1.3088583986107258, "lng": 103.81660251366435}], "distance": 346, "postalCode": "259569", "cc": "SG", "city": "Singapore", "country": "Singapore", "formattedAddress": ["Singapore Botanic Gardens (1 Cluny Rd.)", "259569", "Singapore"]}, "categories": [{"id": "4bf58dd8d48988d159941735", "name": "Trail", "pluralName": "Trails", "shortName": "Trail", "icon": {"prefix": "https://ss3.4sqi.net/img/categories_v2/parks_outdoors/hikingtrail_", "suffix": ".png"}, "primary": true}], "photos": {"count": 0, "groups": []}}, "referralId": "e-0-4d11abbaf29360fc006844b7-6"}, {"reasons": {"count": 0, "items": [{"summary": "This spot is popular", "type": "general", "reasonName": "globalInteractionReason"}]}, "venue": {"id": "4b827b2ff964a520bfd430e3", "name": "Long Beach Seafood Restaurant", "location": {"address": "25 Dempsey Rd.", "lat": 1.3063391842358283, "lng": 103.8120191521043, "labeledLatLngs": [{"label": "display", "lat": 1.3063391842358283, "lng": 103.8120191521043}], "distance": 364, "postalCode": "249670", "cc": "SG", "city": "Singapore", "country": "Singapore", "formattedAddress": ["25 Dempsey Rd.", "249670", "Singapore"]}, "categories": [{"id": "4bf58dd8d48988d1ce941735", "name": "Seafood Restaurant", "pluralName": "Seafood Restaurants", "shortName": "Seafood", "icon": {"prefix": "https://ss3.4sqi.net/img/categories_v2/food/seafood_", "suffix": ".png"}, "primary": true}], "photos": {"count": 0, "groups": []}}, "referralId": "e-0-4b827b2ff964a520bfd430e3-7"}, {"reasons": {"count": 0, "items": [{"summary": "This spot is popular", "type": "general", "reasonName": "globalInteractionReason"}]}, "venue": {"id": "4b05880df964a5204aae22e3", "name": "Samy's Curry", "location": {"address": "25 Dempsey Rd", "lat": 1.3062465146717175, "lng": 103.81181207739495, "labeledLatLngs": [{"label": "display", "lat": 1.3062465146717175, "lng": 103.81181207739495}], "distance": 386, "postalCode": "249670", "cc": "SG", "city": "Singapore", "country": "Singapore", "formattedAddress": ["25 Dempsey Rd", "249670", "Singapore"]}, "categories": [{"id": "4bf58dd8d48988d10f941735", "name": "Indian Restaurant", "pluralName": "Indian Restaurants", "shortName": "Indian", "icon": {"prefix": "https://ss3.4sqi.net/img/categories_v2/food/indian_", "suffix": ".png"}, "primary": true}], "photos": {"count": 0, "groups": []}}, "referralId": "e-0-4b05880df964a5204aae22e3-8"}, {"reasons": {"count": 0, "items": [{"summary": "This spot is popular", "type": "general", "reasonName": "globalInteractionReason"}]}, "venue": {"id": "4b08ac7df964a520951023e3", "name": "PS.Cafe", "location": {"address": "28B Harding Rd", "crossStreet": "Dempsey Hill", "lat": 1.3045662538017249, "lng": 103.81107901164047, "labeledLatLngs": [{"label": "display", "lat": 1.3045662538017249, "lng": 103.81107901164047}], "distance": 495, "postalCode": "249549", "cc": "SG", "city": "Singapore", "country": "Singapore", "formattedAddress": ["28B Harding Rd (Dempsey Hill)", "249549", "Singapore"]}, "categories": [{"id": "4bf58dd8d48988d16d941735", "name": "Caf\u00e9", "pluralName": "Caf\u00e9s", "shortName": "Caf\u00e9", "icon": {"prefix": "https://ss3.4sqi.net/img/categories_v2/food/cafe_", "suffix": ".png"}, "primary": true}], "photos": {"count": 0, "groups": []}, "venuePage": {"id": "54923688"}}, "referralId": "e-0-4b08ac7df964a520951023e3-9"}, {"reasons": {"count": 0, "items": [{"summary": "This spot is popular", "type": "general", "reasonName": "globalInteractionReason"}]}, "venue": {"id": "50fa7d3ae4b07787cc343efa", "name": "Morsels", "location": {"address": "01-04 25 Dempsey Rd", "lat": 1.3061601925629447, "lng": 103.81206750869751, "labeledLatLngs": [{"label": "display", "lat": 1.3061601925629447, "lng": 103.81206750869751}], "distance": 357, "cc": "SG", "country": "Singapore", "formattedAddress": ["01-04 25 Dempsey Rd", "Singapore"]}, "categories": [{"id": "4bf58dd8d48988d155941735", "name": "Gastropub", "pluralName": "Gastropubs", "shortName": "Gastropub", "icon": {"prefix": "https://ss3.4sqi.net/img/categories_v2/food/gastropub_", "suffix": ".png"}, "primary": true}], "photos": {"count": 0, "groups": []}}, "referralId": "e-0-50fa7d3ae4b07787cc343efa-10"}, {"reasons": {"count": 0, "items": [{"summary": "This spot is popular", "type": "general", "reasonName": "globalInteractionReason"}]}, "venue": {"id": "5bef6de53af988002c4406b2", "name": "Tiong Bahru Bakery Safari", "location": {"address": "130E Minden Road", "lat": 1.3057980318612823, "lng": 103.81572016272617, "labeledLatLngs": [{"label": "display", "lat": 1.3057980318612823, "lng": 103.81572016272617}], "distance": 56, "postalCode": "248819", "cc": "SG", "neighborhood": "Tanglin", "city": "Singapore", "country": "Singapore", "formattedAddress": ["130E Minden Road", "248819", "Singapore"]}, "categories": [{"id": "4bf58dd8d48988d16a941735", "name": "Bakery", "pluralName": "Bakeries", "shortName": "Bakery", "icon": {"prefix": "https://ss3.4sqi.net/img/categories_v2/food/bakery_", "suffix": ".png"}, "primary": true}], "photos": {"count": 0, "groups": []}}, "referralId": "e-0-5bef6de53af988002c4406b2-11"}, {"reasons": {"count": 0, "items": [{"summary": "This spot is popular", "type": "general", "reasonName": "globalInteractionReason"}]}, "venue": {"id": "4b05880df964a5207cae22e3", "name": "RedDot BrewHouse", "location": {"address": "25A Dempsey Rd, #01-01 Tanglin Village", "lat": 1.306307055519951, "lng": 103.81143440863502, "labeledLatLngs": [{"label": "display", "lat": 1.306307055519951, "lng": 103.81143440863502}], "distance": 429, "postalCode": "247691", "cc": "SG", "city": "Singapore", "country": "Singapore", "formattedAddress": ["25A Dempsey Rd, #01-01 Tanglin Village", "247691", "Singapore"]}, "categories": [{"id": "50327c8591d4c4b30a586d5d", "name": "Brewery", "pluralName": "Breweries", "shortName": "Brewery", "icon": {"prefix": "https://ss3.4sqi.net/img/categories_v2/food/brewery_", "suffix": ".png"}, "primary": true}], "photos": {"count": 0, "groups": []}}, "referralId": "e-0-4b05880df964a5207cae22e3-12"}, {"reasons": {"count": 0, "items": [{"summary": "This spot is popular", "type": "general", "reasonName": "globalInteractionReason"}]}, "venue": {"id": "4b0cde52f964a5204f4223e3", "name": "Tawandang Microbrewery", "location": {"address": "26 Dempsey Rd", "lat": 1.3056542550733643, "lng": 103.8114311024556, "labeledLatLngs": [{"label": "display", "lat": 1.3056542550733643, "lng": 103.8114311024556}], "distance": 430, "postalCode": "249686", "cc": "SG", "city": "Singapore", "country": "Singapore", "formattedAddress": ["26 Dempsey Rd", "249686", "Singapore"]}, "categories": [{"id": "4bf58dd8d48988d149941735", "name": "Thai Restaurant", "pluralName": "Thai Restaurants", "shortName": "Thai", "icon": {"prefix": "https://ss3.4sqi.net/img/categories_v2/food/thai_", "suffix": ".png"}, "primary": true}], "photos": {"count": 0, "groups": []}}, "referralId": "e-0-4b0cde52f964a5204f4223e3-13"}, {"reasons": {"count": 0, "items": [{"summary": "This spot is popular", "type": "general", "reasonName": "globalInteractionReason"}]}, "venue": {"id": "4f5336d6e4b0c41605420aec", "name": "Tanglin Golf Course", "location": {"lat": 1.3060272513519784, "lng": 103.8154712421022, "labeledLatLngs": [{"label": "display", "lat": 1.3060272513519784, "lng": 103.8154712421022}], "distance": 21, "cc": "SG", "country": "Singapore", "formattedAddress": ["Singapore"]}, "categories": [{"id": "4bf58dd8d48988d1e6941735", "name": "Golf Course", "pluralName": "Golf Courses", "shortName": "Golf Course", "icon": {"prefix": "https://ss3.4sqi.net/img/categories_v2/parks_outdoors/golfcourse_", "suffix": ".png"}, "primary": true}], "photos": {"count": 0, "groups": []}}, "referralId": "e-0-4f5336d6e4b0c41605420aec-14"}, {"reasons": {"count": 0, "items": [{"summary": "This spot is popular", "type": "general", "reasonName": "globalInteractionReason"}]}, "venue": {"id": "5251550b11d27d456c19145a", "name": "Tree Lizard", "location": {"address": "Blk 25 #B1-01 Dempsey Hill", "lat": 1.306052904832502, "lng": 103.8122689044232, "labeledLatLngs": [{"label": "display", "lat": 1.306052904832502, "lng": 103.8122689044232}], "distance": 335, "cc": "SG", "city": "Singapore", "country": "Singapore", "formattedAddress": ["Blk 25 #B1-01 Dempsey Hill", "Singapore"]}, "categories": [{"id": "4bf58dd8d48988d116941735", "name": "Bar", "pluralName": "Bars", "shortName": "Bar", "icon": {"prefix": "https://ss3.4sqi.net/img/categories_v2/nightlife/pub_", "suffix": ".png"}, "primary": true}], "photos": {"count": 0, "groups": []}}, "referralId": "e-0-5251550b11d27d456c19145a-15"}, {"reasons": {"count": 0, "items": [{"summary": "This spot is popular", "type": "general", "reasonName": "globalInteractionReason"}]}, "venue": {"id": "58df4ea458c4d11a7ad679c0", "name": "Canopy Web", "location": {"address": "Learning Forest (@ Singapore Botanic Gardens)", "crossStreet": "On SPH Walk of Giants", "lat": 1.308074791459214, "lng": 103.81497502326964, "labeledLatLngs": [{"label": "display", "lat": 1.308074791459214, "lng": 103.81497502326964}], "distance": 228, "cc": "SG", "city": "Singapore", "country": "Singapore", "formattedAddress": ["Learning Forest (@ Singapore Botanic Gardens) (On SPH Walk of Giants)", "Singapore"]}, "categories": [{"id": "4bf58dd8d48988d1e7941735", "name": "Playground", "pluralName": "Playgrounds", "shortName": "Playground", "icon": {"prefix": "https://ss3.4sqi.net/img/categories_v2/parks_outdoors/playground_", "suffix": ".png"}, "primary": true}], "photos": {"count": 0, "groups": []}}, "referralId": "e-0-58df4ea458c4d11a7ad679c0-16"}, {"reasons": {"count": 0, "items": [{"summary": "This spot is popular", "type": "general", "reasonName": "globalInteractionReason"}]}, "venue": {"id": "4c5d35549b28d13aa7f35870", "name": "Swan Lake", "location": {"address": "Singapore Botanic Gardens", "lat": 1.3082183412293218, "lng": 103.81624591713016, "labeledLatLngs": [{"label": "display", "lat": 1.3082183412293218, "lng": 103.81624591713016}], "distance": 264, "cc": "SG", "city": "Singapore", "country": "Singapore", "formattedAddress": ["Singapore Botanic Gardens", "Singapore"]}, "categories": [{"id": "4bf58dd8d48988d161941735", "name": "Lake", "pluralName": "Lakes", "shortName": "Lake", "icon": {"prefix": "https://ss3.4sqi.net/img/categories_v2/parks_outdoors/lake_", "suffix": ".png"}, "primary": true}], "photos": {"count": 0, "groups": []}}, "referralId": "e-0-4c5d35549b28d13aa7f35870-17"}, {"reasons": {"count": 0, "items": [{"summary": "This spot is popular", "type": "general", "reasonName": "globalInteractionReason"}]}, "venue": {"id": "50e8b488e4b006544ccbce73", "name": "Silver Gates | Singapore Botanic Gardens", "location": {"address": "Cluny Rd.", "lat": 1.3086182088270228, "lng": 103.81761004545935, "labeledLatLngs": [{"label": "display", "lat": 1.3086182088270228, "lng": 103.81761004545935}], "distance": 386, "cc": "SG", "city": "Singapore", "country": "Singapore", "formattedAddress": ["Cluny Rd.", "Singapore"]}, "categories": [{"id": "4bf58dd8d48988d163941735", "name": "Park", "pluralName": "Parks", "shortName": "Park", "icon": {"prefix": "https://ss3.4sqi.net/img/categories_v2/parks_outdoors/park_", "suffix": ".png"}, "primary": true}], "photos": {"count": 0, "groups": []}}, "referralId": "e-0-50e8b488e4b006544ccbce73-18"}, {"reasons": {"count": 0, "items": [{"summary": "This spot is popular", "type": "general", "reasonName": "globalInteractionReason"}]}, "venue": {"id": "4d033c4a8620224bcdd3a140", "name": "MOCA (Museum of Contemporary Arts)", "location": {"address": "27A Loewen Road", "lat": 1.303439271250137, "lng": 103.8118024635645, "labeledLatLngs": [{"label": "display", "lat": 1.303439271250137, "lng": 103.8118024635645}], "distance": 483, "postalCode": "248839", "cc": "SG", "city": "Singapore", "country": "Singapore", "formattedAddress": ["27A Loewen Road", "248839", "Singapore"]}, "categories": [{"id": "4bf58dd8d48988d18f941735", "name": "Art Museum", "pluralName": "Art Museums", "shortName": "Art Museum", "icon": {"prefix": "https://ss3.4sqi.net/img/categories_v2/arts_entertainment/museum_art_", "suffix": ".png"}, "primary": true}], "photos": {"count": 0, "groups": []}}, "referralId": "e-0-4d033c4a8620224bcdd3a140-19"}, {"reasons": {"count": 0, "items": [{"summary": "This spot is popular", "type": "general", "reasonName": "globalInteractionReason"}]}, "venue": {"id": "5329645211d2c5297179632c", "name": "SBG Heritage Museum | Holttum Hall", "location": {"address": "Singapore Botanic Gardens", "crossStreet": "1 Cluny Rd.", "lat": 1.3085907371406023, "lng": 103.81772903630834, "labeledLatLngs": [{"label": "display", "lat": 1.3085907371406023, "lng": 103.81772903630834}], "distance": 393, "cc": "SG", "city": "Singapore", "country": "Singapore", "formattedAddress": ["Singapore Botanic Gardens (1 Cluny Rd.)", "Singapore"]}, "categories": [{"id": "4bf58dd8d48988d181941735", "name": "Museum", "pluralName": "Museums", "shortName": "Museum", "icon": {"prefix": "https://ss3.4sqi.net/img/categories_v2/arts_entertainment/museum_", "suffix": ".png"}, "primary": true}], "photos": {"count": 0, "groups": []}}, "referralId": "e-0-5329645211d2c5297179632c-20"}, {"reasons": {"count": 0, "items": [{"summary": "This spot is popular", "type": "general", "reasonName": "globalInteractionReason"}]}, "venue": {"id": "4ef2fee546901f7080383f5b", "name": "Bonsai Garden", "location": {"address": "Singapore Botanic Gardens", "crossStreet": "1 Cluny Rd.", "lat": 1.3099024441865539, "lng": 103.8163113182821, "labeledLatLngs": [{"label": "display", "lat": 1.3099024441865539, "lng": 103.8163113182821}], "distance": 444, "cc": "SG", "city": "Singapore", "country": "Singapore", "formattedAddress": ["Singapore Botanic Gardens (1 Cluny Rd.)", "Singapore"]}, "categories": [{"id": "4bf58dd8d48988d15a941735", "name": "Garden", "pluralName": "Gardens", "shortName": "Garden", "icon": {"prefix": "https://ss3.4sqi.net/img/categories_v2/parks_outdoors/garden_", "suffix": ".png"}, "primary": true}], "photos": {"count": 0, "groups": []}}, "referralId": "e-0-4ef2fee546901f7080383f5b-21"}, {"reasons": {"count": 0, "items": [{"summary": "This spot is popular", "type": "general", "reasonName": "globalInteractionReason"}]}, "venue": {"id": "58de0348a8b75966fd65b949", "name": "Keppel Discovery Wetlands", "location": {"address": "Learning Forest (@ Singapore Botanic Gardens)", "lat": 1.3098553134915443, "lng": 103.81393432617188, "labeledLatLngs": [{"label": "display", "lat": 1.3098553134915443, "lng": 103.81393432617188}], "distance": 449, "cc": "SG", "city": "Singapore", "country": "Singapore", "formattedAddress": ["Learning Forest (@ Singapore Botanic Gardens)", "Singapore"]}, "categories": [{"id": "4bf58dd8d48988d161941735", "name": "Lake", "pluralName": "Lakes", "shortName": "Lake", "icon": {"prefix": "https://ss3.4sqi.net/img/categories_v2/parks_outdoors/lake_", "suffix": ".png"}, "primary": true}], "photos": {"count": 0, "groups": []}}, "referralId": "e-0-58de0348a8b75966fd65b949-22"}, {"reasons": {"count": 0, "items": [{"summary": "This spot is popular", "type": "general", "reasonName": "globalInteractionReason"}]}, "venue": {"id": "4d116dff85db54815bc7c021", "name": "Ginger Falls", "location": {"address": "Ginger Garden | Singapore Botanic Gardens", "crossStreet": "1 Cluny Rd.", "lat": 1.3103058068173286, "lng": 103.81543636322021, "labeledLatLngs": [{"label": "display", "lat": 1.3103058068173286, "lng": 103.81543636322021}], "distance": 474, "cc": "SG", "city": "Singapore", "country": "Singapore", "formattedAddress": ["Ginger Garden | Singapore Botanic Gardens (1 Cluny Rd.)", "Singapore"]}, "categories": [{"id": "4bf58dd8d48988d163941735", "name": "Park", "pluralName": "Parks", "shortName": "Park", "icon": {"prefix": "https://ss3.4sqi.net/img/categories_v2/parks_outdoors/park_", "suffix": ".png"}, "primary": true}], "photos": {"count": 0, "groups": []}}, "referralId": "e-0-4d116dff85db54815bc7c021-23"}, {"reasons": {"count": 0, "items": [{"summary": "This spot is popular", "type": "general", "reasonName": "globalInteractionReason"}]}, "venue": {"id": "569895dd498e99bb8a6d0337", "name": "Frangipani Garden | Singapore Botanic Gardens", "location": {"address": "Singapore Botanic Gardens", "lat": 1.310181, "lng": 103.817007, "labeledLatLngs": [{"label": "display", "lat": 1.310181, "lng": 103.817007}], "distance": 498, "cc": "SG", "city": "Singapore", "country": "Singapore", "formattedAddress": ["Singapore Botanic Gardens", "Singapore"]}, "categories": [{"id": "4bf58dd8d48988d15a941735", "name": "Garden", "pluralName": "Gardens", "shortName": "Garden", "icon": {"prefix": "https://ss3.4sqi.net/img/categories_v2/parks_outdoors/garden_", "suffix": ".png"}, "primary": true}], "photos": {"count": 0, "groups": []}}, "referralId": "e-0-569895dd498e99bb8a6d0337-24"}]}]}}