{"meta": {"code": 200, "requestId": "5e6ee65d760a7f001bc628e0"}, "response": {"suggestedFilters": {"header": "Tap to show:", "filters": [{"name": "Open now", "key": "openNow"}]}, "headerLocation": "Yishun", "headerFullLocation": "Yishun, Singapore", "headerLocationGranularity": "neighborhood", "totalResults": 51, "suggestedBounds": {"ne": {"lat": 1.4338839045000045, "lng": 103.83952120057097}, "sw": {"lat": 1.4248838954999954, "lng": 103.83053519942902}}, "groups": [{"type": "Recommended Places", "name": "recommended", "items": [{"reasons": {"count": 0, "items": [{"summary": "This spot is popular", "type": "general", "reasonName": "globalInteractionReason"}]}, "venue": {"id": "50924964e4b0948956762c4a", "name": "KOI Caf\u00e8", "location": {"address": "#01-02 GV Yishun 10", "crossStreet": "51 Yishun Central", "lat": 1.4297866685073348, "lng": 103.8362951657566, "labeledLatLngs": [{"label": "display", "lat": 1.4297866685073348, "lng": 103.8362951657566}], "distance": 147, "postalCode": "768794", "cc": "SG", "city": "Singapore", "country": "Singapore", "formattedAddress": ["#01-02 GV Yishun 10 (51 Yishun Central)", "768794", "Singapore"]}, "categories": [{"id": "52e81612bcbc57f1066b7a0c", "name": "Bubble Tea Shop", "pluralName": "Bubble Tea Shops", "shortName": "Bubble Tea", "icon": {"prefix": "https://ss3.4sqi.net/img/categories_v2/food/bubble_", "suffix": ".png"}, "primary": true}], "photos": {"count": 0, "groups": []}}, "referralId": "e-0-50924964e4b0948956762c4a-0"}, {"reasons": {"count": 0, "items": [{"summary": "This spot is popular", "type": "general", "reasonName": "globalInteractionReason"}]}, "venue": {"id": "58a03234a19e9063d2721778", "name": "Sushi Tei", "location": {"address": "#02-13, Northpoint City", "lat": 1.429925641398503, "lng": 103.8357545930369, "labeledLatLngs": [{"label": "display", "lat": 1.429925641398503, "lng": 103.8357545930369}], "distance": 100, "postalCode": "769098", "cc": "SG", "country": "Singapore", "formattedAddress": ["#02-13, Northpoint City", "769098", "Singapore"]}, "categories": [{"id": "4bf58dd8d48988d1d2941735", "name": "Sushi Restaurant", "pluralName": "Sushi Restaurants", "shortName": "Sushi", "icon": {"prefix": "https://ss3.4sqi.net/img/categories_v2/food/sushi_", "suffix": ".png"}, "primary": true}], "photos": {"count": 0, "groups": []}}, "referralId": "e-0-58a03234a19e9063d2721778-1"}, {"reasons": {"count": 0, "items": [{"summary": "This spot is popular", "type": "general", "reasonName": "globalInteractionReason"}]}, "venue": {"id": "5953967066f3cd6af998f6da", "name": "Wee Nam Kee", "location": {"address": "930 Yishun Ave 2 #B1-52", "lat": 1.4293665783034157, "lng": 103.83627830756917, "labeledLatLngs": [{"label": "display", "lat": 1.4293665783034157, "lng": 103.83627830756917}], "distance": 139, "postalCode": "769098", "cc": "SG", "city": "Yishun New Town", "state": "Singapore", "country": "Singapore", "formattedAddress": ["930 Yishun Ave 2 #B1-52", "769098", "Singapore"]}, "categories": [{"id": "52af3abe3cf9994f4e043bf2", "name": "Hainan Restaurant", "pluralName": "Hainan Restaurants", "shortName": "Hainan", "icon": {"prefix": "https://ss3.4sqi.net/img/categories_v2/food/asian_", "suffix": ".png"}, "primary": true}], "photos": {"count": 0, "groups": []}}, "referralId": "e-0-5953967066f3cd6af998f6da-2"}, {"reasons": {"count": 0, "items": [{"summary": "This spot is popular", "type": "general", "reasonName": "globalInteractionReason"}]}, "venue": {"id": "4c1bd2ef624b9c74dbae1204", "name": "Heng Hua Restaurant \u5174\u5316\u7f8e\u98df", "location": {"address": "748 Yishun St 72, #01-212", "lat": 1.4272309436716886, "lng": 103.83326849536728, "labeledLatLngs": [{"label": "display", "lat": 1.4272309436716886, "lng": 103.83326849536728}], "distance": 309, "postalCode": "760748", "cc": "SG", "city": "Singapore", "country": "Singapore", "formattedAddress": ["748 Yishun St 72, #01-212", "760748", "Singapore"]}, "categories": [{"id": "4bf58dd8d48988d145941735", "name": "Chinese Restaurant", "pluralName": "Chinese Restaurants", "shortName": "Chinese", "icon": {"prefix": "https://ss3.4sqi.net/img/categories_v2/food/asian_", "suffix": ".png"}, "primary": true}], "photos": {"count": 0, "groups": []}}, "referralId": "e-0-4c1bd2ef624b9c74dbae1204-3"}, {"reasons": {"count": 0, "items": [{"summary": "This spot is popular", "type": "general", "reasonName": "globalInteractionReason"}]}, "venue": {"id": "59faf5222a7ab6195d259767", "name": "Green Dot", "location": {"address": "North Point City Ground floor", "lat": 1.429349, "lng": 103.836221, "labeledLatLngs": [{"label": "display", "lat": 1.429349, "lng": 103.836221}], "distance": 132, "postalCode": "769095", "cc": "SG", "city": "Yishun New Town", "state": "Singapore", "country": "Singapore", "formattedAddress": ["North Point City Ground floor", "769095", "Singapore"]}, "categories": [{"id": "4bf58dd8d48988d1d3941735", "name": "Vegetarian / Vegan Restaurant", "pluralName": "Vegetarian / Vegan Restaurants", "shortName": "Vegetarian / Vegan", "icon": {"prefix": "https://ss3.4sqi.net/img/categories_v2/food/vegetarian_", "suffix": ".png"}, "primary": true}], "photos": {"count": 0, "groups": []}}, "referralId": "e-0-59faf5222a7ab6195d259767-4"}, {"reasons": {"count": 0, "items": [{"summary": "This spot is popular", "type": "general", "reasonName": "globalInteractionReason"}]}, "venue": {"id": "5a61cfd82d2fd96f6df49079", "name": "Din Tai Fung \u9f0e\u6cf0\u8c50", "location": {"address": "#B1-107/108, Northpoint City South Wing", "crossStreet": "1 Northpoint Dr", "lat": 1.4291174037145247, "lng": 103.83609119621141, "labeledLatLngs": [{"label": "display", "lat": 1.4291174037145247, "lng": 103.83609119621141}], "distance": 121, "postalCode": "768019", "cc": "SG", "city": "Yishun New Town", "state": "Singapore", "country": "Singapore", "formattedAddress": ["#B1-107/108, Northpoint City South Wing (1 Northpoint Dr)", "768019", "Singapore"]}, "categories": [{"id": "4bf58dd8d48988d145941735", "name": "Chinese Restaurant", "pluralName": "Chinese Restaurants", "shortName": "Chinese", "icon": {"prefix": "https://ss3.4sqi.net/img/categories_v2/food/asian_", "suffix": ".png"}, "primary": true}], "photos": {"count": 0, "groups": []}}, "referralId": "e-0-5a61cfd82d2fd96f6df49079-5"}, {"reasons": {"count": 0, "items": [{"summary": "This spot is popular", "type": "general", "reasonName": "globalInteractionReason"}]}, "venue": {"id": "4def80de887754a6af93fa72", "name": "Share Tea \u6b47\u811a\u4ead", "location": {"address": "#B1-04, Northpoint City", "crossStreet": "930 Yishun Ave 2", "lat": 1.4293483540366487, "lng": 103.8355963041344, "labeledLatLngs": [{"label": "display", "lat": 1.4293483540366487, "lng": 103.8355963041344}], "distance": 63, "postalCode": "769098", "cc": "SG", "city": "Singapore", "country": "Singapore", "formattedAddress": ["#B1-04, Northpoint City (930 Yishun Ave 2)", "769098", "Singapore"]}, "categories": [{"id": "4bf58dd8d48988d1dc931735", "name": "Tea Room", "pluralName": "Tea Rooms", "shortName": "Tea Room", "icon": {"prefix": "https://ss3.4sqi.net/img/categories_v2/food/tearoom_", "suffix": ".png"}, "primary": true}], "photos": {"count": 0, "groups": []}}, "referralId": "e-0-4def80de887754a6af93fa72-6"}, {"reasons": {"count": 0, "items": [{"summary": "This spot is popular", "type": "general", "reasonName": "globalInteractionReason"}]}, "venue": {"id": "4c81ee7447cc224bba59819f", "name": "928 Yishun Laksa", "location": {"address": "Blk 928 Yishun Central 1, #01-155", "lat": 1.4273988201934307, "lng": 103.83745110615244, "labeledLatLngs": [{"label": "display", "lat": 1.4273988201934307, "lng": 103.83745110615244}], "distance": 348, "cc": "SG", "neighborhood": "Yishun", "city": "Singapore", "country": "Singapore", "formattedAddress": ["Blk 928 Yishun Central 1, #01-155", "Singapore"]}, "categories": [{"id": "4bf58dd8d48988d1d1941735", "name": "Noodle House", "pluralName": "Noodle Houses", "shortName": "Noodles", "icon": {"prefix": "https://ss3.4sqi.net/img/categories_v2/food/ramen_", "suffix": ".png"}, "primary": true}], "photos": {"count": 0, "groups": []}}, "referralId": "e-0-4c81ee7447cc224bba59819f-7"}, {"reasons": {"count": 0, "items": [{"summary": "This spot is popular", "type": "general", "reasonName": "globalInteractionReason"}]}, "venue": {"id": "51cd195b498e26f92dd17057", "name": "MOS Burger", "location": {"address": "#01-19 NorthPoint City", "crossStreet": "930 Yishun Avenue 2", "lat": 1.4294128729498763, "lng": 103.83671130290806, "labeledLatLngs": [{"label": "display", "lat": 1.4294128729498763, "lng": 103.83671130290806}], "distance": 187, "postalCode": "769098", "cc": "SG", "city": "Singapore", "country": "Singapore", "formattedAddress": ["#01-19 NorthPoint City (930 Yishun Avenue 2)", "769098", "Singapore"]}, "categories": [{"id": "4bf58dd8d48988d16c941735", "name": "Burger Joint", "pluralName": "Burger Joints", "shortName": "Burgers", "icon": {"prefix": "https://ss3.4sqi.net/img/categories_v2/food/burger_", "suffix": ".png"}, "primary": true}], "photos": {"count": 0, "groups": []}}, "referralId": "e-0-51cd195b498e26f92dd17057-8"}, {"reasons": {"count": 0, "items": [{"summary": "This spot is popular", "type": "general", "reasonName": "globalInteractionReason"}]}, "venue": {"id": "5a42387a0802d431b19c4815", "name": "Guzman Y Gomez", "location": {"address": "1 Northpoint Drive, #01-176/177/178, Northpoint City", "lat": 1.4286643491345354, "lng": 103.83589851520537, "labeledLatLngs": [{"label": "display", "lat": 1.4286643491345354, "lng": 103.83589851520537}], "distance": 125, "postalCode": "769019", "cc": "SG", "city": "Singapore", "country": "Singapore", "formattedAddress": ["1 Northpoint Drive, #01-176/177/178, Northpoint City", "769019", "Singapore"]}, "categories": [{"id": "4bf58dd8d48988d1c1941735", "name": "Mexican Restaurant", "pluralName": "Mexican Restaurants", "shortName": "Mexican", "icon": {"prefix": "https://ss3.4sqi.net/img/categories_v2/food/mexican_", "suffix": ".png"}, "primary": true}], "photos": {"count": 0, "groups": []}}, "referralId": "e-0-5a42387a0802d431b19c4815-9"}, {"reasons": {"count": 0, "items": [{"summary": "This spot is popular", "type": "general", "reasonName": "globalInteractionReason"}]}, "venue": {"id": "55b07c76498edfb120250806", "name": "Coba Coba", "location": {"address": "Blk 156 Yishun Street 11 #01-106", "lat": 1.4313394107939927, "lng": 103.8334258809983, "labeledLatLngs": [{"label": "display", "lat": 1.4313394107939927, "lng": 103.8334258809983}], "distance": 281, "postalCode": "760156", "cc": "SG", "city": "Singapore", "country": "Singapore", "formattedAddress": ["Blk 156 Yishun Street 11 #01-106", "760156", "Singapore"]}, "categories": [{"id": "52e81612bcbc57f1066b79ff", "name": "Halal Restaurant", "pluralName": "Halal Restaurants", "shortName": "Halal", "icon": {"prefix": "https://ss3.4sqi.net/img/categories_v2/food/halal_", "suffix": ".png"}, "primary": true}], "photos": {"count": 0, "groups": []}}, "referralId": "e-0-55b07c76498edfb120250806-10"}, {"reasons": {"count": 0, "items": [{"summary": "This spot is popular", "type": "general", "reasonName": "globalInteractionReason"}]}, "venue": {"id": "4b1a7b58f964a520f0ea23e3", "name": "Starbucks", "location": {"address": "#01-07/08, Northpoint City", "crossStreet": "930 Yishun Ave 2", "lat": 1.4293701868553466, "lng": 103.83546584914363, "labeledLatLngs": [{"label": "display", "lat": 1.4293701868553466, "lng": 103.83546584914363}], "distance": 48, "postalCode": "769098", "cc": "SG", "city": "Singapore", "country": "Singapore", "formattedAddress": ["#01-07/08, Northpoint City (930 Yishun Ave 2)", "769098", "Singapore"]}, "categories": [{"id": "4bf58dd8d48988d1e0931735", "name": "Coffee Shop", "pluralName": "Coffee Shops", "shortName": "Coffee Shop", "icon": {"prefix": "https://ss3.4sqi.net/img/categories_v2/food/coffeeshop_", "suffix": ".png"}, "primary": true}], "photos": {"count": 0, "groups": []}}, "referralId": "e-0-4b1a7b58f964a520f0ea23e3-11"}, {"reasons": {"count": 0, "items": [{"summary": "This spot is popular", "type": "general", "reasonName": "globalInteractionReason"}]}, "venue": {"id": "4bc1a89b74a9a593ef1fd2f6", "name": "Shami Banana Leaf Delights", "location": {"address": "#B2-10, Northpoint Shopping Centre", "crossStreet": "930 Yishun Ave 2", "lat": 1.4294015440302474, "lng": 103.8356024449762, "labeledLatLngs": [{"label": "display", "lat": 1.4294015440302474, "lng": 103.8356024449762}], "distance": 63, "postalCode": "769098", "cc": "SG", "city": "Singapore", "country": "Singapore", "formattedAddress": ["#B2-10, Northpoint Shopping Centre (930 Yishun Ave 2)", "769098", "Singapore"]}, "categories": [{"id": "4bf58dd8d48988d10f941735", "name": "Indian Restaurant", "pluralName": "Indian Restaurants", "shortName": "Indian", "icon": {"prefix": "https://ss3.4sqi.net/img/categories_v2/food/indian_", "suffix": ".png"}, "primary": true}], "photos": {"count": 0, "groups": []}}, "referralId": "e-0-4bc1a89b74a9a593ef1fd2f6-12"}, {"reasons": {"count": 0, "items": [{"summary": "This spot is popular", "type": "general", "reasonName": "globalInteractionReason"}]}, "venue": {"id": "52d8cc44498e4d6cd75a79b1", "name": "Arnold's Fried Chicken", "location": {"address": "#01-04 Yishun 10 Multiplex", "crossStreet": "51 Yishun Central 1", "lat": 1.430101726384335, "lng": 103.8364082062982, "labeledLatLngs": [{"label": "display", "lat": 1.430101726384335, "lng": 103.8364082062982}], "distance": 173, "postalCode": "768794", "cc": "SG", "city": "Singapore", "country": "Singapore", "formattedAddress": ["#01-04 Yishun 10 Multiplex (51 Yishun Central 1)", "768794", "Singapore"]}, "categories": [{"id": "4d4ae6fc7a7b7dea34424761", "name": "Fried Chicken Joint", "pluralName": "Fried Chicken Joints", "shortName": "Fried Chicken", "icon": {"prefix": "https://ss3.4sqi.net/img/categories_v2/food/friedchicken_", "suffix": ".png"}, "primary": true}], "photos": {"count": 0, "groups": []}}, "referralId": "e-0-52d8cc44498e4d6cd75a79b1-13"}, {"reasons": {"count": 0, "items": [{"summary": "This spot is popular", "type": "general", "reasonName": "globalInteractionReason"}]}, "venue": {"id": "4d0de65d80105481e8312196", "name": "Yishun 925 Hainanese Chicken Rice", "location": {"address": "Yishun 81 Food Court", "crossStreet": "925 Yishun Central 1", "lat": 1.4284168381544933, "lng": 103.83750421370334, "labeledLatLngs": [{"label": "display", "lat": 1.4284168381544933, "lng": 103.83750421370334}], "distance": 295, "postalCode": "760925", "cc": "SG", "city": "Singapore", "country": "Singapore", "formattedAddress": ["Yishun 81 Food Court (925 Yishun Central 1)", "760925", "Singapore"]}, "categories": [{"id": "52af3abe3cf9994f4e043bf2", "name": "Hainan Restaurant", "pluralName": "Hainan Restaurants", "shortName": "Hainan", "icon": {"prefix": "https://ss3.4sqi.net/img/categories_v2/food/asian_", "suffix": ".png"}, "primary": true}], "photos": {"count": 0, "groups": []}}, "referralId": "e-0-4d0de65d80105481e8312196-14"}, {"reasons": {"count": 0, "items": [{"summary": "This spot is popular", "type": "general", "reasonName": "globalInteractionReason"}]}, "venue": {"id": "4bf626febfeac928c7f19336", "name": "Harvey Norman Northpoint", "location": {"address": "Level 1, Atrium NorthPoint Shopping Centre", "crossStreet": "930 Yishun Ave 2", "lat": 1.429450968462084, "lng": 103.83558186396931, "labeledLatLngs": [{"label": "display", "lat": 1.429450968462084, "lng": 103.83558186396931}], "distance": 62, "postalCode": "769098", "cc": "SG", "neighborhood": "Yishun", "city": "Singapore", "country": "Singapore", "formattedAddress": ["Level 1, Atrium NorthPoint Shopping Centre (930 Yishun Ave 2)", "769098", "Singapore"]}, "categories": [{"id": "4bf58dd8d48988d1f8941735", "name": "Furniture / Home Store", "pluralName": "Furniture / Home Stores", "shortName": "Furniture / Home", "icon": {"prefix": "https://ss3.4sqi.net/img/categories_v2/shops/furniture_", "suffix": ".png"}, "primary": true}], "photos": {"count": 0, "groups": []}}, "referralId": "e-0-4bf626febfeac928c7f19336-15"}, {"reasons": {"count": 0, "items": [{"summary": "This spot is popular", "type": "general", "reasonName": "globalInteractionReason"}]}, "venue": {"id": "5a658efc2632ec259330e7c5", "name": "Kanshoku Ramen Bar", "location": {"address": "#B1-151, Northpoint City, 1 Northpoint Drive", "crossStreet": "South Wing", "lat": 1.429509, "lng": 103.835839, "labeledLatLngs": [{"label": "display", "lat": 1.429509, "lng": 103.835839}], "distance": 91, "postalCode": "769098", "cc": "SG", "city": "Yishun New Town", "state": "Singapore", "country": "Singapore", "formattedAddress": ["#B1-151, Northpoint City, 1 Northpoint Drive (South Wing)", "769098", "Singapore"]}, "categories": [{"id": "55a59bace4b013909087cb24", "name": "Ramen Restaurant", "pluralName": "Ramen Restaurants", "shortName": "Ramen", "icon": {"prefix": "https://ss3.4sqi.net/img/categories_v2/food/ramen_", "suffix": ".png"}, "primary": true}], "photos": {"count": 0, "groups": []}}, "referralId": "e-0-5a658efc2632ec259330e7c5-16"}, {"reasons": {"count": 0, "items": [{"summary": "This spot is popular", "type": "general", "reasonName": "globalInteractionReason"}]}, "venue": {"id": "5a38bde64a1cc06c9a848756", "name": "Malaysia Chiak!", "location": {"address": "#B1-194/194/203/294/205, Northpoint City, South Wing, 930 Yishun Avenue 2", "lat": 1.4275909219392204, "lng": 103.83612493400868, "labeledLatLngs": [{"label": "display", "lat": 1.4275909219392204, "lng": 103.83612493400868}], "distance": 233, "postalCode": "769098", "cc": "SG", "city": "Yishun New Town", "state": "Singapore", "country": "Singapore", "formattedAddress": ["#B1-194/194/203/294/205, Northpoint City, South Wing, 930 Yishun Avenue 2", "769098", "Singapore"]}, "categories": [{"id": "4bf58dd8d48988d120951735", "name": "Food Court", "pluralName": "Food Courts", "shortName": "Food Court", "icon": {"prefix": "https://ss3.4sqi.net/img/categories_v2/shops/food_foodcourt_", "suffix": ".png"}, "primary": true}], "photos": {"count": 0, "groups": []}}, "referralId": "e-0-5a38bde64a1cc06c9a848756-17"}, {"reasons": {"count": 0, "items": [{"summary": "This spot is popular", "type": "general", "reasonName": "globalInteractionReason"}]}, "venue": {"id": "5a45b702acb00b66ac9e13fc", "name": "The Coffee Bean & Tea Leaf", "location": {"address": "#01-110, Northpoint City, 1 Northpoint Drive", "crossStreet": "South Wing", "lat": 1.429103, "lng": 103.835698, "labeledLatLngs": [{"label": "display", "lat": 1.429103, "lng": 103.835698}], "distance": 80, "postalCode": "768019", "cc": "SG", "city": "Yishun New Town", "state": "Singapore", "country": "Singapore", "formattedAddress": ["#01-110, Northpoint City, 1 Northpoint Drive (South Wing)", "768019", "Singapore"]}, "categories": [{"id": "4bf58dd8d48988d16d941735", "name": "Caf\u00e9", "pluralName": "Caf\u00e9s", "shortName": "Caf\u00e9", "icon": {"prefix": "https://ss3.4sqi.net/img/categories_v2/food/cafe_", "suffix": ".png"}, "primary": true}], "photos": {"count": 0, "groups": []}}, "referralId": "e-0-5a45b702acb00b66ac9e13fc-18"}, {"reasons": {"count": 0, "items": [{"summary": "This spot is popular", "type": "general", "reasonName": "globalInteractionReason"}]}, "venue": {"id": "4d1597b081cea35de0a5dbec", "name": "Popular Bookstore", "location": {"address": "#03-16/17/18 Northpoint City", "crossStreet": "930 Yishun Ave 2", "lat": 1.4298943000107922, "lng": 103.83571510144114, "labeledLatLngs": [{"label": "display", "lat": 1.4298943000107922, "lng": 103.83571510144114}], "distance": 95, "postalCode": "769098", "cc": "SG", "city": "Singapore", "country": "Singapore", "formattedAddress": ["#03-16/17/18 Northpoint City (930 Yishun Ave 2)", "769098", "Singapore"]}, "categories": [{"id": "4bf58dd8d48988d114951735", "name": "Bookstore", "pluralName": "Bookstores", "shortName": "Bookstore", "icon": {"prefix": "https://ss3.4sqi.net/img/categories_v2/shops/bookstore_", "suffix": ".png"}, "primary": true}], "photos": {"count": 0, "groups": []}}, "referralId": "e-0-4d1597b081cea35de0a5dbec-19"}, {"reasons": {"count": 0, "items": [{"summary": "This spot is popular", "type": "general", "reasonName": "globalInteractionReason"}]}, "venue": {"id": "4ca9b76597c8a1cded0c91a5", "name": "Zepy Games", "location": {"address": "#03-10/11 NorthPoint Shopping Centre", "crossStreet": "930 Yishun Avenue 2", "lat": 1.4294792215089076, "lng": 103.83561669523105, "labeledLatLngs": [{"label": "display", "lat": 1.4294792215089076, "lng": 103.83561669523105}], "distance": 66, "postalCode": "769098", "cc": "SG", "city": "Singapore", "country": "Singapore", "formattedAddress": ["#03-10/11 NorthPoint Shopping Centre (930 Yishun Avenue 2)", "769098", "Singapore"]}, "categories": [{"id": "4bf58dd8d48988d10b951735", "name": "Video Game Store", "pluralName": "Video Game Stores", "shortName": "Video Games", "icon": {"prefix": "https://ss3.4sqi.net/img/categories_v2/shops/videogames_", "suffix": ".png"}, "primary": true}], "photos": {"count": 0, "groups": []}}, "referralId": "e-0-4ca9b76597c8a1cded0c91a5-20"}, {"reasons": {"count": 0, "items": [{"summary": "This spot is popular", "type": "general", "reasonName": "globalInteractionReason"}]}, "venue": {"id": "4e08640ba809495e619e51fb", "name": "Lit Lit Xin Hot & Cold Deserts", "location": {"address": "925 Yishun Central 1", "lat": 1.4275897382084803, "lng": 103.83749254114471, "labeledLatLngs": [{"label": "display", "lat": 1.4275897382084803, "lng": 103.83749254114471}], "distance": 339, "cc": "SG", "city": "Singapore", "country": "Singapore", "formattedAddress": ["925 Yishun Central 1", "Singapore"]}, "categories": [{"id": "4bf58dd8d48988d1d0941735", "name": "Dessert Shop", "pluralName": "Dessert Shops", "shortName": "Desserts", "icon": {"prefix": "https://ss3.4sqi.net/img/categories_v2/food/dessert_", "suffix": ".png"}, "primary": true}], "photos": {"count": 0, "groups": []}}, "referralId": "e-0-4e08640ba809495e619e51fb-21"}, {"reasons": {"count": 0, "items": [{"summary": "This spot is popular", "type": "general", "reasonName": "globalInteractionReason"}]}, "venue": {"id": "5a7ee3e7c0f1636939e05b18", "name": "NTUC Fairprice", "location": {"address": "Northpoint City (South Wing)", "lat": 1.428899951389723, "lng": 103.83584614184515, "labeledLatLngs": [{"label": "display", "lat": 1.428899951389723, "lng": 103.83584614184515}], "distance": 105, "postalCode": "760923", "cc": "SG", "neighborhood": "Yishun", "city": "Singapore", "country": "Singapore", "formattedAddress": ["Northpoint City (South Wing)", "760923", "Singapore"]}, "categories": [{"id": "52f2ab2ebcbc57f1066b8b46", "name": "Supermarket", "pluralName": "Supermarkets", "shortName": "Supermarket", "icon": {"prefix": "https://ss3.4sqi.net/img/categories_v2/shops/food_grocery_", "suffix": ".png"}, "primary": true}], "photos": {"count": 0, "groups": []}}, "referralId": "e-0-5a7ee3e7c0f1636939e05b18-22"}, {"reasons": {"count": 0, "items": [{"summary": "This spot is popular", "type": "general", "reasonName": "globalInteractionReason"}]}, "venue": {"id": "4b642ef5f964a520faa22ae3", "name": "Golden Village", "location": {"address": "51 Yishun Central 1", "crossStreet": "opp Northpoint", "lat": 1.4302178879970593, "lng": 103.83657834320795, "labeledLatLngs": [{"label": "display", "lat": 1.4302178879970593, "lng": 103.83657834320795}], "distance": 195, "postalCode": "768794", "cc": "SG", "city": "Singapore", "country": "Singapore", "formattedAddress": ["51 Yishun Central 1 (opp Northpoint)", "768794", "Singapore"]}, "categories": [{"id": "4bf58dd8d48988d180941735", "name": "Multiplex", "pluralName": "Multiplexes", "shortName": "Cineplex", "icon": {"prefix": "https://ss3.4sqi.net/img/categories_v2/arts_entertainment/movietheater_", "suffix": ".png"}, "primary": true}], "photos": {"count": 0, "groups": []}}, "referralId": "e-0-4b642ef5f964a520faa22ae3-23"}, {"reasons": {"count": 0, "items": [{"summary": "This spot is popular", "type": "general", "reasonName": "globalInteractionReason"}]}, "venue": {"id": "4b51723bf964a520784d27e3", "name": "Watsons", "location": {"address": "Northpoint, B1-63/66", "crossStreet": "930 Yishun Ave. 2", "lat": 1.4293844446054256, "lng": 103.83566661555602, "labeledLatLngs": [{"label": "display", "lat": 1.4293844446054256, "lng": 103.83566661555602}], "distance": 71, "postalCode": "769098", "cc": "SG", "neighborhood": "Yishun", "city": "Singapore", "country": "Singapore", "formattedAddress": ["Northpoint, B1-63/66 (930 Yishun Ave. 2)", "769098", "Singapore"]}, "categories": [{"id": "4bf58dd8d48988d10f951735", "name": "Pharmacy", "pluralName": "Pharmacies", "shortName": "Pharmacy", "icon": {"prefix": "https://ss3.4sqi.net/img/categories_v2/shops/pharmacy_", "suffix": ".png"}, "primary": true}], "photos": {"count": 0, "groups": []}}, "referralId": "e-0-4b51723bf964a520784d27e3-24"}, {"reasons": {"count": 0, "items": [{"summary": "This spot is popular", "type": "general", "reasonName": "globalInteractionReason"}]}, "venue": {"id": "4fc071dae4b051906846ff3a", "name": "Seng Heng Niang Dou Fu (\u6210\u5174\u917f\u8c46\u8150)", "location": {"address": "#01-235 Blk 925 Yishun Central 1", "crossStreet": "925 Yishun Central 1", "lat": 1.4274002589583357, "lng": 103.83738861997486, "labeledLatLngs": [{"label": "display", "lat": 1.4274002589583357, "lng": 103.83738861997486}], "distance": 343, "postalCode": "760925", "cc": "SG", "neighborhood": "Yishun", "city": "Singapore", "country": "Singapore", "formattedAddress": ["#01-235 Blk 925 Yishun Central 1 (925 Yishun Central 1)", "760925", "Singapore"]}, "categories": [{"id": "4bf58dd8d48988d145941735", "name": "Chinese Restaurant", "pluralName": "Chinese Restaurants", "shortName": "Chinese", "icon": {"prefix": "https://ss3.4sqi.net/img/categories_v2/food/asian_", "suffix": ".png"}, "primary": true}], "photos": {"count": 0, "groups": []}}, "referralId": "e-0-4fc071dae4b051906846ff3a-25"}, {"reasons": {"count": 0, "items": [{"summary": "This spot is popular", "type": "general", "reasonName": "globalInteractionReason"}]}, "venue": {"id": "4b75320df964a520d3002ee3", "name": "Northpoint City", "location": {"address": "930 Yishun Ave 2", "lat": 1.428847007500876, "lng": 103.83619666099548, "labeledLatLngs": [{"label": "display", "lat": 1.428847007500876, "lng": 103.83619666099548}], "distance": 143, "postalCode": "769098", "cc": "SG", "city": "Singapore", "country": "Singapore", "formattedAddress": ["930 Yishun Ave 2", "769098", "Singapore"]}, "categories": [{"id": "4bf58dd8d48988d1fd941735", "name": "Shopping Mall", "pluralName": "Shopping Malls", "shortName": "Mall", "icon": {"prefix": "https://ss3.4sqi.net/img/categories_v2/shops/mall_", "suffix": ".png"}, "primary": true}], "photos": {"count": 0, "groups": []}}, "referralId": "e-0-4b75320df964a520d3002ee3-26"}, {"reasons": {"count": 0, "items": [{"summary": "This spot is popular", "type": "general", "reasonName": "globalInteractionReason"}]}, "venue": {"id": "4c73adff13228cfa90342e65", "name": "Yishun N7 Neighbourhood Park", "location": {"address": "Blk 755 Yishun St. 72", "crossStreet": "Next to Yishun Ring Road", "lat": 1.4277140398246289, "lng": 103.8319710187289, "labeledLatLngs": [{"label": "display", "lat": 1.4277140398246289, "lng": 103.8319710187289}], "distance": 387, "postalCode": "760755", "cc": "SG", "city": "Singapore", "country": "Singapore", "formattedAddress": ["Blk 755 Yishun St. 72 (Next to Yishun Ring Road)", "760755", "Singapore"]}, "categories": [{"id": "4bf58dd8d48988d163941735", "name": "Park", "pluralName": "Parks", "shortName": "Park", "icon": {"prefix": "https://ss3.4sqi.net/img/categories_v2/parks_outdoors/park_", "suffix": ".png"}, "primary": true}], "photos": {"count": 0, "groups": []}}, "referralId": "e-0-4c73adff13228cfa90342e65-27"}, {"reasons": {"count": 0, "items": [{"summary": "This spot is popular", "type": "general", "reasonName": "globalInteractionReason"}]}, "venue": {"id": "4b174779f964a5207ac423e3", "name": "Cold Storage", "location": {"address": "#B1-09/10/11/12, Northpoint City", "crossStreet": "930 Yishun Ave 2", "lat": 1.4294338767538468, "lng": 103.83563388430542, "labeledLatLngs": [{"label": "display", "lat": 1.4294338767538468, "lng": 103.83563388430542}], "distance": 67, "postalCode": "769098", "cc": "SG", "city": "Singapore", "country": "Singapore", "formattedAddress": ["#B1-09/10/11/12, Northpoint City (930 Yishun Ave 2)", "769098", "Singapore"]}, "categories": [{"id": "52f2ab2ebcbc57f1066b8b46", "name": "Supermarket", "pluralName": "Supermarkets", "shortName": "Supermarket", "icon": {"prefix": "https://ss3.4sqi.net/img/categories_v2/shops/food_grocery_", "suffix": ".png"}, "primary": true}], "photos": {"count": 0, "groups": []}}, "referralId": "e-0-4b174779f964a5207ac423e3-28"}, {"reasons": {"count": 0, "items": [{"summary": "This spot is popular", "type": "general", "reasonName": "globalInteractionReason"}]}, "venue": {"id": "4b496eedf964a520bc6f26e3", "name": "Long John Silver's", "location": {"address": "#01-14/15, Northpoint City", "crossStreet": "930 Yishun Ave 2", "lat": 1.4301986831632254, "lng": 103.8355775718601, "labeledLatLngs": [{"label": "display", "lat": 1.4301986831632254, "lng": 103.8355775718601}], "distance": 109, "postalCode": "769098", "cc": "SG", "city": "Singapore", "country": "Singapore", "formattedAddress": ["#01-14/15, Northpoint City (930 Yishun Ave 2)", "769098", "Singapore"]}, "categories": [{"id": "4bf58dd8d48988d1ce941735", "name": "Seafood Restaurant", "pluralName": "Seafood Restaurants", "shortName": "Seafood", "icon": {"prefix": "https://ss3.4sqi.net/img/categories_v2/food/seafood_", "suffix": ".png"}, "primary": true}], "photos": {"count": 0, "groups": []}}, "referralId": "e-0-4b496eedf964a520bc6f26e3-29"}, {"reasons": {"count": 0, "items": [{"summary": "This spot is popular", "type": "general", "reasonName": "globalInteractionReason"}]}, "venue": {"id": "4ca300eaa73cb60c03dd1478", "name": "Timezone", "location": {"address": "#03-19/22 Northpoint Shopping Centre", "crossStreet": "930 Yishun Ave 2", "lat": 1.429807639785474, "lng": 103.83568093429207, "labeledLatLngs": [{"label": "display", "lat": 1.429807639785474, "lng": 103.83568093429207}], "distance": 86, "postalCode": "769098", "cc": "SG", "city": "Singapore", "country": "Singapore", "formattedAddress": ["#03-19/22 Northpoint Shopping Centre (930 Yishun Ave 2)", "769098", "Singapore"]}, "categories": [{"id": "4bf58dd8d48988d1e1931735", "name": "Arcade", "pluralName": "Arcades", "shortName": "Arcade", "icon": {"prefix": "https://ss3.4sqi.net/img/categories_v2/arts_entertainment/arcade_", "suffix": ".png"}, "primary": true}], "photos": {"count": 0, "groups": []}}, "referralId": "e-0-4ca300eaa73cb60c03dd1478-30"}, {"reasons": {"count": 0, "items": [{"summary": "This spot is popular", "type": "general", "reasonName": "globalInteractionReason"}]}, "venue": {"id": "5b15126e646e38002c29f7e8", "name": "KFC", "location": {"address": "1 Northpoint Drive, #01-173/174, South Wing,", "crossStreet": "Northpoint City", "lat": 1.4298388, "lng": 103.83548, "labeledLatLngs": [{"label": "display", "lat": 1.4298388, "lng": 103.83548}], "distance": 71, "postalCode": "768019", "cc": "SG", "neighborhood": "Yishun", "city": "Singapore", "country": "Singapore", "formattedAddress": ["1 Northpoint Drive, #01-173/174, South Wing, (Northpoint City)", "768019", "Singapore"]}, "categories": [{"id": "4d4ae6fc7a7b7dea34424761", "name": "Fried Chicken Joint", "pluralName": "Fried Chicken Joints", "shortName": "Fried Chicken", "icon": {"prefix": "https://ss3.4sqi.net/img/categories_v2/food/friedchicken_", "suffix": ".png"}, "primary": true}], "photos": {"count": 0, "groups": []}}, "referralId": "e-0-5b15126e646e38002c29f7e8-31"}, {"reasons": {"count": 0, "items": [{"summary": "This spot is popular", "type": "general", "reasonName": "globalInteractionReason"}]}, "venue": {"id": "5a3a71b6b9ac382533496495", "name": "Collin\u2019s", "location": {"address": "#01-113/114, Northpoint City, 1 Northpoint Drive", "lat": 1.4290211548541116, "lng": 103.83612393280119, "labeledLatLngs": [{"label": "display", "lat": 1.4290211548541116, "lng": 103.83612393280119}], "distance": 128, "postalCode": "768019", "cc": "SG", "city": "Yishun New Town", "state": "Singapore", "country": "Singapore", "formattedAddress": ["#01-113/114, Northpoint City, 1 Northpoint Drive", "768019", "Singapore"]}, "categories": [{"id": "4bf58dd8d48988d110941735", "name": "Italian Restaurant", "pluralName": "Italian Restaurants", "shortName": "Italian", "icon": {"prefix": "https://ss3.4sqi.net/img/categories_v2/food/italian_", "suffix": ".png"}, "primary": true}], "photos": {"count": 0, "groups": []}}, "referralId": "e-0-5a3a71b6b9ac382533496495-32"}, {"reasons": {"count": 0, "items": [{"summary": "This spot is popular", "type": "general", "reasonName": "globalInteractionReason"}]}, "venue": {"id": "4ca863fb14c33704fd72d33b", "name": "PastaMania", "location": {"address": "#03-01/02, Northpoint City", "crossStreet": "930 Yishun Ave 2", "lat": 1.429340666520736, "lng": 103.8355963847292, "labeledLatLngs": [{"label": "display", "lat": 1.429340666520736, "lng": 103.8355963847292}], "distance": 63, "postalCode": "769098", "cc": "SG", "city": "Singapore", "country": "Singapore", "formattedAddress": ["#03-01/02, Northpoint City (930 Yishun Ave 2)", "769098", "Singapore"]}, "categories": [{"id": "4bf58dd8d48988d110941735", "name": "Italian Restaurant", "pluralName": "Italian Restaurants", "shortName": "Italian", "icon": {"prefix": "https://ss3.4sqi.net/img/categories_v2/food/italian_", "suffix": ".png"}, "primary": true}], "photos": {"count": 0, "groups": []}}, "referralId": "e-0-4ca863fb14c33704fd72d33b-33"}, {"reasons": {"count": 0, "items": [{"summary": "This spot is popular", "type": "general", "reasonName": "globalInteractionReason"}]}, "venue": {"id": "4d2bf9138292236a8eb538bb", "name": "Yishun 761 U\u6765 Coffee Shop", "location": {"lat": 1.425812296404206, "lng": 103.83309859419786, "labeledLatLngs": [{"label": "display", "lat": 1.425812296404206, "lng": 103.83309859419786}], "distance": 451, "cc": "SG", "country": "Singapore", "formattedAddress": ["Singapore"]}, "categories": [{"id": "4bf58dd8d48988d120951735", "name": "Food Court", "pluralName": "Food Courts", "shortName": "Food Court", "icon": {"prefix": "https://ss3.4sqi.net/img/categories_v2/shops/food_foodcourt_", "suffix": ".png"}, "primary": true}], "photos": {"count": 0, "groups": []}}, "referralId": "e-0-4d2bf9138292236a8eb538bb-34"}, {"reasons": {"count": 0, "items": [{"summary": "This spot is popular", "type": "general", "reasonName": "globalInteractionReason"}]}, "venue": {"id": "5a574c17f62e091c84d90a62", "name": "Char Grill Western", "location": {"address": "#01-128, Northpoint City, 930 Yishun Avenue 2", "crossStreet": "South Wing", "lat": 1.429139, "lng": 103.836638, "labeledLatLngs": [{"label": "display", "lat": 1.429139, "lng": 103.836638}], "distance": 181, "postalCode": "769098", "cc": "SG", "city": "Yishun New Town", "state": "Singapore", "country": "Singapore", "formattedAddress": ["#01-128, Northpoint City, 930 Yishun Avenue 2 (South Wing)", "769098", "Singapore"]}, "categories": [{"id": "4bf58dd8d48988d1c4941735", "name": "Restaurant", "pluralName": "Restaurants", "shortName": "Restaurant", "icon": {"prefix": "https://ss3.4sqi.net/img/categories_v2/food/default_", "suffix": ".png"}, "primary": true}], "photos": {"count": 0, "groups": []}}, "referralId": "e-0-5a574c17f62e091c84d90a62-35"}, {"reasons": {"count": 0, "items": [{"summary": "This spot is popular", "type": "general", "reasonName": "globalInteractionReason"}]}, "venue": {"id": "4b288eaaf964a520ef9324e3", "name": "Subway", "location": {"address": "#B2-15/16 Northpoint Shopping Centre", "crossStreet": "930 Yishun Avenue 2", "lat": 1.4294378129888698, "lng": 103.83558317672522, "labeledLatLngs": [{"label": "display", "lat": 1.4294378129888698, "lng": 103.83558317672522}], "distance": 62, "cc": "SG", "city": "Singapore", "country": "Singapore", "formattedAddress": ["#B2-15/16 Northpoint Shopping Centre (930 Yishun Avenue 2)", "Singapore"]}, "categories": [{"id": "4bf58dd8d48988d1c5941735", "name": "Sandwich Place", "pluralName": "Sandwich Places", "shortName": "Sandwiches", "icon": {"prefix": "https://ss3.4sqi.net/img/categories_v2/food/deli_", "suffix": ".png"}, "primary": true}], "photos": {"count": 0, "groups": []}}, "referralId": "e-0-4b288eaaf964a520ef9324e3-36"}, {"reasons": {"count": 0, "items": [{"summary": "This spot is popular", "type": "general", "reasonName": "globalInteractionReason"}]}, "venue": {"id": "4cac685536fa6dcb230bde78", "name": "City Chain", "location": {"address": "#01-34/35 Northpoint Shopping Centre", "crossStreet": "930 Yishun Ave 2", "lat": 1.4290207490121847, "lng": 103.8361205309024, "labeledLatLngs": [{"label": "display", "lat": 1.4290207490121847, "lng": 103.8361205309024}], "distance": 128, "postalCode": "769098", "cc": "SG", "city": "Singapore", "country": "Singapore", "formattedAddress": ["#01-34/35 Northpoint Shopping Centre (930 Yishun Ave 2)", "769098", "Singapore"]}, "categories": [{"id": "4bf58dd8d48988d111951735", "name": "Jewelry Store", "pluralName": "Jewelry Stores", "shortName": "Jewelry", "icon": {"prefix": "https://ss3.4sqi.net/img/categories_v2/shops/jewelry_", "suffix": ".png"}, "primary": true}], "photos": {"count": 0, "groups": []}}, "referralId": "e-0-4cac685536fa6dcb230bde78-37"}, {"reasons": {"count": 0, "items": [{"summary": "This spot is popular", "type": "general", "reasonName": "globalInteractionReason"}]}, "venue": {"id": "58ce0b6e2ec3647b458280af", "name": "Ju Hao Xiao Long Bao \u805a\u8c6a\u62c9\u9762\u5c0f\u7b3c\u5305 (Ju Hao Xiao Long Bao)", "location": {"address": "Notthpoint Shopping Centre", "lat": 1.4299748073305822, "lng": 103.83565387570054, "labeledLatLngs": [{"label": "display", "lat": 1.4299748073305822, "lng": 103.83565387570054}], "distance": 95, "postalCode": "769098", "cc": "SG", "neighborhood": "Yishun", "city": "Singapore", "country": "Singapore", "formattedAddress": ["Notthpoint Shopping Centre", "769098", "Singapore"]}, "categories": [{"id": "4bf58dd8d48988d1f5931735", "name": "Dim Sum Restaurant", "pluralName": "Dim Sum Restaurants", "shortName": "Dim Sum", "icon": {"prefix": "https://ss3.4sqi.net/img/categories_v2/food/dimsum_", "suffix": ".png"}, "primary": true}], "photos": {"count": 0, "groups": []}}, "referralId": "e-0-58ce0b6e2ec3647b458280af-38"}, {"reasons": {"count": 0, "items": [{"summary": "This spot is popular", "type": "general", "reasonName": "globalInteractionReason"}]}, "venue": {"id": "4e56605618a8edeb70dfd857", "name": "Good Price Centre", "location": {"lat": 1.4300994982637218, "lng": 103.8338278106633, "labeledLatLngs": [{"label": "display", "lat": 1.4300994982637218, "lng": 103.8338278106633}], "distance": 155, "cc": "SG", "city": "Singapore", "country": "Singapore", "formattedAddress": ["Singapore"]}, "categories": [{"id": "4bf58dd8d48988d1f6941735", "name": "Department Store", "pluralName": "Department Stores", "shortName": "Department Store", "icon": {"prefix": "https://ss3.4sqi.net/img/categories_v2/shops/departmentstore_", "suffix": ".png"}, "primary": true}], "photos": {"count": 0, "groups": []}}, "referralId": "e-0-4e56605618a8edeb70dfd857-39"}, {"reasons": {"count": 0, "items": [{"summary": "This spot is popular", "type": "general", "reasonName": "globalInteractionReason"}]}, "venue": {"id": "5bd52c8bda5e56002cb58a26", "name": "coffeesmith", "location": {"address": "#01-112 Northpoint City", "lat": 1.429088, "lng": 103.835894, "labeledLatLngs": [{"label": "display", "lat": 1.429088, "lng": 103.835894}], "distance": 101, "postalCode": "768797", "cc": "SG", "city": "Yishun New Town", "state": "Singapore", "country": "Singapore", "formattedAddress": ["#01-112 Northpoint City", "768797", "Singapore"]}, "categories": [{"id": "4bf58dd8d48988d16d941735", "name": "Caf\u00e9", "pluralName": "Caf\u00e9s", "shortName": "Caf\u00e9", "icon": {"prefix": "https://ss3.4sqi.net/img/categories_v2/food/cafe_", "suffix": ".png"}, "primary": true}], "photos": {"count": 0, "groups": []}}, "referralId": "e-0-5bd52c8bda5e56002cb58a26-40"}, {"reasons": {"count": 0, "items": [{"summary": "This spot is popular", "type": "general", "reasonName": "globalInteractionReason"}]}, "venue": {"id": "4ba7cffaf964a5207eb539e3", "name": "Cheers", "location": {"address": "743 Yishun Avenue 5 #01-546", "lat": 1.4300375376986523, "lng": 103.83388996124268, "labeledLatLngs": [{"label": "display", "lat": 1.4300375376986523, "lng": 103.83388996124268}], "distance": 146, "postalCode": "760743", "cc": "SG", "city": "Singapore", "country": "Singapore", "formattedAddress": ["743 Yishun Avenue 5 #01-546", "760743", "Singapore"]}, "categories": [{"id": "4d954b0ea243a5684a65b473", "name": "Convenience Store", "pluralName": "Convenience Stores", "shortName": "Convenience Store", "icon": {"prefix": "https://ss3.4sqi.net/img/categories_v2/shops/conveniencestore_", "suffix": ".png"}, "primary": true}], "photos": {"count": 0, "groups": []}}, "referralId": "e-0-4ba7cffaf964a5207eb539e3-41"}, {"reasons": {"count": 0, "items": [{"summary": "This spot is popular", "type": "general", "reasonName": "globalInteractionReason"}]}, "venue": {"id": "4cce8aa3c9b84688bc1dc9c3", "name": "Sushi Deli", "location": {"address": "#B1-13 Northpoint City", "crossStreet": "930 Yishun Ave 2", "lat": 1.429320072383196, "lng": 103.83634697451028, "labeledLatLngs": [{"label": "display", "lat": 1.429320072383196, "lng": 103.83634697451028}], "distance": 146, "postalCode": "769098", "cc": "SG", "city": "Singapore", "country": "Singapore", "formattedAddress": ["#B1-13 Northpoint City (930 Yishun Ave 2)", "769098", "Singapore"]}, "categories": [{"id": "4bf58dd8d48988d1d2941735", "name": "Sushi Restaurant", "pluralName": "Sushi Restaurants", "shortName": "Sushi", "icon": {"prefix": "https://ss3.4sqi.net/img/categories_v2/food/sushi_", "suffix": ".png"}, "primary": true}], "photos": {"count": 0, "groups": []}}, "referralId": "e-0-4cce8aa3c9b84688bc1dc9c3-42"}, {"reasons": {"count": 0, "items": [{"summary": "This spot is popular", "type": "general", "reasonName": "globalInteractionReason"}]}, "venue": {"id": "4ccfef693e63721efbcc9acc", "name": "Yishun 81 Food Court", "location": {"address": "925 Yishun Central 1", "lat": 1.4280808263904579, "lng": 103.83757979240737, "labeledLatLngs": [{"label": "display", "lat": 1.4280808263904579, "lng": 103.83757979240737}], "distance": 318, "postalCode": "760925", "cc": "SG", "city": "Singapore", "country": "Singapore", "formattedAddress": ["925 Yishun Central 1", "760925", "Singapore"]}, "categories": [{"id": "4bf58dd8d48988d120951735", "name": "Food Court", "pluralName": "Food Courts", "shortName": "Food Court", "icon": {"prefix": "https://ss3.4sqi.net/img/categories_v2/shops/food_foodcourt_", "suffix": ".png"}, "primary": true}], "photos": {"count": 0, "groups": []}}, "referralId": "e-0-4ccfef693e63721efbcc9acc-43"}, {"reasons": {"count": 0, "items": [{"summary": "This spot is popular", "type": "general", "reasonName": "globalInteractionReason"}]}, "venue": {"id": "4ced1abb0acea35d79d6e1ae", "name": "Jessie Tailor", "location": {"address": "Block 705 Yishun Ave 5", "lat": 1.430313333194435, "lng": 103.83259938144565, "labeledLatLngs": [{"label": "display", "lat": 1.430313333194435, "lng": 103.83259938144565}], "distance": 289, "postalCode": "760705", "cc": "SG", "country": "Singapore", "formattedAddress": ["Block 705 Yishun Ave 5", "760705", "Singapore"]}, "categories": [{"id": "5032781d91d4c4b30a586d5b", "name": "Tailor Shop", "pluralName": "Tailor Shops", "shortName": "Tailor", "icon": {"prefix": "https://ss3.4sqi.net/img/categories_v2/shops/apparel_", "suffix": ".png"}, "primary": true}], "photos": {"count": 0, "groups": []}}, "referralId": "e-0-4ced1abb0acea35d79d6e1ae-44"}, {"reasons": {"count": 0, "items": [{"summary": "This spot is popular", "type": "general", "reasonName": "globalInteractionReason"}]}, "venue": {"id": "57594ac6498eafba7c69c65d", "name": "Sichuan Chef", "location": {"address": "20A Yishun Central 1 #01-04", "lat": 1.428686124994382, "lng": 103.83764505386353, "labeledLatLngs": [{"label": "display", "lat": 1.428686124994382, "lng": 103.83764505386353}], "distance": 301, "postalCode": "768830", "cc": "SG", "city": "Singapore", "country": "Singapore", "formattedAddress": ["20A Yishun Central 1 #01-04", "768830", "Singapore"]}, "categories": [{"id": "52af3b773cf9994f4e043c03", "name": "Szechuan Restaurant", "pluralName": "Szechuan Restaurants", "shortName": "Szechuan", "icon": {"prefix": "https://ss3.4sqi.net/img/categories_v2/food/asian_", "suffix": ".png"}, "primary": true}], "photos": {"count": 0, "groups": []}}, "referralId": "e-0-57594ac6498eafba7c69c65d-45"}, {"reasons": {"count": 0, "items": [{"summary": "This spot is popular", "type": "general", "reasonName": "globalInteractionReason"}]}, "venue": {"id": "4baabd19f964a520ba833ae3", "name": "Nee Soon Central Community Park", "location": {"address": "Yishun Ring Road", "lat": 1.4276337683530318, "lng": 103.83291073342028, "labeledLatLngs": [{"label": "display", "lat": 1.4276337683530318, "lng": 103.83291073342028}], "distance": 305, "cc": "SG", "city": "Yishun New Town", "state": "Singapore", "country": "Singapore", "formattedAddress": ["Yishun Ring Road", "Singapore"]}, "categories": [{"id": "4bf58dd8d48988d163941735", "name": "Park", "pluralName": "Parks", "shortName": "Park", "icon": {"prefix": "https://ss3.4sqi.net/img/categories_v2/parks_outdoors/park_", "suffix": ".png"}, "primary": true}], "photos": {"count": 0, "groups": []}}, "referralId": "e-0-4baabd19f964a520ba833ae3-46"}, {"reasons": {"count": 0, "items": [{"summary": "This spot is popular", "type": "general", "reasonName": "globalInteractionReason"}]}, "venue": {"id": "506d16ffe4b0f68b60df9062", "name": "Sheng Siong Supermarket", "location": {"address": "925 Yishun Central 1, #01-211", "lat": 1.4268782124118031, "lng": 103.83705052465609, "labeledLatLngs": [{"label": "display", "lat": 1.4268782124118031, "lng": 103.83705052465609}], "distance": 358, "postalCode": "760925", "cc": "SG", "neighborhood": "Yishun", "city": "Singapore", "country": "Singapore", "formattedAddress": ["925 Yishun Central 1, #01-211", "760925", "Singapore"]}, "categories": [{"id": "4bf58dd8d48988d118951735", "name": "Grocery Store", "pluralName": "Grocery Stores", "shortName": "Grocery Store", "icon": {"prefix": "https://ss3.4sqi.net/img/categories_v2/shops/food_grocery_", "suffix": ".png"}, "primary": true}], "photos": {"count": 0, "groups": []}}, "referralId": "e-0-506d16ffe4b0f68b60df9062-47"}, {"reasons": {"count": 0, "items": [{"summary": "This spot is popular", "type": "general", "reasonName": "globalInteractionReason"}]}, "venue": {"id": "4ca8682ed971b1f74b1a14e1", "name": "156 Eating House", "location": {"address": "#01-122", "crossStreet": "Yishun St. 11", "lat": 1.4320447922634543, "lng": 103.83327695974485, "labeledLatLngs": [{"label": "display", "lat": 1.4320447922634543, "lng": 103.83327695974485}], "distance": 354, "postalCode": "760156", "cc": "SG", "city": "Yishun New Town", "state": "SG", "country": "Singapore", "formattedAddress": ["#01-122 (Yishun St. 11)", "760156", "Singapore"]}, "categories": [{"id": "4bf58dd8d48988d1e0931735", "name": "Coffee Shop", "pluralName": "Coffee Shops", "shortName": "Coffee Shop", "icon": {"prefix": "https://ss3.4sqi.net/img/categories_v2/food/coffeeshop_", "suffix": ".png"}, "primary": true}], "photos": {"count": 0, "groups": []}}, "referralId": "e-0-4ca8682ed971b1f74b1a14e1-48"}, {"reasons": {"count": 0, "items": [{"summary": "This spot is popular", "type": "general", "reasonName": "globalInteractionReason"}]}, "venue": {"id": "4bfbd226d2b720a19475336a", "name": "Shop n Save", "location": {"address": "925 Yishun central 1", "lat": 1.4267380389053894, "lng": 103.83655077408056, "labeledLatLngs": [{"label": "display", "lat": 1.4267380389053894, "lng": 103.83655077408056}], "distance": 339, "cc": "SG", "country": "Singapore", "formattedAddress": ["925 Yishun central 1", "Singapore"]}, "categories": [{"id": "4bf58dd8d48988d118951735", "name": "Grocery Store", "pluralName": "Grocery Stores", "shortName": "Grocery Store", "icon": {"prefix": "https://ss3.4sqi.net/img/categories_v2/shops/food_grocery_", "suffix": ".png"}, "primary": true}], "photos": {"count": 0, "groups": []}}, "referralId": "e-0-4bfbd226d2b720a19475336a-49"}, {"reasons": {"count": 0, "items": [{"summary": "This spot is popular", "type": "general", "reasonName": "globalInteractionReason"}]}, "venue": {"id": "4baa501df964a520e35d3ae3", "name": "Nee Soon Central Park", "location": {"address": "Yishun Ring Rd.", "lat": 1.4286881959785287, "lng": 103.83939833898546, "labeledLatLngs": [{"label": "display", "lat": 1.4286881959785287, "lng": 103.83939833898546}], "distance": 492, "cc": "SG", "city": "Singapore", "country": "Singapore", "formattedAddress": ["Yishun Ring Rd.", "Singapore"]}, "categories": [{"id": "4bf58dd8d48988d163941735", "name": "Park", "pluralName": "Parks", "shortName": "Park", "icon": {"prefix": "https://ss3.4sqi.net/img/categories_v2/parks_outdoors/park_", "suffix": ".png"}, "primary": true}], "photos": {"count": 0, "groups": []}}, "referralId": "e-0-4baa501df964a520e35d3ae3-50"}]}]}}